$GPRMC,104153.00,A,5211.772168,N,00008.752614,E,3.7710583,206.0,070226,,,A,V*2E
$GPRMC,104154.00,A,5211.769199,N,00008.751949,E,4.179266,202.2,070226,,,A,V*1A
$GPRMC,104155.00,A,5211.766280,N,00008.751660,E,3.6544275,205.5,070226,,,A,V*22
$GPRMC,104156.00,A,5211.763394,N,00008.751577,E,3.712743,202.7,070226,,,A,V*17
$GPRMC,104157.00,A,5211.761131,N,00008.751670,E,2.4686825,196.3,070226,,,A,V*21
$GPRMC,104158.00,A,5211.759203,N,00008.752127,E,1.4773219,192.9,070226,,,A,V*22
$GPRMC,104159.00,A,5211.756885,N,00008.752771,E,1.3412527,182.5,070226,,,A,V*29
$GPRMC,104200.00,A,5211.755622,N,00008.753197,E,0.9330453,177.4,070226,,,A,V*2C
$GPRMC,104201.00,A,5211.755007,N,00008.753904,E,0.73866093,143.9,070226,,,A,V*19
$GPRMC,104202.00,A,5211.754449,N,00008.753992,E,0.3887689,94.9,070226,,,A,V*14
$GPRMC,104203.00,A,5211.753770,N,00008.753694,E,1.3218143,6.4,070226,,,A,V*28
$GPRMC,104204.00,A,5211.753388,N,00008.752929,E,0.6803456,354.0,070226,,,A,V*21
$GPRMC,104205.00,A,5211.753061,N,00008.752129,E,0.83585316,19.1,070226,,,A,V*2A
$GPRMC,104206.00,A,5211.753063,N,00008.751501,E,0.73866093,31.8,070226,,,A,V*24
$GPRMC,104207.00,A,5211.752328,N,00008.751042,E,0.83585316,63.0,070226,,,A,V*24
$GPRMC,104208.00,A,5211.751235,N,00008.750074,E,0.66090715,231.4,070226,,,A,V*1D
$GPRMC,104209.00,A,5211.750142,N,00008.749076,E,0.73866093,208.4,070226,,,A,V*12
$GPRMC,104210.00,A,5211.748946,N,00008.748495,E,0.73866093,201.3,070226,,,A,V*19
$GPRMC,104211.00,A,5211.748136,N,00008.748176,E,0.0,0.0,070226,,,A,V*29
$GPRMC,104212.00,A,5211.747360,N,00008.747899,E,0.4859611,252.1,070226,,,A,V*21
$GPRMC,104213.00,A,5211.746812,N,00008.747698,E,0.5442765,6.4,070226,,,A,V*23
$GPRMC,104214.00,A,5211.746543,N,00008.747708,E,0.9330453,11.8,070226,,,A,V*17
$GPRMC,104215.00,A,5211.745686,N,00008.747415,E,1.010799,44.1,070226,,,A,V*25
$GPRMC,104216.00,A,5211.744940,N,00008.747092,E,0.9136069,169.7,070226,,,A,V*24
$GPRMC,104217.00,A,5211.744524,N,00008.746588,E,0.33045357,187.0,070226,,,A,V*11
$GPRMC,104218.00,A,5211.744199,N,00008.745499,E,0.6025918,217.9,070226,,,A,V*2C
$GPRMC,104219.00,A,5211.743448,N,00008.744075,E,0.9136069,242.7,070226,,,A,V*29
$GPRMC,104220.00,A,5211.742833,N,00008.743006,E,0.73866093,233.9,070226,,,A,V*1D
$GPRMC,104221.00,A,5211.740561,N,00008.741276,E,2.3326135,207.4,070226,,,A,V*2E
$GPRMC,104222.00,A,5211.728522,N,00008.735002,E,2.8574514,194.4,070226,,,A,V*22
$GPRMC,104223.00,A,5211.729040,N,00008.734415,E,3.149028,190.8,070226,,,A,V*11
$GPRMC,104224.00,A,5211.729668,N,00008.734477,E,1.4773219,187.2,070226,,,A,V*2B
$GPRMC,104225.00,A,5211.730609,N,00008.734204,E,0.9719222,190.6,070226,,,A,V*2D
$GPRMC,104226.00,A,5211.730152,N,00008.733576,E,2.838013,199.2,070226,,,A,V*18
$GPRMC,104227.00,A,5211.729631,N,00008.732769,E,2.6047516,210.1,070226,,,A,V*29
$GPRMC,104228.00,A,5211.730007,N,00008.732236,E,1.788337,216.6,070226,,,A,V*17
$GPRMC,104229.00,A,5211.730681,N,00008.731576,E,1.963283,217.7,070226,,,A,V*1B
$GPRMC,104230.00,A,5211.730807,N,00008.731038,E,2.3714902,207.5,070226,,,A,V*23
$GPRMC,104231.00,A,5211.730433,N,00008.730606,E,2.9352052,198.8,070226,,,A,V*2B
$GPRMC,104232.00,A,5211.730686,N,00008.730217,E,1.3218143,202.4,070226,,,A,V*2B
$GPRMC,104233.00,A,5211.730330,N,00008.729693,E,2.5658748,206.3,070226,,,A,V*29
$GPRMC,104234.00,A,5211.729873,N,00008.729065,E,2.3520517,210.3,070226,,,A,V*20
$GPRMC,104235.00,A,5211.728518,N,00008.728170,E,3.5572355,203.1,070226,,,A,V*24
$GPRMC,104236.00,A,5211.727137,N,00008.727661,E,2.9546437,196.8,070226,,,A,V*26
$GPRMC,104237.00,A,5211.726325,N,00008.727508,E,2.4298055,188.5,070226,,,A,V*20
$GPRMC,104238.00,A,5211.725373,N,00008.727491,E,2.5075593,183.2,070226,,,A,V*2D
$GPRMC,104239.00,A,5211.724334,N,00008.727289,E,2.62419,187.5,070226,,,A,V*22
$GPRMC,104240.00,A,5211.722940,N,00008.727096,E,3.0907128,187.9,070226,,,A,V*2F
$GPRMC,104241.00,A,5211.722219,N,00008.726957,E,2.7602592,185.0,070226,,,A,V*2E
$GPRMC,104242.00,A,5211.720572,N,00008.726754,E,4.451404,180.4,070226,,,A,V*12
$GPRMC,104243.00,A,5211.719032,N,00008.726639,E,3.5572355,183.4,070226,,,A,V*20
$GPRMC,104244.00,A,5211.718321,N,00008.726668,E,3.537797,184.7,070226,,,A,V*19
$GPRMC,104245.00,A,5211.717276,N,00008.726562,E,3.8682506,187.0,070226,,,A,V*26
$GPRMC,104246.00,A,5211.716649,N,00008.726458,E,3.5961123,190.4,070226,,,A,V*2A
$GPRMC,104247.00,A,5211.716554,N,00008.726457,E,2.6047516,194.1,070226,,,A,V*27
$GPRMC,104248.00,A,5211.717105,N,00008.726251,E,2.3909287,196.7,070226,,,A,V*24
$GPRMC,104249.00,A,5211.717272,N,00008.726275,E,2.62419,187.6,070226,,,A,V*27
$GPRMC,104250.00,A,5211.716296,N,00008.726060,E,3.9654427,184.1,070226,,,A,V*20
$GPRMC,104251.00,A,5211.715434,N,00008.725998,E,4.0043197,181.0,070226,,,A,V*25
$GPRMC,104252.00,A,5211.714348,N,00008.725972,E,3.1684666,185.9,070226,,,A,V*20
$GPRMC,104253.00,A,5211.714394,N,00008.725975,E,1.8660907,187.4,070226,,,A,V*21
$GPRMC,104254.00,A,5211.714158,N,00008.725790,E,2.5658748,190.7,070226,,,A,V*24
$GPRMC,104255.00,A,5211.713774,N,00008.725453,E,2.1576674,188.6,070226,,,A,V*2B
$GPRMC,104256.00,A,5211.713937,N,00008.725285,E,1.1468682,190.4,070226,,,A,V*23
$GPRMC,104257.00,A,5211.714099,N,00008.725140,E,1.1468682,195.5,070226,,,A,V*26
$GPRMC,104258.00,A,5211.714420,N,00008.725258,E,0.0,0.0,070226,,,A,V*2B
$GPRMC,104259.00,A,5211.714915,N,00008.725009,E,1.1857451,249.8,070226,,,A,V*2A
$GPRMC,104300.00,A,5211.715466,N,00008.724730,E,0.9524838,311.3,070226,,,A,V*27
$GPRMC,104301.00,A,5211.716145,N,00008.724395,E,1.9049675,332.8,070226,,,A,V*28
$GPRMC,104302.00,A,5211.716711,N,00008.724391,E,1.1274298,2.8,070226,,,A,V*2B
$GPRMC,104303.00,A,5211.716627,N,00008.724677,E,0.73866093,15.9,070226,,,A,V*20
$GPRMC,104304.00,A,5211.717132,N,00008.725022,E,1.5161988,19.3,070226,,,A,V*19
$GPRMC,104305.00,A,5211.717944,N,00008.725240,E,1.7494601,8.3,070226,,,A,V*24
$GPRMC,104306.00,A,5211.718990,N,00008.725821,E,2.838013,19.7,070226,,,A,V*23
$GPRMC,104307.00,A,5211.719389,N,00008.726335,E,1.4578834,24.5,070226,,,A,V*13
$GPRMC,104308.00,A,5211.719619,N,00008.726630,E,1.1663067,29.5,070226,,,A,V*1F
$GPRMC,104309.00,A,5211.719787,N,00008.726829,E,0.99136066,25.1,070226,,,A,V*20
$GPRMC,104310.00,A,5211.719475,N,00008.726991,E,0.8552916,40.1,070226,,,A,V*17
$GPRMC,104311.00,A,5211.719424,N,00008.727019,E,0.46652266,72.6,070226,,,A,V*29
$GPRMC,104312.00,A,5211.718731,N,00008.726874,E,1.3023758,166.8,070226,,,A,V*2C
$GPRMC,104313.00,A,5211.717975,N,00008.726398,E,1.224622,212.9,070226,,,A,V*1E
$GPRMC,104314.00,A,5211.717656,N,00008.725749,E,0.83585316,237.4,070226,,,A,V*12
$GPRMC,104315.00,A,5211.717885,N,00008.725165,E,1.574514,293.8,070226,,,A,V*19
$GPRMC,104316.00,A,5211.718254,N,00008.724561,E,0.83585316,325.6,070226,,,A,V*10
$GPRMC,104317.00,A,5211.718063,N,00008.724357,E,0.0,0.0,070226,,,A,V*21
$GPRMC,104318.00,A,5211.717734,N,00008.724498,E,0.5637149,28.2,070226,,,A,V*13
$GPRMC,104319.00,A,5211.717101,N,00008.724561,E,1.1079913,143.9,070226,,,A,V*2C
$GPRMC,104320.00,A,5211.716516,N,00008.725036,E,1.6133909,142.9,070226,,,A,V*21
$GPRMC,104321.00,A,5211.716538,N,00008.725403,E,0.6025918,150.0,070226,,,A,V*23
$GPRMC,104322.00,A,5211.716134,N,00008.725370,E,1.6717063,161.2,070226,,,A,V*29
$GPRMC,104323.00,A,5211.715705,N,00008.725270,E,1.3218143,185.3,070226,,,A,V*29
$GPRMC,104324.00,A,5211.715385,N,00008.725177,E,1.4578834,184.5,070226,,,A,V*2E
$GPRMC,104325.00,A,5211.716031,N,00008.725251,E,0.46652266,167.8,070226,,,A,V*16
$GPRMC,104326.00,A,5211.717579,N,00008.725625,E,1.438445,67.5,070226,,,A,V*2C
$GPRMC,104327.00,A,5211.719389,N,00008.725816,E,1.6133909,1.6,070226,,,A,V*2A
$GPRMC,104328.00,A,5211.719029,N,00008.724543,E,0.58315337,352.7,070226,,,A,V*1F
$GPRMC,104329.00,A,5211.718606,N,00008.723540,E,0.87473005,349.1,070226,,,A,V*1B
$GPRMC,104330.00,A,5211.718434,N,00008.722717,E,0.3887689,352.3,070226,,,A,V*20
$GPRMC,104331.00,A,5211.719661,N,00008.722654,E,1.5161988,358.1,070226,,,A,V*24
$GPRMC,104332.00,A,5211.721079,N,00008.722579,E,2.0993521,4.5,070226,,,A,V*2D
$GPRMC,104333.00,A,5211.722302,N,00008.722601,E,2.1187904,5.2,070226,,,A,V*2D
$GPRMC,104334.00,A,5211.723142,N,00008.722356,E,1.9827213,7.7,070226,,,A,V*28
$GPRMC,104335.00,A,5211.722742,N,00008.721305,E,1.3023758,7.1,070226,,,A,V*21
$GPRMC,104336.00,A,5211.722379,N,00008.720527,E,1.4190065,7.5,070226,,,A,V*2A
$GPRMC,104337.00,A,5211.721010,N,00008.719303,E,0.3887689,7.3,070226,,,A,V*25
$GPRMC,104338.00,A,5211.719374,N,00008.718385,E,0.36933047,18.4,070226,,,A,V*2A
$GPRMC,104340.00,A,5211.719801,N,00008.718561,E,2.177106,18.9,070226,,,A,V*26
$GPRMC,104341.00,A,5211.721698,N,00008.719264,E,3.2267818,13.2,070226,,,A,V*16
$GPRMC,104342.00,A,5211.723413,N,00008.719939,E,2.8574514,14.6,070226,,,A,V*19
$GPRMC,104343.00,A,5211.724907,N,00008.720473,E,2.8963282,14.5,070226,,,A,V*1F
$GPRMC,104344.00,A,5211.725552,N,00008.720451,E,1.3801296,15.9,070226,,,A,V*10
$GPRMC,104345.00,A,5211.725909,N,00008.720368,E,1.3023758,9.3,070226,,,A,V*26
$GPRMC,104346.00,A,5211.726289,N,00008.720323,E,1.0691144,12.1,070226,,,A,V*15
$GPRMC,104347.00,A,5211.726634,N,00008.719485,E,2.3520517,355.5,070226,,,A,V*28
$GPRMC,104348.00,A,5211.727347,N,00008.718697,E,2.7602592,356.7,070226,,,A,V*2C
$GPRMC,104349.00,A,5211.728036,N,00008.717779,E,2.6825054,347.0,070226,,,A,V*2B
$GPRMC,104350.00,A,5211.728764,N,00008.716923,E,2.8185744,347.7,070226,,,A,V*2F
$GPRMC,104351.00,A,5211.729444,N,00008.716045,E,0.0,0.0,070226,,,A,V*21
$GPRMC,104352.00,A,5211.730058,N,00008.715110,E,0.0,0.0,070226,,,A,V*21
$GPRMC,104353.00,A,5211.730670,N,00008.714364,E,0.0,0.0,070226,,,A,V*2C
$GPRMC,104354.00,A,5211.731222,N,00008.713912,E,0.0,0.0,070226,,,A,V*25
$GPRMC,104355.00,A,5211.731783,N,00008.713627,E,0.0,0.0,070226,,,A,V*23
$GPRMC,104356.00,A,5211.732366,N,00008.713423,E,0.0,0.0,070226,,,A,V*2A
$GPRMC,104357.00,A,5211.733142,N,00008.713491,E,0.0,0.0,070226,,,A,V*27
$GPRMC,104358.00,A,5211.733635,N,00008.713765,E,0.0,0.0,070226,,,A,V*27
$GPRMC,104359.00,A,5211.734082,N,00008.714054,E,0.0,0.0,070226,,,A,V*29
$GPRMC,104400.00,A,5211.734474,N,00008.714223,E,0.0,0.0,070226,,,A,V*2D
$GPRMC,104401.00,A,5211.735536,N,00008.713574,E,0.0,0.0,070226,,,A,V*28
$GPRMC,105040.00,A,5211.751541,N,00008.723613,E,0.0,0.0,070226,,,A,V*2B
$GPRMC,105041.00,A,5211.750534,N,00008.723175,E,0.0,0.0,070226,,,A,V*2E
$GPRMC,105042.00,A,5211.748496,N,00008.722537,E,0.0,0.0,070226,,,A,V*2E
$GPRMC,105043.00,A,5211.746704,N,00008.722077,E,0.0,0.0,070226,,,A,V*28
$GPRMC,105044.00,A,5211.745361,N,00008.722505,E,0.0,0.0,070226,,,A,V*2B
$GPRMC,105045.00,A,5211.744474,N,00008.722941,E,0.0,0.0,070226,,,A,V*24
$GPRMC,105046.00,A,5211.742921,N,00008.723316,E,0.0,0.0,070226,,,A,V*25
$GPRMC,105047.00,A,5211.741617,N,00008.723605,E,0.0,0.0,070226,,,A,V*2A
$GPRMC,105048.00,A,5211.740165,N,00008.723748,E,0.0,0.0,070226,,,A,V*2E
$GPRMC,105049.00,A,5211.739854,N,00008.723902,E,0.0,0.0,070226,,,A,V*2A
$GPRMC,105050.00,A,5211.740233,N,00008.724071,E,0.0,0.0,070226,,,A,V*2D
$GPRMC,105051.00,A,5211.742453,N,00008.724755,E,0.0,0.0,070226,,,A,V*2F
$GPRMC,105052.00,A,5211.743915,N,00008.724717,E,0.0,0.0,070226,,,A,V*24
$GPRMC,105053.00,A,5211.745027,N,00008.722945,E,0.0,0.0,070226,,,A,V*24
$GPRMC,105054.00,A,5211.744538,N,00008.720565,E,0.0,0.0,070226,,,A,V*25
$GPRMC,105056.00,A,5211.743149,N,00008.715148,E,0.0,0.0,070226,,,A,V*2F
$GPRMC,105057.00,A,5211.742406,N,00008.712591,E,0.0,0.0,070226,,,A,V*26
$GPRMC,105058.00,A,5211.741038,N,00008.709823,E,0.0,0.0,070226,,,A,V*2D
$GPRMC,105059.00,A,5211.739999,N,00008.708024,E,0.0,0.0,070226,,,A,V*2F
$GPRMC,105100.00,A,5211.738972,N,00008.706298,E,0.0,0.0,070226,,,A,V*2D
$GPRMC,105101.00,A,5211.738242,N,00008.704804,E,0.0,0.0,070226,,,A,V*29
$GPRMC,105102.00,A,5211.737247,N,00008.703147,E,0.0,0.0,070226,,,A,V*29
$GPRMC,105103.00,A,5211.736133,N,00008.701196,E,0.0,0.0,070226,,,A,V*27
$GPRMC,105104.00,A,5211.734853,N,00008.698873,E,0.0,0.0,070226,,,A,V*2E
$GPRMC,105106.00,A,5211.731985,N,00008.694026,E,0.0,0.0,070226,,,A,V*27
$GPRMC,105107.00,A,5211.730417,N,00008.691576,E,0.0,0.0,070226,,,A,V*24
$GPRMC,105108.00,A,5211.728749,N,00008.690377,E,0.0,0.0,070226,,,A,V*2C
$GPRMC,105109.00,A,5211.727336,N,00008.689189,E,0.0,0.0,070226,,,A,V*25
$GPRMC,105110.00,A,5211.726374,N,00008.690533,E,0.0,0.0,070226,,,A,V*27
$GPRMC,105111.00,A,5211.725447,N,00008.710551,E,0.0,0.0,070226,,,A,V*2F
$GPRMC,105112.00,A,5211.724072,N,00008.711179,E,0.0,0.0,070226,,,A,V*20
$GPRMC,105113.00,A,5211.724141,N,00008.712162,E,0.0,0.0,070226,,,A,V*29
$GPRMC,105114.00,A,5211.725041,N,00008.712822,E,0.0,0.0,070226,,,A,V*23
$GPRMC,105115.00,A,5211.725709,N,00008.713983,E,0.0,0.0,070226,,,A,V*22
$GPRMC,105116.00,A,5211.726296,N,00008.715801,E,0.0,0.0,070226,,,A,V*2C
$GPRMC,105117.00,A,5211.727092,N,00008.717316,E,0.0,0.0,070226,,,A,V*25
$GPRMC,105118.00,A,5211.728055,N,00008.719029,E,0.0,0.0,070226,,,A,V*2F
$GPRMC,105119.00,A,5211.727913,N,00008.719996,E,0.0,0.0,070226,,,A,V*27
$GPRMC,105120.00,A,5211.727953,N,00008.721570,E,0.0,0.0,070226,,,A,V*26
$GPRMC,105121.00,A,5211.727886,N,00008.723490,E,0.0,0.0,070226,,,A,V*23
$GPRMC,105122.00,A,5211.727552,N,00008.724939,E,0.0,0.0,070226,,,A,V*2D
$GPRMC,105123.00,A,5211.727323,N,00008.726289,E,0.0,0.0,070226,,,A,V*2E
$GPRMC,105124.00,A,5211.726673,N,00008.727768,E,0.0,0.0,070226,,,A,V*23
$GPRMC,105125.00,A,5211.727820,N,00008.729061,E,0.0,0.0,070226,,,A,V*2B
$GPRMC,105126.00,A,5211.728570,N,00008.730224,E,0.0,0.0,070226,,,A,V*24
$GPRMC,105127.00,A,5211.729027,N,00008.731455,E,0.0,0.0,070226,,,A,V*22
$GPRMC,105128.00,A,5211.729431,N,00008.731649,E,0.0,0.0,070226,,,A,V*21
$GPRMC,105129.00,A,5211.729501,N,00008.731208,E,0.0,0.0,070226,,,A,V*23
$GPRMC,105130.00,A,5211.729264,N,00008.730361,E,0.0,0.0,070226,,,A,V*20
$GPRMC,105131.00,A,5211.729645,N,00008.729689,E,0.0,0.0,070226,,,A,V*2D
$GPRMC,105132.00,A,5211.730223,N,00008.729258,E,0.0,0.0,070226,,,A,V*2A
$GPRMC,105133.00,A,5211.726449,N,00008.710461,E,0.0,0.0,070226,,,A,V*20
$GPRMC,105134.00,A,5211.725548,N,00008.709142,E,0.0,0.0,070226,,,A,V*28
$GPRMC,105135.00,A,5211.725299,N,00008.709270,E,0.0,0.0,070226,,,A,V*20
$GPRMC,105136.00,A,5211.725550,N,00008.710365,E,0.0,0.0,070226,,,A,V*2C
$GPRMC,105137.00,A,5211.725924,N,00008.714129,E,0.0,0.0,070226,,,A,V*2C
$GPRMC,105138.00,A,5211.726615,N,00008.717883,E,0.0,0.0,070226,,,A,V*27
$GPRMC,105139.00,A,5211.726837,N,00008.720738,E,0.0,0.0,070226,,,A,V*23
$GPRMC,105140.00,A,5211.727418,N,00008.723298,E,0.0,0.0,070226,,,A,V*21
$GPRMC,105809.00,A,5211.717434,N,00008.700206,E,0.0,0.0,070226,,,A,V*2E
$GPRMC,105811.00,A,5211.717839,N,00008.703600,E,0.99136066,180.9,070226,,,A,V*13
$GPRMC,105812.00,A,5211.717562,N,00008.703801,E,0.0,0.0,070226,,,A,V*28
$GPRMC,105813.00,A,5211.717524,N,00008.704180,E,0.0,0.0,070226,,,A,V*2C
$GPRMC,105814.00,A,5211.717950,N,00008.703571,E,1.4578834,253.9,070226,,,A,V*24
$GPRMC,105815.00,A,5211.718374,N,00008.703306,E,1.3412527,279.5,070226,,,A,V*21
$GPRMC,105816.00,A,5211.718864,N,00008.702928,E,0.0,0.0,070226,,,A,V*23
$GPRMC,105817.00,A,5211.719135,N,00008.703014,E,0.0,0.0,070226,,,A,V*29
$GPRMC,105818.00,A,5211.719581,N,00008.702272,E,0.0,0.0,070226,,,A,V*2E
$GPRMC,105819.00,A,5211.719384,N,00008.701269,E,0.0,0.0,070226,,,A,V*25
$GPRMC,105820.00,A,5211.719401,N,00008.701609,E,0.0,0.0,070226,,,A,V*27
$GPRMC,105821.00,A,5211.719842,N,00008.701251,E,0.0,0.0,070226,,,A,V*24
$GPRMC,105822.00,A,5211.720576,N,00008.701821,E,0.0,0.0,070226,,,A,V*2A
$GPRMC,105823.00,A,5211.721010,N,00008.702291,E,0.0,0.0,070226,,,A,V*2D
$GPRMC,105824.00,A,5211.721469,N,00008.702802,E,0.0,0.0,070226,,,A,V*20
$GPRMC,105825.00,A,5211.722036,N,00008.703060,E,0.0,0.0,070226,,,A,V*21
$GPRMC,105826.00,A,5211.722657,N,00008.702943,E,0.0,0.0,070226,,,A,V*2A
$GPRMC,105827.00,A,5211.722929,N,00008.703536,E,0.0,0.0,070226,,,A,V*22
$GPRMC,105828.00,A,5211.722977,N,00008.703790,E,0.0,0.0,070226,,,A,V*28
$GPRMC,105829.00,A,5211.722994,N,00008.704008,E,0.0,0.0,070226,,,A,V*25
$GPRMC,105830.00,A,5211.723050,N,00008.704318,E,0.0,0.0,070226,,,A,V*2F
$GPRMC,105831.00,A,5211.723051,N,00008.704416,E,0.0,0.0,070226,,,A,V*26
$GPRMC,105832.00,A,5211.723050,N,00008.704446,E,0.0,0.0,070226,,,A,V*21
$GPRMC,105833.00,A,5211.723007,N,00008.704488,E,0.0,0.0,070226,,,A,V*20
$GPRMC,105834.00,A,5211.722994,N,00008.704526,E,0.0,0.0,070226,,,A,V*20
$GPRMC,105835.00,A,5211.722986,N,00008.704540,E,0.0,0.0,070226,,,A,V*22
$GPRMC,105836.00,A,5211.722937,N,00008.704627,E,0.0,0.0,070226,,,A,V*29
$GPRMC,105837.00,A,5211.722913,N,00008.704671,E,0.0,0.0,070226,,,A,V*2D
$GPRMC,105838.00,A,5211.722900,N,00008.704694,E,0.0,0.0,070226,,,A,V*2B
$GPRMC,105839.00,A,5211.722996,N,00008.704647,E,0.0,0.0,070226,,,A,V*2B
$GPRMC,105840.00,A,5211.723043,N,00008.704622,E,0.0,0.0,070226,,,A,V*26
$GPRMC,105841.00,A,5211.723080,N,00008.704590,E,0.0,0.0,070226,,,A,V*22
$GPRMC,105842.00,A,5211.723094,N,00008.704563,E,0.0,0.0,070226,,,A,V*28
$GPRMC,105843.00,A,5211.723097,N,00008.704543,E,0.0,0.0,070226,,,A,V*28
$GPRMC,105844.00,A,5211.723045,N,00008.704558,E,0.0,0.0,070226,,,A,V*2A
$GPRMC,105845.00,A,5211.722853,N,00008.705095,E,0.0,0.0,070226,,,A,V*20
$GPRMC,105846.00,A,5211.722664,N,00008.705641,E,0.0,0.0,070226,,,A,V*26
$GPRMC,105847.00,A,5211.722537,N,00008.706024,E,0.0,0.0,070226,,,A,V*24
$GPRMC,105848.00,A,5211.722482,N,00008.706187,E,0.0,0.0,070226,,,A,V*2C
$GPRMC,105849.00,A,5211.722408,N,00008.706286,E,0.0,0.0,070226,,,A,V*2D
$GPRMC,105850.00,A,5211.722386,N,00008.706318,E,0.0,0.0,070226,,,A,V*22
$GPRMC,105851.00,A,5211.722372,N,00008.706354,E,0.0,0.0,070226,,,A,V*20
$GPRMC,105852.00,A,5211.722363,N,00008.706365,E,0.0,0.0,070226,,,A,V*21
$GPRMC,105853.00,A,5211.722348,N,00008.706405,E,0.0,0.0,070226,,,A,V*28
$GPRMC,105854.00,A,5211.722336,N,00008.706453,E,0.0,0.0,070226,,,A,V*25
$GPRMC,105855.00,A,5211.722317,N,00008.706505,E,0.0,0.0,070226,,,A,V*25
$GPRMC,105856.00,A,5211.722304,N,00008.706538,E,0.0,0.0,070226,,,A,V*2A
$GPRMC,105857.00,A,5211.722286,N,00008.706595,E,0.0,0.0,070226,,,A,V*27
$GPRMC,105858.00,A,5211.722281,N,00008.706646,E,0.0,0.0,070226,,,A,V*22
$GPRMC,105859.00,A,5211.722276,N,00008.706666,E,0.0,0.0,070226,,,A,V*29
$GPRMC,105900.00,A,5211.722270,N,00008.706694,E,0.0,0.0,070226,,,A,V*2F
$GPRMC,105901.00,A,5211.722266,N,00008.706720,E,0.0,0.0,070226,,,A,V*27
$GPRMC,105903.00,A,5211.722246,N,00008.706772,E,0.0,0.0,070226,,,A,V*20
$GPRMC,105904.00,A,5211.722238,N,00008.706822,E,0.0,0.0,070226,,,A,V*24
$GPRMC,105905.00,A,5211.722241,N,00008.706869,E,0.0,0.0,070226,,,A,V*24
$GPRMC,105906.00,A,5211.722246,N,00008.706928,E,0.0,0.0,070226,,,A,V*24
$GPRMC,105907.00,A,5211.722252,N,00008.706982,E,0.0,0.0,070226,,,A,V*20
$GPRMC,105908.00,A,5211.722256,N,00008.707024,E,0.0,0.0,070226,,,A,V*2F
$GPRMC,105909.00,A,5211.722251,N,00008.707054,E,0.0,0.0,070226,,,A,V*2E
$GPRMC,105910.00,A,5211.722249,N,00008.707087,E,0.0,0.0,070226,,,A,V*21
$GPRMC,105911.00,A,5211.722249,N,00008.707123,E,0.0,0.0,070226,,,A,V*2F
$GPRMC,105912.00,A,5211.722252,N,00008.707167,E,0.0,0.0,070226,,,A,V*26
$GPRMC,105913.00,A,5211.722252,N,00008.707220,E,0.0,0.0,070226,,,A,V*27
$GPRMC,105914.00,A,5211.722258,N,00008.707279,E,0.0,0.0,070226,,,A,V*26
$GPRMC,105915.00,A,5211.722258,N,00008.707320,E,0.0,0.0,070226,,,A,V*2A
$GPRMC,105916.00,A,5211.722270,N,00008.707377,E,0.0,0.0,070226,,,A,V*21
$GPRMC,105917.00,A,5211.722277,N,00008.707415,E,0.0,0.0,070226,,,A,V*24
$GPRMC,105918.00,A,5211.722278,N,00008.707441,E,0.0,0.0,070226,,,A,V*25
$GPRMC,105919.00,A,5211.722198,N,00008.707321,E,0.0,0.0,070226,,,A,V*28
$GPRMC,105920.00,A,5211.722159,N,00008.707267,E,0.0,0.0,070226,,,A,V*2C
$GPRMC,105921.00,A,5211.722139,N,00008.707255,E,0.0,0.0,070226,,,A,V*2A
$GPRMC,105922.00,A,5211.722127,N,00008.707258,E,0.0,0.0,070226,,,A,V*2B
$GPRMC,105923.00,A,5211.722080,N,00008.707185,E,0.0,0.0,070226,,,A,V*25
$GPRMC,105924.00,A,5211.722054,N,00008.707150,E,0.0,0.0,070226,,,A,V*23
$GPRMC,105925.00,A,5211.722296,N,00008.707608,E,0.0,0.0,070226,,,A,V*24
$GPRMC,105926.00,A,5211.722599,N,00008.708179,E,0.0,0.0,070226,,,A,V*21
$GPRMC,105927.00,A,5211.722749,N,00008.708477,E,0.0,0.0,070226,,,A,V*24
$GPRMC,105928.00,A,5211.722824,N,00008.708650,E,0.0,0.0,070226,,,A,V*28
$GPRMC,105929.00,A,5211.722928,N,00008.708871,E,0.0,0.0,070226,,,A,V*29
$GPRMC,105930.00,A,5211.722981,N,00008.708988,E,0.0,0.0,070226,,,A,V*25
$GPRMC,105931.00,A,5211.723009,N,00008.709059,E,0.0,0.0,070226,,,A,V*28
$GPRMC,105932.00,A,5211.722937,N,00008.708943,E,0.0,0.0,070226,,,A,V*2D
$GPRMC,105933.00,A,5211.722897,N,00008.708896,E,0.0,0.0,070226,,,A,V*2E
$GPRMC,105934.00,A,5211.722879,N,00008.708877,E,0.0,0.0,070226,,,A,V*26
$GPRMC,105935.00,A,5211.722960,N,00008.709036,E,0.0,0.0,070226,,,A,V*22
$GPRMC,105936.00,A,5211.723004,N,00008.709126,E,0.0,0.0,070226,,,A,V*2B
$GPRMC,105937.00,A,5211.723123,N,00008.709359,E,0.0,0.0,070226,,,A,V*24
$GPRMC,105938.00,A,5211.723184,N,00008.709490,E,0.0,0.0,070226,,,A,V*24
$GPRMC,105939.00,A,5211.723244,N,00008.709615,E,0.0,0.0,070226,,,A,V*25
$GPRMC,105940.00,A,5211.723273,N,00008.709685,E,0.0,0.0,070226,,,A,V*26
$GPRMC,105941.00,A,5211.723300,N,00008.709744,E,0.0,0.0,070226,,,A,V*2E
$GPRMC,105942.00,A,5211.723318,N,00008.709792,E,0.0,0.0,070226,,,A,V*2F
$GPRMC,105943.00,A,5211.723326,N,00008.709822,E,0.0,0.0,070226,,,A,V*27
$GPRMC,105944.00,A,5211.723331,N,00008.709845,E,0.0,0.0,070226,,,A,V*27
$GPRMC,105945.00,A,5211.723332,N,00008.709859,E,0.0,0.0,070226,,,A,V*28
$GPRMC,105946.00,A,5211.723335,N,00008.709879,E,0.0,0.0,070226,,,A,V*2E
$GPRMC,105947.00,A,5211.723343,N,00008.709904,E,0.0,0.0,070226,,,A,V*25
$GPRMC,105948.00,A,5211.723347,N,00008.709927,E,0.0,0.0,070226,,,A,V*2F
$GPRMC,105949.00,A,5211.723353,N,00008.709947,E,0.0,0.0,070226,,,A,V*2D
$GPRMC,105950.00,A,5211.723358,N,00008.709973,E,0.0,0.0,070226,,,A,V*29
$GPRMC,105951.00,A,5211.723371,N,00008.710010,E,0.0,0.0,070226,,,A,V*27
$GPRMC,105952.00,A,5211.723380,N,00008.710044,E,0.0,0.0,070226,,,A,V*2B
$GPRMC,105953.00,A,5211.723384,N,00008.710064,E,0.0,0.0,070226,,,A,V*2C
$GPRMC,105954.00,A,5211.723392,N,00008.710092,E,0.0,0.0,070226,,,A,V*25
$GPRMC,105955.00,A,5211.723393,N,00008.710107,E,0.0,0.0,070226,,,A,V*28
$GPRMC,105956.00,A,5211.723395,N,00008.710119,E,0.0,0.0,070226,,,A,V*22
$GPRMC,105957.00,A,5211.723401,N,00008.710138,E,0.0,0.0,070226,,,A,V*2A
$GPRMC,105958.00,A,5211.723405,N,00008.710147,E,0.0,0.0,070226,,,A,V*29
$GPRMC,105959.00,A,5211.723416,N,00008.710166,E,0.0,0.0,070226,,,A,V*29
$GPRMC,110000.00,A,5211.723420,N,00008.710173,E,0.0,0.0,070226,,,A,V*29
$GPRMC,110001.00,A,5211.723421,N,00008.710187,E,0.0,0.0,070226,,,A,V*22
$GPRMC,110002.00,A,5211.723425,N,00008.710203,E,0.0,0.0,070226,,,A,V*2A
$GPRMC,110003.00,A,5211.723425,N,00008.710213,E,0.0,0.0,070226,,,A,V*2A
$GPRMC,110004.00,A,5211.723425,N,00008.710222,E,0.0,0.0,070226,,,A,V*2F
$GPRMC,110005.00,A,5211.723428,N,00008.710235,E,0.0,0.0,070226,,,A,V*25
$GPRMC,110006.00,A,5211.723430,N,00008.710251,E,0.0,0.0,070226,,,A,V*2D
$GPRMC,110007.00,A,5211.723431,N,00008.710265,E,0.0,0.0,070226,,,A,V*2A
$GPRMC,110008.00,A,5211.723431,N,00008.710272,E,0.0,0.0,070226,,,A,V*23
$GPRMC,110009.00,A,5211.723436,N,00008.710282,E,0.0,0.0,070226,,,A,V*2A
$GPRMC,110010.00,A,5211.723443,N,00008.710299,E,0.0,0.0,070226,,,A,V*2A
$GPRMC,110011.00,A,5211.723452,N,00008.710323,E,0.0,0.0,070226,,,A,V*2B
$GPRMC,110012.00,A,5211.723457,N,00008.710348,E,0.0,0.0,070226,,,A,V*20
$GPRMC,110013.00,A,5211.723468,N,00008.710384,E,0.0,0.0,070226,,,A,V*2D
$GPRMC,110014.00,A,5211.723466,N,00008.710396,E,0.0,0.0,070226,,,A,V*27
$GPRMC,110015.00,A,5211.723466,N,00008.710400,E,0.0,0.0,070226,,,A,V*2E
$GPRMC,110016.00,A,5211.723467,N,00008.710403,E,0.0,0.0,070226,,,A,V*2F
$GPRMC,110017.00,A,5211.723470,N,00008.710410,E,0.0,0.0,070226,,,A,V*2A
$GPRMC,110018.00,A,5211.723467,N,00008.710407,E,0.0,0.0,070226,,,A,V*25
$GPRMC,110019.00,A,5211.723463,N,00008.710411,E,0.0,0.0,070226,,,A,V*27
$GPRMC,110020.00,A,5211.723462,N,00008.710418,E,0.0,0.0,070226,,,A,V*25
$GPRMC,110021.00,A,5211.723461,N,00008.710423,E,0.0,0.0,070226,,,A,V*2F
$GPRMC,110022.00,A,5211.723459,N,00008.710428,E,0.0,0.0,070226,,,A,V*2C
$GPRMC,110023.00,A,5211.723460,N,00008.710434,E,0.0,0.0,070226,,,A,V*2A
$GPRMC,110024.00,A,5211.723460,N,00008.710438,E,0.0,0.0,070226,,,A,V*21
$GPRMC,110025.00,A,5211.723461,N,00008.710439,E,0.0,0.0,070226,,,A,V*20
$GPRMC,110026.00,A,5211.723461,N,00008.710439,E,0.0,0.0,070226,,,A,V*23
$GPRMC,110027.00,A,5211.723460,N,00008.710438,E,0.0,0.0,070226,,,A,V*22
$GPRMC,110028.00,A,5211.723458,N,00008.710435,E,0.0,0.0,070226,,,A,V*2B
$GPRMC,110029.00,A,5211.723456,N,00008.710431,E,0.0,0.0,070226,,,A,V*20
$GPRMC,110030.00,A,5211.723455,N,00008.710425,E,0.0,0.0,070226,,,A,V*2E
$GPRMC,110031.00,A,5211.723456,N,00008.710428,E,0.0,0.0,070226,,,A,V*21
$GPRMC,110032.00,A,5211.723455,N,00008.710432,E,0.0,0.0,070226,,,A,V*2A
$GPRMC,110033.00,A,5211.723455,N,00008.710441,E,0.0,0.0,070226,,,A,V*2F
$GPRMC,110034.00,A,5211.723453,N,00008.710446,E,0.0,0.0,070226,,,A,V*29
$GPRMC,110035.00,A,5211.723446,N,00008.710453,E,0.0,0.0,070226,,,A,V*28
$GPRMC,110036.00,A,5211.723445,N,00008.710461,E,0.0,0.0,070226,,,A,V*29
$GPRMC,110037.00,A,5211.723446,N,00008.710467,E,0.0,0.0,070226,,,A,V*2D
$GPRMC,110038.00,A,5211.723445,N,00008.710468,E,0.0,0.0,070226,,,A,V*2E
$GPRMC,110039.00,A,5211.723443,N,00008.710473,E,0.0,0.0,070226,,,A,V*23
$GPRMC,110040.00,A,5211.723439,N,00008.710472,E,0.0,0.0,070226,,,A,V*21
$GPRMC,110041.00,A,5211.723434,N,00008.710475,E,0.0,0.0,070226,,,A,V*2A
$GPRMC,110042.00,A,5211.723428,N,00008.710476,E,0.0,0.0,070226,,,A,V*27
$GPRMC,110043.00,A,5211.723424,N,00008.710479,E,0.0,0.0,070226,,,A,V*25
$GPRMC,110044.00,A,5211.723422,N,00008.710483,E,0.0,0.0,070226,,,A,V*21
$GPRMC,110045.00,A,5211.723420,N,00008.710485,E,0.0,0.0,070226,,,A,V*24
$GPRMC,110046.00,A,5211.723415,N,00008.710485,E,0.0,0.0,070226,,,A,V*21
$GPRMC,110047.00,A,5211.723411,N,00008.710487,E,0.0,0.0,070226,,,A,V*26
$GPRMC,110048.00,A,5211.723409,N,00008.710490,E,0.0,0.0,070226,,,A,V*26
$GPRMC,110049.00,A,5211.723406,N,00008.710494,E,0.0,0.0,070226,,,A,V*2C
$GPRMC,110050.00,A,5211.723407,N,00008.710497,E,0.0,0.0,070226,,,A,V*26
$GPRMC,110051.00,A,5211.723407,N,00008.710503,E,0.0,0.0,070226,,,A,V*2B
$GPRMC,110052.00,A,5211.723408,N,00008.710504,E,0.0,0.0,070226,,,A,V*20
$GPRMC,110053.00,A,5211.723408,N,00008.710507,E,0.0,0.0,070226,,,A,V*22
$GPRMC,110054.00,A,5211.723408,N,00008.710510,E,0.0,0.0,070226,,,A,V*23
$GPRMC,110055.00,A,5211.723409,N,00008.710512,E,0.0,0.0,070226,,,A,V*21
$GPRMC,110056.00,A,5211.723409,N,00008.710514,E,0.0,0.0,070226,,,A,V*24
$GPRMC,110057.00,A,5211.723407,N,00008.710518,E,0.0,0.0,070226,,,A,V*27
$GPRMC,110058.00,A,5211.723407,N,00008.710520,E,0.0,0.0,070226,,,A,V*23
$GPRMC,110059.00,A,5211.723405,N,00008.710523,E,0.0,0.0,070226,,,A,V*23
$GPRMC,110100.00,A,5211.723405,N,00008.710525,E,0.0,0.0,070226,,,A,V*28
$GPRMC,110101.00,A,5211.723404,N,00008.710527,E,0.0,0.0,070226,,,A,V*2A
$GPRMC,110102.00,A,5211.723404,N,00008.710528,E,0.0,0.0,070226,,,A,V*26
$GPRMC,110103.00,A,5211.723402,N,00008.710530,E,0.0,0.0,070226,,,A,V*28
$GPRMC,110104.00,A,5211.723402,N,00008.710533,E,0.0,0.0,070226,,,A,V*2C
$GPRMC,110105.00,A,5211.723403,N,00008.710537,E,0.0,0.0,070226,,,A,V*28
$GPRMC,110106.00,A,5211.723403,N,00008.710540,E,0.0,0.0,070226,,,A,V*2B
$GPRMC,110107.00,A,5211.723403,N,00008.710542,E,0.0,0.0,070226,,,A,V*28
$GPRMC,110108.00,A,5211.723402,N,00008.710543,E,0.0,0.0,070226,,,A,V*27
$GPRMC,110109.00,A,5211.723401,N,00008.710546,E,0.0,0.0,070226,,,A,V*20
$GPRMC,110110.00,A,5211.723398,N,00008.710552,E,0.0,0.0,070226,,,A,V*2A
$GPRMC,110111.00,A,5211.723396,N,00008.710554,E,0.0,0.0,070226,,,A,V*23
$GPRMC,110112.00,A,5211.723394,N,00008.710555,E,0.0,0.0,070226,,,A,V*23
$GPRMC,110113.00,A,5211.723393,N,00008.710554,E,0.0,0.0,070226,,,A,V*24
$GPRMC,110114.00,A,5211.723393,N,00008.710558,E,0.0,0.0,070226,,,A,V*2F
$GPRMC,110115.00,A,5211.723393,N,00008.710561,E,0.0,0.0,070226,,,A,V*24
$GPRMC,110116.00,A,5211.723393,N,00008.710564,E,0.0,0.0,070226,,,A,V*22
$GPRMC,110117.00,A,5211.723393,N,00008.710566,E,0.0,0.0,070226,,,A,V*21
$GPRMC,110118.00,A,5211.723394,N,00008.710563,E,0.0,0.0,070226,,,A,V*2C
$GPRMC,110123.00,A,5211.723395,N,00008.710583,E,0.0,0.0,070226,,,A,V*2B
$GPRMC,110124.00,A,5211.723393,N,00008.710590,E,0.0,0.0,070226,,,A,V*28
$GPRMC,110125.00,A,5211.723394,N,00008.710599,E,0.0,0.0,070226,,,A,V*27
$GPRMC,110127.00,A,5211.723391,N,00008.710611,E,0.0,0.0,070226,,,A,V*23
$GPRMC,110128.00,A,5211.723390,N,00008.710618,E,0.0,0.0,070226,,,A,V*24
$GPRMC,110129.00,A,5211.723390,N,00008.710627,E,0.0,0.0,070226,,,A,V*29
$GPRMC,110130.00,A,5211.723388,N,00008.710634,E,0.0,0.0,070226,,,A,V*2A
$GPRMC,110131.00,A,5211.723386,N,00008.710641,E,0.0,0.0,070226,,,A,V*27
$GPRMC,110132.00,A,5211.723384,N,00008.710646,E,0.0,0.0,070226,,,A,V*21
$GPRMC,110133.00,A,5211.723354,N,00008.710648,E,0.0,0.0,070226,,,A,V*23
$GPRMC,110134.00,A,5211.723340,N,00008.710652,E,0.0,0.0,070226,,,A,V*2A
$GPRMC,110135.00,A,5211.723332,N,00008.710651,E,0.0,0.0,070226,,,A,V*2D
$GPRMC,110136.00,A,5211.723328,N,00008.710652,E,0.0,0.0,070226,,,A,V*26
$GPRMC,110137.00,A,5211.723328,N,00008.710657,E,0.0,0.0,070226,,,A,V*22
$GPRMC,110138.00,A,5211.723328,N,00008.710661,E,0.0,0.0,070226,,,A,V*28
$GPRMC,110139.00,A,5211.723328,N,00008.710664,E,0.0,0.0,070226,,,A,V*2C
$GPRMC,110140.00,A,5211.723327,N,00008.710666,E,0.0,0.0,070226,,,A,V*2F
$GPRMC,110141.00,A,5211.723328,N,00008.710668,E,0.0,0.0,070226,,,A,V*2F
$GPRMC,110142.00,A,5211.723339,N,00008.710671,E,0.0,0.0,070226,,,A,V*24
$GPRMC,110143.00,A,5211.723345,N,00008.710672,E,0.0,0.0,070226,,,A,V*2D
$GPRMC,110144.00,A,5211.723348,N,00008.710675,E,0.0,0.0,070226,,,A,V*20
$GPRMC,110145.00,A,5211.723350,N,00008.710676,E,0.0,0.0,070226,,,A,V*2B
$GPRMC,110146.00,A,5211.723351,N,00008.710675,E,0.0,0.0,070226,,,A,V*2A
$GPRMC,110147.00,A,5211.723352,N,00008.710675,E,0.0,0.0,070226,,,A,V*28
$GPRMC,110148.00,A,5211.723353,N,00008.710677,E,0.0,0.0,070226,,,A,V*24
$GPRMC,110149.00,A,5211.723354,N,00008.710679,E,0.0,0.0,070226,,,A,V*2C
$GPRMC,110150.00,A,5211.723354,N,00008.710680,E,0.0,0.0,070226,,,A,V*22
$GPRMC,110151.00,A,5211.723354,N,00008.710680,E,0.0,0.0,070226,,,A,V*23
$GPRMC,110152.00,A,5211.723352,N,00008.710679,E,0.0,0.0,070226,,,A,V*20
$GPRMC,110153.00,A,5211.723352,N,00008.710681,E,0.0,0.0,070226,,,A,V*26
$GPRMC,110154.00,A,5211.723353,N,00008.710684,E,0.0,0.0,070226,,,A,V*25
$GPRMC,110155.00,A,5211.723354,N,00008.710687,E,0.0,0.0,070226,,,A,V*20
$GPRMC,110156.00,A,5211.723355,N,00008.710690,E,0.0,0.0,070226,,,A,V*24
$GPRMC,110157.00,A,5211.723354,N,00008.710690,E,0.0,0.0,070226,,,A,V*24
$GPRMC,110158.00,A,5211.723352,N,00008.710692,E,0.0,0.0,070226,,,A,V*2F
$GPRMC,110159.00,A,5211.723346,N,00008.710692,E,0.0,0.0,070226,,,A,V*2B
$GPRMC,110200.00,A,5211.723343,N,00008.710690,E,0.0,0.0,070226,,,A,V*23
$GPRMC,110201.00,A,5211.723339,N,00008.710690,E,0.0,0.0,070226,,,A,V*2F
$GPRMC,110202.00,A,5211.723333,N,00008.710689,E,0.0,0.0,070226,,,A,V*2E
$GPRMC,110203.00,A,5211.723329,N,00008.710687,E,0.0,0.0,070226,,,A,V*2A
$GPRMC,110204.00,A,5211.723327,N,00008.710688,E,0.0,0.0,070226,,,A,V*2C
$GPRMC,110205.00,A,5211.723324,N,00008.710689,E,0.0,0.0,070226,,,A,V*2F
$GPRMC,110206.00,A,5211.723320,N,00008.710687,E,0.0,0.0,070226,,,A,V*26
$GPRMC,110207.00,A,5211.723320,N,00008.710690,E,0.0,0.0,070226,,,A,V*21
$GPRMC,110208.00,A,5211.723319,N,00008.710690,E,0.0,0.0,070226,,,A,V*24
$GPRMC,110209.00,A,5211.723317,N,00008.710689,E,0.0,0.0,070226,,,A,V*23
$GPRMC,110210.00,A,5211.723317,N,00008.710689,E,0.0,0.0,070226,,,A,V*2B
$GPRMC,110211.00,A,5211.723320,N,00008.710691,E,0.0,0.0,070226,,,A,V*27
$GPRMC,110212.00,A,5211.723321,N,00008.710696,E,0.0,0.0,070226,,,A,V*22
$GPRMC,110213.00,A,5211.723319,N,00008.710699,E,0.0,0.0,070226,,,A,V*27
$GPRMC,110214.00,A,5211.723320,N,00008.710700,E,0.0,0.0,070226,,,A,V*2B
$GPRMC,110215.00,A,5211.723320,N,00008.710701,E,0.0,0.0,070226,,,A,V*2B
$GPRMC,110216.00,A,5211.723318,N,00008.710701,E,0.0,0.0,070226,,,A,V*23
$GPRMC,110217.00,A,5211.723317,N,00008.710703,E,0.0,0.0,070226,,,A,V*2F
$GPRMC,110218.00,A,5211.723316,N,00008.710705,E,0.0,0.0,070226,,,A,V*27
$GPRMC,110219.00,A,5211.723318,N,00008.710708,E,0.0,0.0,070226,,,A,V*25
$GPRMC,110220.00,A,5211.723318,N,00008.710708,E,0.0,0.0,070226,,,A,V*2F
$GPRMC,110221.00,A,5211.723314,N,00008.710705,E,0.0,0.0,070226,,,A,V*2F
$GPRMC,110222.00,A,5211.723312,N,00008.710708,E,0.0,0.0,070226,,,A,V*27
$GPRMC,110223.00,A,5211.723309,N,00008.710705,E,0.0,0.0,070226,,,A,V*21
$GPRMC,110224.00,A,5211.723285,N,00008.710683,E,0.0,0.0,070226,,,A,V*2C
$GPRMC,110225.00,A,5211.723272,N,00008.710677,E,0.0,0.0,070226,,,A,V*2E
$GPRMC,110226.00,A,5211.723265,N,00008.710675,E,0.0,0.0,070226,,,A,V*29
$GPRMC,110227.00,A,5211.723260,N,00008.710676,E,0.0,0.0,070226,,,A,V*2E
$GPRMC,110228.00,A,5211.723259,N,00008.710681,E,0.0,0.0,070226,,,A,V*23
$GPRMC,110229.00,A,5211.723261,N,00008.710684,E,0.0,0.0,070226,,,A,V*2C
$GPRMC,110230.00,A,5211.723264,N,00008.710692,E,0.0,0.0,070226,,,A,V*26
$GPRMC,110231.00,A,5211.723265,N,00008.710699,E,0.0,0.0,070226,,,A,V*2D
$GPRMC,110232.00,A,5211.723264,N,00008.710705,E,0.0,0.0,070226,,,A,V*2B
$GPRMC,110233.00,A,5211.723263,N,00008.710709,E,0.0,0.0,070226,,,A,V*21
$GPRMC,110234.00,A,5211.723259,N,00008.710708,E,0.0,0.0,070226,,,A,V*2E
$GPRMC,110235.00,A,5211.723257,N,00008.710709,E,0.0,0.0,070226,,,A,V*20
$GPRMC,110236.00,A,5211.723258,N,00008.710711,E,0.0,0.0,070226,,,A,V*25
$GPRMC,110237.00,A,5211.723259,N,00008.710713,E,0.0,0.0,070226,,,A,V*27
$GPRMC,110238.00,A,5211.723260,N,00008.710714,E,0.0,0.0,070226,,,A,V*25
$GPRMC,110239.00,A,5211.723261,N,00008.710715,E,0.0,0.0,070226,,,A,V*24
$GPRMC,110240.00,A,5211.723262,N,00008.710718,E,0.0,0.0,070226,,,A,V*24
$GPRMC,110241.00,A,5211.723264,N,00008.710720,E,0.0,0.0,070226,,,A,V*28
$GPRMC,110242.00,A,5211.723265,N,00008.710720,E,0.0,0.0,070226,,,A,V*2A
$GPRMC,110243.00,A,5211.723266,N,00008.710721,E,0.0,0.0,070226,,,A,V*29
$GPRMC,110244.00,A,5211.723266,N,00008.710721,E,0.0,0.0,070226,,,A,V*2E
$GPRMC,110245.00,A,5211.723266,N,00008.710723,E,0.0,0.0,070226,,,A,V*2D
$GPRMC,110246.00,A,5211.723267,N,00008.710725,E,0.0,0.0,070226,,,A,V*29
$GPRMC,110247.00,A,5211.723267,N,00008.710728,E,0.0,0.0,070226,,,A,V*25
$GPRMC,110248.00,A,5211.723268,N,00008.710731,E,0.0,0.0,070226,,,A,V*2D
$GPRMC,110249.00,A,5211.723268,N,00008.710734,E,0.0,0.0,070226,,,A,V*29
$GPRMC,110250.00,A,5211.723269,N,00008.710737,E,0.0,0.0,070226,,,A,V*23
$GPRMC,110251.00,A,5211.723271,N,00008.710740,E,0.0,0.0,070226,,,A,V*2B
$GPRMC,110252.00,A,5211.723272,N,00008.710743,E,0.0,0.0,070226,,,A,V*28
$GPRMC,110253.00,A,5211.723274,N,00008.710749,E,0.0,0.0,070226,,,A,V*25
$GPRMC,110254.00,A,5211.723275,N,00008.710754,E,0.0,0.0,070226,,,A,V*2F
$GPRMC,110255.00,A,5211.723277,N,00008.710759,E,0.0,0.0,070226,,,A,V*21
$GPRMC,110256.00,A,5211.723276,N,00008.710762,E,0.0,0.0,070226,,,A,V*2B
$GPRMC,110257.00,A,5211.723276,N,00008.710767,E,0.0,0.0,070226,,,A,V*2F
$GPRMC,110258.00,A,5211.723274,N,00008.710771,E,0.0,0.0,070226,,,A,V*25
$GPRMC,110259.00,A,5211.723272,N,00008.710777,E,0.0,0.0,070226,,,A,V*24
$GPRMC,110300.00,A,5211.723271,N,00008.710782,E,0.0,0.0,070226,,,A,V*20
$GPRMC,110301.00,A,5211.723269,N,00008.710788,E,0.0,0.0,070226,,,A,V*22
$GPRMC,110302.00,A,5211.723269,N,00008.710793,E,0.0,0.0,070226,,,A,V*2B
$GPRMC,110303.00,A,5211.723269,N,00008.710798,E,0.0,0.0,070226,,,A,V*21
$GPRMC,110304.00,A,5211.723269,N,00008.710803,E,0.0,0.0,070226,,,A,V*2B
$GPRMC,110305.00,A,5211.723269,N,00008.710807,E,0.0,0.0,070226,,,A,V*2E
$GPRMC,110306.00,A,5211.723267,N,00008.710810,E,0.0,0.0,070226,,,A,V*25
$GPRMC,110307.00,A,5211.723266,N,00008.710815,E,0.0,0.0,070226,,,A,V*20
$GPRMC,110308.00,A,5211.723265,N,00008.710818,E,0.0,0.0,070226,,,A,V*21
$GPRMC,110309.00,A,5211.723263,N,00008.710821,E,0.0,0.0,070226,,,A,V*2C
$GPRMC,110310.00,A,5211.723259,N,00008.710826,E,0.0,0.0,070226,,,A,V*2A
$GPRMC,110311.00,A,5211.723257,N,00008.710832,E,0.0,0.0,070226,,,A,V*20
$GPRMC,110312.00,A,5211.723254,N,00008.710834,E,0.0,0.0,070226,,,A,V*26
$GPRMC,110313.00,A,5211.723253,N,00008.710836,E,0.0,0.0,070226,,,A,V*22
$GPRMC,110314.00,A,5211.723254,N,00008.710837,E,0.0,0.0,070226,,,A,V*23
$GPRMC,110315.00,A,5211.723253,N,00008.710839,E,0.0,0.0,070226,,,A,V*2B
$GPRMC,110316.00,A,5211.723252,N,00008.710843,E,0.0,0.0,070226,,,A,V*24
$GPRMC,110317.00,A,5211.723254,N,00008.710843,E,0.0,0.0,070226,,,A,V*23
$GPRMC,110318.00,A,5211.723254,N,00008.710844,E,0.0,0.0,070226,,,A,V*2B
$GPRMC,110319.00,A,5211.723253,N,00008.710841,E,0.0,0.0,070226,,,A,V*28
$GPRMC,110320.00,A,5211.723252,N,00008.710840,E,0.0,0.0,070226,,,A,V*22
$GPRMC,110321.00,A,5211.723252,N,00008.710841,E,0.0,0.0,070226,,,A,V*22
$GPRMC,110322.00,A,5211.723252,N,00008.710844,E,0.0,0.0,070226,,,A,V*24
$GPRMC,110323.00,A,5211.723242,N,00008.710846,E,0.0,0.0,070226,,,A,V*26
$GPRMC,110324.00,A,5211.723237,N,00008.710852,E,0.0,0.0,070226,,,A,V*26
$GPRMC,110325.00,A,5211.723235,N,00008.710853,E,0.0,0.0,070226,,,A,V*24
$GPRMC,110326.00,A,5211.723235,N,00008.710854,E,0.0,0.0,070226,,,A,V*20
$GPRMC,110327.00,A,5211.723234,N,00008.710854,E,0.0,0.0,070226,,,A,V*20
$GPRMC,110328.00,A,5211.723232,N,00008.710855,E,0.0,0.0,070226,,,A,V*28
$GPRMC,110329.00,A,5211.723231,N,00008.710855,E,0.0,0.0,070226,,,A,V*2A
$GPRMC,110330.00,A,5211.723231,N,00008.710861,E,0.0,0.0,070226,,,A,V*25
$GPRMC,110331.00,A,5211.723230,N,00008.710863,E,0.0,0.0,070226,,,A,V*27
$GPRMC,110332.00,A,5211.723231,N,00008.710866,E,0.0,0.0,070226,,,A,V*20
$GPRMC,110333.00,A,5211.723229,N,00008.710868,E,0.0,0.0,070226,,,A,V*26
$GPRMC,110334.00,A,5211.723229,N,00008.710869,E,0.0,0.0,070226,,,A,V*20
$GPRMC,110335.00,A,5211.723227,N,00008.710872,E,0.0,0.0,070226,,,A,V*25
$GPRMC,110336.00,A,5211.723226,N,00008.710876,E,0.0,0.0,070226,,,A,V*23
$GPRMC,110337.00,A,5211.723225,N,00008.710878,E,0.0,0.0,070226,,,A,V*2F
$GPRMC,110338.00,A,5211.723223,N,00008.710881,E,0.0,0.0,070226,,,A,V*20
$GPRMC,110339.00,A,5211.723219,N,00008.710883,E,0.0,0.0,070226,,,A,V*2A
$GPRMC,110340.00,A,5211.723215,N,00008.710882,E,0.0,0.0,070226,,,A,V*29
$GPRMC,110341.00,A,5211.723212,N,00008.710884,E,0.0,0.0,070226,,,A,V*29
$GPRMC,110342.00,A,5211.723206,N,00008.710885,E,0.0,0.0,070226,,,A,V*2E
$GPRMC,110343.00,A,5211.723206,N,00008.710887,E,0.0,0.0,070226,,,A,V*2D
$GPRMC,110344.00,A,5211.723205,N,00008.710890,E,0.0,0.0,070226,,,A,V*2F
$GPRMC,110345.00,A,5211.723206,N,00008.710896,E,0.0,0.0,070226,,,A,V*2B
$GPRMC,110346.00,A,5211.723206,N,00008.710901,E,0.0,0.0,070226,,,A,V*27
$GPRMC,110347.00,A,5211.723206,N,00008.710907,E,0.0,0.0,070226,,,A,V*20
$GPRMC,110348.00,A,5211.723204,N,00008.710909,E,0.0,0.0,070226,,,A,V*23
$GPRMC,110349.00,A,5211.723204,N,00008.710911,E,0.0,0.0,070226,,,A,V*2B
$GPRMC,110350.00,A,5211.723204,N,00008.710912,E,0.0,0.0,070226,,,A,V*20
$GPRMC,110351.00,A,5211.723203,N,00008.710917,E,0.0,0.0,070226,,,A,V*23
$GPRMC,110352.00,A,5211.723204,N,00008.710917,E,0.0,0.0,070226,,,A,V*27
$GPRMC,110353.00,A,5211.723203,N,00008.710921,E,0.0,0.0,070226,,,A,V*24
$GPRMC,110354.00,A,5211.723202,N,00008.710926,E,0.0,0.0,070226,,,A,V*25
$GPRMC,110355.00,A,5211.723202,N,00008.710931,E,0.0,0.0,070226,,,A,V*22
$GPRMC,110356.00,A,5211.723201,N,00008.710935,E,0.0,0.0,070226,,,A,V*26
$GPRMC,110357.00,A,5211.723201,N,00008.710936,E,0.0,0.0,070226,,,A,V*24
$GPRMC,110358.00,A,5211.723202,N,00008.710939,E,0.0,0.0,070226,,,A,V*27
$GPRMC,110359.00,A,5211.723201,N,00008.710945,E,0.0,0.0,070226,,,A,V*2E
$GPRMC,110400.00,A,5211.723199,N,00008.710949,E,0.0,0.0,070226,,,A,V*2B
$GPRMC,110401.00,A,5211.723198,N,00008.710951,E,0.0,0.0,070226,,,A,V*22
$GPRMC,110402.00,A,5211.723197,N,00008.710956,E,0.0,0.0,070226,,,A,V*29
$GPRMC,110403.00,A,5211.723196,N,00008.710963,E,0.0,0.0,070226,,,A,V*2F
$GPRMC,110404.00,A,5211.723195,N,00008.710968,E,0.0,0.0,070226,,,A,V*20
$GPRMC,110405.00,A,5211.723194,N,00008.710977,E,0.0,0.0,070226,,,A,V*2E
$GPRMC,110406.00,A,5211.723193,N,00008.710983,E,0.0,0.0,070226,,,A,V*21
$GPRMC,110407.00,A,5211.723193,N,00008.710986,E,0.0,0.0,070226,,,A,V*25
$GPRMC,110408.00,A,5211.723191,N,00008.710987,E,0.0,0.0,070226,,,A,V*29
$GPRMC,110409.00,A,5211.722927,N,00008.710685,E,0.73866093,278.8,070226,,,A,V*12
$GPRMC,110410.00,A,5211.722055,N,00008.710101,E,0.0,0.0,070226,,,A,V*2E
$GPRMC,110411.00,A,5211.721738,N,00008.709981,E,0.0,0.0,070226,,,A,V*28
$GPRMC,110412.00,A,5211.721568,N,00008.709754,E,0.0,0.0,070226,,,A,V*2A
$GPRMC,110413.00,A,5211.721545,N,00008.709732,E,0.0,0.0,070226,,,A,V*24
$GPRMC,110414.00,A,5211.721399,N,00008.709719,E,0.0,0.0,070226,,,A,V*2D
$GPRMC,110415.00,A,5211.721331,N,00008.709698,E,0.0,0.0,070226,,,A,V*26
$GPRMC,110416.00,A,5211.721226,N,00008.709875,E,0.0,0.0,070226,,,A,V*2F
$GPRMC,110417.00,A,5211.721130,N,00008.710147,E,0.0,0.0,070226,,,A,V*2A
$GPRMC,110418.00,A,5211.721195,N,00008.710511,E,0.0,0.0,070226,,,A,V*2D
$GPRMC,110419.00,A,5211.721320,N,00008.710875,E,0.0,0.0,070226,,,A,V*2F
$GPRMC,110420.00,A,5211.721117,N,00008.710844,E,0.0,0.0,070226,,,A,V*21
$GPRMC,110421.00,A,5211.720928,N,00008.710781,E,0.0,0.0,070226,,,A,V*23
$GPRMC,110422.00,A,5211.721043,N,00008.710930,E,0.0,0.0,070226,,,A,V*21
$GPRMC,110423.00,A,5211.720963,N,00008.710879,E,0.0,0.0,070226,,,A,V*26
$GPRMC,110424.00,A,5211.720857,N,00008.710782,E,0.0,0.0,070226,,,A,V*2C
$GPRMC,110425.00,A,5211.720831,N,00008.710749,E,0.0,0.0,070226,,,A,V*2A
$GPRMC,110426.00,A,5211.720824,N,00008.710768,E,0.0,0.0,070226,,,A,V*2E
$GPRMC,110427.00,A,5211.720820,N,00008.710777,E,0.0,0.0,070226,,,A,V*25
$GPRMC,110428.00,A,5211.720836,N,00008.710791,E,0.0,0.0,070226,,,A,V*25
$GPRMC,110429.00,A,5211.720843,N,00008.710800,E,0.0,0.0,070226,,,A,V*21
$GPRMC,110430.00,A,5211.720752,N,00008.710746,E,0.0,0.0,070226,,,A,V*2B
$GPRMC,110431.00,A,5211.720708,N,00008.710720,E,0.0,0.0,070226,,,A,V*25
$GPRMC,110432.00,A,5211.720707,N,00008.710722,E,0.0,0.0,070226,,,A,V*2B
$GPRMC,110433.00,A,5211.720734,N,00008.710748,E,0.0,0.0,070226,,,A,V*26
$GPRMC,110434.00,A,5211.720748,N,00008.710761,E,0.0,0.0,070226,,,A,V*21
$GPRMC,110435.00,A,5211.720753,N,00008.710768,E,0.0,0.0,070226,,,A,V*23
$GPRMC,110436.00,A,5211.720760,N,00008.710777,E,0.0,0.0,070226,,,A,V*2E
$GPRMC,110437.00,A,5211.720768,N,00008.710786,E,0.0,0.0,070226,,,A,V*29
$GPRMC,110438.00,A,5211.720778,N,00008.710795,E,0.0,0.0,070226,,,A,V*25
$GPRMC,110439.00,A,5211.720784,N,00008.710800,E,0.0,0.0,070226,,,A,V*24
$GPRMC,110440.00,A,5211.720791,N,00008.710805,E,0.0,0.0,070226,,,A,V*2B
$GPRMC,110441.00,A,5211.720798,N,00008.710810,E,0.0,0.0,070226,,,A,V*27
$GPRMC,110442.00,A,5211.720799,N,00008.710815,E,0.0,0.0,070226,,,A,V*20
$GPRMC,110443.00,A,5211.720801,N,00008.710817,E,0.0,0.0,070226,,,A,V*2D
$GPRMC,110444.00,A,5211.720801,N,00008.710817,E,0.0,0.0,070226,,,A,V*2A
$GPRMC,110445.00,A,5211.720798,N,00008.710815,E,0.0,0.0,070226,,,A,V*26
$GPRMC,110446.00,A,5211.720797,N,00008.710816,E,0.0,0.0,070226,,,A,V*29
$GPRMC,110447.00,A,5211.720796,N,00008.710817,E,0.0,0.0,070226,,,A,V*28
$GPRMC,110448.00,A,5211.720796,N,00008.710818,E,0.0,0.0,070226,,,A,V*28
$GPRMC,110449.00,A,5211.720794,N,00008.710816,E,0.0,0.0,070226,,,A,V*25
$GPRMC,110450.00,A,5211.720794,N,00008.710813,E,0.0,0.0,070226,,,A,V*28
$GPRMC,110451.00,A,5211.720795,N,00008.710810,E,0.0,0.0,070226,,,A,V*2B
$GPRMC,110452.00,A,5211.720797,N,00008.710810,E,0.0,0.0,070226,,,A,V*2A
$GPRMC,110453.00,A,5211.720797,N,00008.710812,E,0.0,0.0,070226,,,A,V*29
$GPRMC,110454.00,A,5211.720802,N,00008.710815,E,0.0,0.0,070226,,,A,V*2A
$GPRMC,110455.00,A,5211.720803,N,00008.710817,E,0.0,0.0,070226,,,A,V*28
$GPRMC,110456.00,A,5211.720786,N,00008.710795,E,0.0,0.0,070226,,,A,V*2C
$GPRMC,110457.00,A,5211.720784,N,00008.710788,E,0.0,0.0,070226,,,A,V*23
$GPRMC,110458.00,A,5211.720785,N,00008.710786,E,0.0,0.0,070226,,,A,V*23
$GPRMC,110459.00,A,5211.720788,N,00008.710788,E,0.0,0.0,070226,,,A,V*21
$GPRMC,110500.00,A,5211.720791,N,00008.710790,E,0.0,0.0,070226,,,A,V*2D
$GPRMC,110501.00,A,5211.720791,N,00008.710792,E,0.0,0.0,070226,,,A,V*2E
$GPRMC,110502.00,A,5211.720792,N,00008.710794,E,0.0,0.0,070226,,,A,V*28
$GPRMC,110503.00,A,5211.720793,N,00008.710795,E,0.0,0.0,070226,,,A,V*29
$GPRMC,110504.00,A,5211.720794,N,00008.710796,E,0.0,0.0,070226,,,A,V*2A
$GPRMC,110505.00,A,5211.720793,N,00008.710796,E,0.0,0.0,070226,,,A,V*2C
$GPRMC,110506.00,A,5211.720795,N,00008.710797,E,0.0,0.0,070226,,,A,V*28
$GPRMC,110507.00,A,5211.720798,N,00008.710798,E,0.0,0.0,070226,,,A,V*2B
$GPRMC,110508.00,A,5211.720802,N,00008.710800,E,0.0,0.0,070226,,,A,V*26
$GPRMC,110509.00,A,5211.720804,N,00008.710801,E,0.0,0.0,070226,,,A,V*20
$GPRMC,110510.00,A,5211.720806,N,00008.710804,E,0.0,0.0,070226,,,A,V*2F
$GPRMC,110511.00,A,5211.720809,N,00008.710806,E,0.0,0.0,070226,,,A,V*23
$GPRMC,110512.00,A,5211.720809,N,00008.710808,E,0.0,0.0,070226,,,A,V*2E
$GPRMC,110513.00,A,5211.720810,N,00008.710809,E,0.0,0.0,070226,,,A,V*26
$GPRMC,110514.00,A,5211.720812,N,00008.710810,E,0.0,0.0,070226,,,A,V*2B
$GPRMC,110515.00,A,5211.720815,N,00008.710810,E,0.0,0.0,070226,,,A,V*2D
$GPRMC,110516.00,A,5211.720816,N,00008.710810,E,0.0,0.0,070226,,,A,V*2D
$GPRMC,110517.00,A,5211.720818,N,00008.710810,E,0.0,0.0,070226,,,A,V*22
$GPRMC,110518.00,A,5211.720818,N,00008.710811,E,0.0,0.0,070226,,,A,V*2C
$GPRMC,110519.00,A,5211.720820,N,00008.710813,E,0.0,0.0,070226,,,A,V*24
$GPRMC,110520.00,A,5211.720821,N,00008.710813,E,0.0,0.0,070226,,,A,V*2F
$GPRMC,110521.00,A,5211.720822,N,00008.710815,E,0.0,0.0,070226,,,A,V*2B
$GPRMC,110522.00,A,5211.720825,N,00008.710817,E,0.0,0.0,070226,,,A,V*2D
$GPRMC,110523.00,A,5211.720827,N,00008.710819,E,0.0,0.0,070226,,,A,V*20
$GPRMC,110524.00,A,5211.720830,N,00008.710822,E,0.0,0.0,070226,,,A,V*29
$GPRMC,110525.00,A,5211.720831,N,00008.710825,E,0.0,0.0,070226,,,A,V*2E
$GPRMC,110526.00,A,5211.720832,N,00008.710827,E,0.0,0.0,070226,,,A,V*2C
$GPRMC,110527.00,A,5211.720833,N,00008.710829,E,0.0,0.0,070226,,,A,V*22
$GPRMC,110528.00,A,5211.720834,N,00008.710831,E,0.0,0.0,070226,,,A,V*23
$GPRMC,110529.00,A,5211.720836,N,00008.710834,E,0.0,0.0,070226,,,A,V*25
$GPRMC,110530.00,A,5211.720836,N,00008.710835,E,0.0,0.0,070226,,,A,V*2C
$GPRMC,110531.00,A,5211.720836,N,00008.710837,E,0.0,0.0,070226,,,A,V*2F
$GPRMC,110532.00,A,5211.720849,N,00008.710849,E,0.0,0.0,070226,,,A,V*2D
$GPRMC,110533.00,A,5211.720856,N,00008.710856,E,0.0,0.0,070226,,,A,V*2C
$GPRMC,110534.00,A,5211.720861,N,00008.710858,E,0.0,0.0,070226,,,A,V*21
$GPRMC,110535.00,A,5211.720863,N,00008.710860,E,0.0,0.0,070226,,,A,V*29
$GPRMC,110536.00,A,5211.720866,N,00008.710861,E,0.0,0.0,070226,,,A,V*2E
$GPRMC,110537.00,A,5211.720869,N,00008.710864,E,0.0,0.0,070226,,,A,V*25
$GPRMC,110538.00,A,5211.720867,N,00008.710862,E,0.0,0.0,070226,,,A,V*22
$GPRMC,110539.00,A,5211.720866,N,00008.710861,E,0.0,0.0,070226,,,A,V*21
$GPRMC,110540.00,A,5211.720866,N,00008.710861,E,0.0,0.0,070226,,,A,V*2F
$GPRMC,110541.00,A,5211.720867,N,00008.710861,E,0.0,0.0,070226,,,A,V*2F
$GPRMC,110542.00,A,5211.720868,N,00008.710861,E,0.0,0.0,070226,,,A,V*23
$GPRMC,110543.00,A,5211.720867,N,00008.710860,E,0.0,0.0,070226,,,A,V*2C
$GPRMC,110544.00,A,5211.720868,N,00008.710861,E,0.0,0.0,070226,,,A,V*25
$GPRMC,110545.00,A,5211.720868,N,00008.710860,E,0.0,0.0,070226,,,A,V*25
$GPRMC,110546.00,A,5211.720869,N,00008.710860,E,0.0,0.0,070226,,,A,V*27
$GPRMC,110547.00,A,5211.720869,N,00008.710861,E,0.0,0.0,070226,,,A,V*27
$GPRMC,110548.00,A,5211.720870,N,00008.710860,E,0.0,0.0,070226,,,A,V*21
$GPRMC,110549.00,A,5211.720871,N,00008.710860,E,0.0,0.0,070226,,,A,V*21
$GPRMC,110550.00,A,5211.720872,N,00008.710857,E,0.0,0.0,070226,,,A,V*2E
$GPRMC,110551.00,A,5211.720872,N,00008.710854,E,0.0,0.0,070226,,,A,V*2C
$GPRMC,110552.00,A,5211.720872,N,00008.710851,E,0.0,0.0,070226,,,A,V*2A
$GPRMC,110553.00,A,5211.720873,N,00008.710851,E,0.0,0.0,070226,,,A,V*2A
$GPRMC,110554.00,A,5211.720872,N,00008.710852,E,0.0,0.0,070226,,,A,V*2F
$GPRMC,110555.00,A,5211.720871,N,00008.710852,E,0.0,0.0,070226,,,A,V*2D
$GPRMC,110556.00,A,5211.720870,N,00008.710850,E,0.0,0.0,070226,,,A,V*2D
$GPRMC,110557.00,A,5211.720870,N,00008.710846,E,0.0,0.0,070226,,,A,V*2B
$GPRMC,110558.00,A,5211.720871,N,00008.710842,E,0.0,0.0,070226,,,A,V*21
$GPRMC,110600.00,A,5211.720871,N,00008.710837,E,0.0,0.0,070226,,,A,V*2D
$GPRMC,110601.00,A,5211.720872,N,00008.710834,E,0.0,0.0,070226,,,A,V*2C
$GPRMC,110602.00,A,5211.720872,N,00008.710835,E,0.0,0.0,070226,,,A,V*2E
$GPRMC,110603.00,A,5211.720871,N,00008.710837,E,0.0,0.0,070226,,,A,V*2E
$GPRMC,110605.00,A,5211.720870,N,00008.710836,E,0.0,0.0,070226,,,A,V*28
$GPRMC,110615.00,A,5211.720871,N,00008.710824,E,0.0,0.0,070226,,,A,V*2B
$GPRMC,110616.00,A,5211.720873,N,00008.710825,E,0.0,0.0,070226,,,A,V*2B
$GPRMC,110617.00,A,5211.720873,N,00008.710826,E,0.0,0.0,070226,,,A,V*29
$GPRMC,110618.00,A,5211.720873,N,00008.710826,E,0.0,0.0,070226,,,A,V*26
$GPRMC,110619.00,A,5211.720873,N,00008.710827,E,0.0,0.0,070226,,,A,V*26
$GPRMC,110622.00,A,5211.720870,N,00008.710826,E,0.0,0.0,070226,,,A,V*2C
$GPRMC,110623.00,A,5211.720870,N,00008.710825,E,0.0,0.0,070226,,,A,V*2E
$GPRMC,110624.00,A,5211.720869,N,00008.710825,E,0.0,0.0,070226,,,A,V*21
$GPRMC,110625.00,A,5211.720869,N,00008.710825,E,0.0,0.0,070226,,,A,V*20
$GPRMC,110626.00,A,5211.720869,N,00008.710823,E,0.0,0.0,070226,,,A,V*25
$GPRMC,110627.00,A,5211.720869,N,00008.710822,E,0.0,0.0,070226,,,A,V*25
$GPRMC,110628.00,A,5211.720869,N,00008.710823,E,0.0,0.0,070226,,,A,V*2B
$GPRMC,110629.00,A,5211.720870,N,00008.710824,E,0.0,0.0,070226,,,A,V*25
$GPRMC,110630.00,A,5211.720871,N,00008.710824,E,0.0,0.0,070226,,,A,V*2C
$GPRMC,110631.00,A,5211.720872,N,00008.710824,E,0.0,0.0,070226,,,A,V*2E
$GPRMC,110632.00,A,5211.720872,N,00008.710823,E,0.0,0.0,070226,,,A,V*2A
$GPRMC,110633.00,A,5211.720872,N,00008.710823,E,0.0,0.0,070226,,,A,V*2B
$GPRMC,110634.00,A,5211.720873,N,00008.710822,E,0.0,0.0,070226,,,A,V*2C
$GPRMC,110635.00,A,5211.720874,N,00008.710822,E,0.0,0.0,070226,,,A,V*2A
$GPRMC,110636.00,A,5211.720874,N,00008.710821,E,0.0,0.0,070226,,,A,V*2A
$GPRMC,110637.00,A,5211.720874,N,00008.710822,E,0.0,0.0,070226,,,A,V*28
$GPRMC,110638.00,A,5211.720874,N,00008.710824,E,0.0,0.0,070226,,,A,V*21
$GPRMC,110639.00,A,5211.720874,N,00008.710825,E,0.0,0.0,070226,,,A,V*21
$GPRMC,110640.00,A,5211.720874,N,00008.710823,E,0.0,0.0,070226,,,A,V*29
$GPRMC,110641.00,A,5211.720873,N,00008.710822,E,0.0,0.0,070226,,,A,V*2E
$GPRMC,110642.00,A,5211.720873,N,00008.710821,E,0.0,0.0,070226,,,A,V*2E
$GPRMC,110643.00,A,5211.720873,N,00008.710820,E,0.0,0.0,070226,,,A,V*2E
$GPRMC,110644.00,A,5211.720873,N,00008.710819,E,0.0,0.0,070226,,,A,V*23
$GPRMC,110645.00,A,5211.720874,N,00008.710818,E,0.0,0.0,070226,,,A,V*24
$GPRMC,110649.00,A,5211.720874,N,00008.710818,E,0.0,0.0,070226,,,A,V*28
$GPRMC,110650.00,A,5211.720873,N,00008.710816,E,0.0,0.0,070226,,,A,V*29
$GPRMC,110651.00,A,5211.720873,N,00008.710815,E,0.0,0.0,070226,,,A,V*2B
$GPRMC,110652.00,A,5211.720872,N,00008.710814,E,0.0,0.0,070226,,,A,V*28
$GPRMC,110653.00,A,5211.720872,N,00008.710812,E,0.0,0.0,070226,,,A,V*2F
$GPRMC,110654.00,A,5211.720872,N,00008.710809,E,0.0,0.0,070226,,,A,V*22
$GPRMC,110655.00,A,5211.720873,N,00008.710809,E,0.0,0.0,070226,,,A,V*22
$GPRMC,110656.00,A,5211.720877,N,00008.710812,E,0.0,0.0,070226,,,A,V*2F
$GPRMC,110657.00,A,5211.720879,N,00008.710815,E,0.0,0.0,070226,,,A,V*27
$GPRMC,110658.00,A,5211.720880,N,00008.710816,E,0.0,0.0,070226,,,A,V*2D
$GPRMC,110659.00,A,5211.720880,N,00008.710816,E,0.0,0.0,070226,,,A,V*2C
$GPRMC,110700.00,A,5211.720880,N,00008.710816,E,0.0,0.0,070226,,,A,V*21
$GPRMC,110701.00,A,5211.720775,N,00008.710757,E,0.0,0.0,070226,,,A,V*2F
$GPRMC,110702.00,A,5211.720722,N,00008.710728,E,0.0,0.0,070226,,,A,V*26
$GPRMC,110703.00,A,5211.720781,N,00008.710761,E,0.0,0.0,070226,,,A,V*23
$GPRMC,110704.00,A,5211.720810,N,00008.710777,E,0.0,0.0,070226,,,A,V*24
$GPRMC,110705.00,A,5211.720826,N,00008.710786,E,0.0,0.0,070226,,,A,V*2E
$GPRMC,110706.00,A,5211.720834,N,00008.710791,E,0.0,0.0,070226,,,A,V*28
$GPRMC,110707.00,A,5211.720851,N,00008.710800,E,0.0,0.0,070226,,,A,V*2D
$GPRMC,110708.00,A,5211.720860,N,00008.710804,E,0.0,0.0,070226,,,A,V*24
$GPRMC,110709.00,A,5211.720865,N,00008.710805,E,0.0,0.0,070226,,,A,V*21
$GPRMC,110710.00,A,5211.720868,N,00008.710806,E,0.0,0.0,070226,,,A,V*27
$GPRMC,110711.00,A,5211.720871,N,00008.710807,E,0.0,0.0,070226,,,A,V*2F
$GPRMC,110712.00,A,5211.720884,N,00008.710813,E,0.0,0.0,070226,,,A,V*23
$GPRMC,110713.00,A,5211.720891,N,00008.710816,E,0.0,0.0,070226,,,A,V*23
$GPRMC,110714.00,A,5211.720904,N,00008.710825,E,0.0,0.0,070226,,,A,V*29
$GPRMC,110715.00,A,5211.720910,N,00008.710830,E,0.0,0.0,070226,,,A,V*29
$GPRMC,110716.00,A,5211.720912,N,00008.710834,E,0.0,0.0,070226,,,A,V*2C
$GPRMC,110717.00,A,5211.720914,N,00008.710834,E,0.0,0.0,070226,,,A,V*2B
$GPRMC,110718.00,A,5211.720915,N,00008.710835,E,0.0,0.0,070226,,,A,V*24
$GPRMC,110719.00,A,5211.720914,N,00008.710835,E,0.0,0.0,070226,,,A,V*24
$GPRMC,110720.00,A,5211.720913,N,00008.710834,E,0.0,0.0,070226,,,A,V*28
$GPRMC,110721.00,A,5211.720912,N,00008.710834,E,0.0,0.0,070226,,,A,V*28
$GPRMC,110722.00,A,5211.720910,N,00008.710833,E,0.0,0.0,070226,,,A,V*2E
$GPRMC,110723.00,A,5211.720908,N,00008.710832,E,0.0,0.0,070226,,,A,V*27
$GPRMC,110725.00,A,5211.720906,N,00008.710830,E,0.0,0.0,070226,,,A,V*2D
$GPRMC,110726.00,A,5211.720906,N,00008.710827,E,0.0,0.0,070226,,,A,V*28
$GPRMC,110727.00,A,5211.720906,N,00008.710827,E,0.0,0.0,070226,,,A,V*29
$GPRMC,110728.00,A,5211.720906,N,00008.710827,E,0.0,0.0,070226,,,A,V*26
$GPRMC,110729.00,A,5211.720906,N,00008.710827,E,0.0,0.0,070226,,,A,V*27
$GPRMC,110730.00,A,5211.720906,N,00008.710827,E,0.0,0.0,070226,,,A,V*2F
$GPRMC,110731.00,A,5211.720906,N,00008.710825,E,0.0,0.0,070226,,,A,V*2C
$GPRMC,110732.00,A,5211.720904,N,00008.710823,E,0.0,0.0,070226,,,A,V*2B
$GPRMC,110733.00,A,5211.720904,N,00008.710822,E,0.0,0.0,070226,,,A,V*2B
$GPRMC,110734.00,A,5211.720904,N,00008.710822,E,0.0,0.0,070226,,,A,V*2C
$GPRMC,110735.00,A,5211.720904,N,00008.710819,E,0.0,0.0,070226,,,A,V*25
$GPRMC,110736.00,A,5211.720903,N,00008.710819,E,0.0,0.0,070226,,,A,V*21
$GPRMC,110737.00,A,5211.720897,N,00008.710816,E,0.0,0.0,070226,,,A,V*23
$GPRMC,110738.00,A,5211.720896,N,00008.710815,E,0.0,0.0,070226,,,A,V*2E
$GPRMC,110739.00,A,5211.720893,N,00008.710813,E,0.0,0.0,070226,,,A,V*2C
$GPRMC,110740.00,A,5211.720893,N,00008.710813,E,0.0,0.0,070226,,,A,V*22
$GPRMC,110741.00,A,5211.720893,N,00008.710813,E,0.0,0.0,070226,,,A,V*23
$GPRMC,110742.00,A,5211.720893,N,00008.710814,E,0.0,0.0,070226,,,A,V*27
$GPRMC,110743.00,A,5211.720895,N,00008.710814,E,0.0,0.0,070226,,,A,V*20
$GPRMC,110744.00,A,5211.720895,N,00008.710815,E,0.0,0.0,070226,,,A,V*26
$GPRMC,110745.00,A,5211.720896,N,00008.710815,E,0.0,0.0,070226,,,A,V*24
$GPRMC,110746.00,A,5211.720896,N,00008.710814,E,0.0,0.0,070226,,,A,V*26
$GPRMC,110747.00,A,5211.720897,N,00008.710815,E,0.0,0.0,070226,,,A,V*27
$GPRMC,110748.00,A,5211.720898,N,00008.710815,E,0.0,0.0,070226,,,A,V*27
$GPRMC,110749.00,A,5211.720899,N,00008.710814,E,0.0,0.0,070226,,,A,V*26
$GPRMC,110750.00,A,5211.720897,N,00008.710813,E,0.0,0.0,070226,,,A,V*27
$GPRMC,110751.00,A,5211.720898,N,00008.710813,E,0.0,0.0,070226,,,A,V*29
$GPRMC,110752.00,A,5211.720900,N,00008.710813,E,0.0,0.0,070226,,,A,V*2A
$GPRMC,110753.00,A,5211.720899,N,00008.710813,E,0.0,0.0,070226,,,A,V*2A
$GPRMC,110754.00,A,5211.720901,N,00008.710813,E,0.0,0.0,070226,,,A,V*2D
$GPRMC,110755.00,A,5211.720903,N,00008.710815,E,0.0,0.0,070226,,,A,V*28
$GPRMC,110756.00,A,5211.720917,N,00008.710828,E,0.0,0.0,070226,,,A,V*20
$GPRMC,110757.00,A,5211.720923,N,00008.710835,E,0.0,0.0,070226,,,A,V*2A
$GPRMC,110758.00,A,5211.720925,N,00008.710838,E,0.0,0.0,070226,,,A,V*2E
$GPRMC,110759.00,A,5211.720949,N,00008.710861,E,0.0,0.0,070226,,,A,V*29
$GPRMC,110800.00,A,5211.720963,N,00008.710876,E,0.0,0.0,070226,,,A,V*24
$GPRMC,110801.00,A,5211.720969,N,00008.710882,E,0.0,0.0,070226,,,A,V*24
$GPRMC,110802.00,A,5211.720973,N,00008.710885,E,0.0,0.0,070226,,,A,V*2B
$GPRMC,110803.00,A,5211.720973,N,00008.710885,E,0.0,0.0,070226,,,A,V*2A
$GPRMC,110804.00,A,5211.720976,N,00008.710888,E,0.0,0.0,070226,,,A,V*25
$GPRMC,110805.00,A,5211.720978,N,00008.710888,E,0.0,0.0,070226,,,A,V*2A
$GPRMC,110807.00,A,5211.720981,N,00008.710889,E,0.0,0.0,070226,,,A,V*2F
$GPRMC,110808.00,A,5211.720982,N,00008.710888,E,0.0,0.0,070226,,,A,V*22
$GPRMC,110809.00,A,5211.720983,N,00008.710887,E,0.0,0.0,070226,,,A,V*2D
$GPRMC,110810.00,A,5211.720982,N,00008.710885,E,0.0,0.0,070226,,,A,V*26
$GPRMC,110811.00,A,5211.720961,N,00008.710864,E,0.0,0.0,070226,,,A,V*25
$GPRMC,110812.00,A,5211.720950,N,00008.710853,E,0.0,0.0,070226,,,A,V*20
$GPRMC,110813.00,A,5211.720943,N,00008.710847,E,0.0,0.0,070226,,,A,V*26
$GPRMC,110814.00,A,5211.720940,N,00008.710845,E,0.0,0.0,070226,,,A,V*20
$GPRMC,110815.00,A,5211.720937,N,00008.710844,E,0.0,0.0,070226,,,A,V*20
$GPRMC,110816.00,A,5211.720935,N,00008.710843,E,0.0,0.0,070226,,,A,V*26
$GPRMC,110817.00,A,5211.720937,N,00008.710846,E,0.0,0.0,070226,,,A,V*20
$GPRMC,110818.00,A,5211.720938,N,00008.710847,E,0.0,0.0,070226,,,A,V*21
$GPRMC,110819.00,A,5211.720942,N,00008.710851,E,0.0,0.0,070226,,,A,V*2A
$GPRMC,110820.00,A,5211.720944,N,00008.710852,E,0.0,0.0,070226,,,A,V*25
$GPRMC,110821.00,A,5211.720946,N,00008.710854,E,0.0,0.0,070226,,,A,V*20
$GPRMC,110822.00,A,5211.720946,N,00008.710854,E,0.0,0.0,070226,,,A,V*23
$GPRMC,110823.00,A,5211.720967,N,00008.710875,E,0.0,0.0,070226,,,A,V*22
$GPRMC,110824.00,A,5211.720978,N,00008.710884,E,0.0,0.0,070226,,,A,V*25
$GPRMC,110825.00,A,5211.720986,N,00008.710890,E,0.0,0.0,070226,,,A,V*20
$GPRMC,110826.00,A,5211.720992,N,00008.710891,E,0.0,0.0,070226,,,A,V*27
$GPRMC,110827.00,A,5211.720996,N,00008.710892,E,0.0,0.0,070226,,,A,V*21
$GPRMC,110828.00,A,5211.720999,N,00008.710893,E,0.0,0.0,070226,,,A,V*20
$GPRMC,110829.00,A,5211.721003,N,00008.710893,E,0.0,0.0,070226,,,A,V*2A
$GPRMC,110830.00,A,5211.721004,N,00008.710894,E,0.0,0.0,070226,,,A,V*22
$GPRMC,110831.00,A,5211.721006,N,00008.710894,E,0.0,0.0,070226,,,A,V*21
$GPRMC,110832.00,A,5211.721006,N,00008.710894,E,0.0,0.0,070226,,,A,V*22
$GPRMC,110833.00,A,5211.721006,N,00008.710892,E,0.0,0.0,070226,,,A,V*25
$GPRMC,110834.00,A,5211.721008,N,00008.710891,E,0.0,0.0,070226,,,A,V*2F
$GPRMC,110835.00,A,5211.721010,N,00008.710888,E,0.0,0.0,070226,,,A,V*2F
$GPRMC,110836.00,A,5211.721012,N,00008.710887,E,0.0,0.0,070226,,,A,V*21
$GPRMC,110837.00,A,5211.721010,N,00008.710883,E,0.0,0.0,070226,,,A,V*26
$GPRMC,110838.00,A,5211.721009,N,00008.710881,E,0.0,0.0,070226,,,A,V*23
$GPRMC,110839.00,A,5211.721008,N,00008.710880,E,0.0,0.0,070226,,,A,V*22
$GPRMC,110840.00,A,5211.721007,N,00008.710879,E,0.0,0.0,070226,,,A,V*25
$GPRMC,110841.00,A,5211.721006,N,00008.710878,E,0.0,0.0,070226,,,A,V*24
$GPRMC,110842.00,A,5211.721005,N,00008.710877,E,0.0,0.0,070226,,,A,V*2B
$GPRMC,110843.00,A,5211.721004,N,00008.710876,E,0.0,0.0,070226,,,A,V*2A
$GPRMC,110844.00,A,5211.721003,N,00008.710876,E,0.0,0.0,070226,,,A,V*2A
$GPRMC,110845.00,A,5211.721003,N,00008.710878,E,0.0,0.0,070226,,,A,V*25
$GPRMC,110846.00,A,5211.721003,N,00008.710879,E,0.0,0.0,070226,,,A,V*27
$GPRMC,110847.00,A,5211.721003,N,00008.710881,E,0.0,0.0,070226,,,A,V*21
$GPRMC,110848.00,A,5211.721004,N,00008.710882,E,0.0,0.0,070226,,,A,V*2A
$GPRMC,110849.00,A,5211.721004,N,00008.710884,E,0.0,0.0,070226,,,A,V*2D
$GPRMC,110850.00,A,5211.721005,N,00008.710884,E,0.0,0.0,070226,,,A,V*24
$GPRMC,110851.00,A,5211.721005,N,00008.710883,E,0.0,0.0,070226,,,A,V*22
$GPRMC,110852.00,A,5211.721008,N,00008.710882,E,0.0,0.0,070226,,,A,V*2D
$GPRMC,110853.00,A,5211.721010,N,00008.710883,E,0.0,0.0,070226,,,A,V*24
$GPRMC,110854.00,A,5211.721010,N,00008.710882,E,0.0,0.0,070226,,,A,V*22
$GPRMC,110855.00,A,5211.721026,N,00008.710899,E,0.0,0.0,070226,,,A,V*2C
$GPRMC,110856.00,A,5211.721034,N,00008.710907,E,0.0,0.0,070226,,,A,V*2A
$GPRMC,110857.00,A,5211.721039,N,00008.710913,E,0.0,0.0,070226,,,A,V*23
$GPRMC,110858.00,A,5211.721041,N,00008.710917,E,0.0,0.0,070226,,,A,V*27
$GPRMC,110859.00,A,5211.721041,N,00008.710918,E,0.0,0.0,070226,,,A,V*29
$GPRMC,110900.00,A,5211.721091,N,00008.710965,E,0.0,0.0,070226,,,A,V*23
$GPRMC,110901.00,A,5211.721116,N,00008.710989,E,0.0,0.0,070226,,,A,V*2E
$GPRMC,110902.00,A,5211.721130,N,00008.711002,E,0.0,0.0,070226,,,A,V*22
$GPRMC,110903.00,A,5211.721136,N,00008.711008,E,0.0,0.0,070226,,,A,V*2F
$GPRMC,110904.00,A,5211.721139,N,00008.711013,E,0.0,0.0,070226,,,A,V*2D
$GPRMC,110905.00,A,5211.721303,N,00008.711174,E,0.0,0.0,070226,,,A,V*27
$GPRMC,110906.00,A,5211.721387,N,00008.711256,E,0.0,0.0,070226,,,A,V*2B
