$GPRMC,231924.00,A,5211.716381,N,00008.717620,E,0.0,0.0,060226,,,A,V*2B
$GPRMC,231925.00,A,5211.716372,N,00008.717609,E,0.0,0.0,060226,,,A,V*2D
$GPRMC,231926.00,A,5211.716737,N,00008.717959,E,0.0,0.0,060226,,,A,V*21
$GPRMC,231927.00,A,5211.716732,N,00008.717951,E,0.0,0.0,060226,,,A,V*2D
$GPRMC,231928.00,A,5211.716727,N,00008.717942,E,0.0,0.0,060226,,,A,V*24
$GPRMC,231929.00,A,5211.716720,N,00008.717939,E,0.0,0.0,060226,,,A,V*2E
$GPRMC,231930.00,A,5211.716730,N,00008.717944,E,0.0,0.0,060226,,,A,V*2D
$GPRMC,231931.00,A,5211.716732,N,00008.717944,E,0.0,0.0,060226,,,A,V*2E
$GPRMC,231932.00,A,5211.716723,N,00008.717941,E,0.0,0.0,060226,,,A,V*28
$GPRMC,231933.00,A,5211.716721,N,00008.717939,E,0.0,0.0,060226,,,A,V*24
$GPRMC,231934.00,A,5211.716763,N,00008.717986,E,0.0,0.0,060226,,,A,V*21
$GPRMC,231935.00,A,5211.716754,N,00008.717983,E,0.0,0.0,060226,,,A,V*21
$GPRMC,231936.00,A,5211.716750,N,00008.717979,E,0.0,0.0,060226,,,A,V*23
$GPRMC,231937.00,A,5211.716748,N,00008.717976,E,0.0,0.0,060226,,,A,V*24
$GPRMC,231938.00,A,5211.716746,N,00008.717977,E,0.0,0.0,060226,,,A,V*24
$GPRMC,231939.00,A,5211.716744,N,00008.717974,E,0.0,0.0,060226,,,A,V*24
$GPRMC,231940.00,A,5211.716748,N,00008.717976,E,0.0,0.0,060226,,,A,V*24
$GPRMC,231941.00,A,5211.716745,N,00008.717974,E,0.0,0.0,060226,,,A,V*2A
$GPRMC,231942.00,A,5211.716747,N,00008.717979,E,0.0,0.0,060226,,,A,V*26
$GPRMC,231943.00,A,5211.716743,N,00008.717977,E,0.0,0.0,060226,,,A,V*2D
$GPRMC,231944.00,A,5211.716743,N,00008.717983,E,0.0,0.0,060226,,,A,V*21
$GPRMC,231945.00,A,5211.716746,N,00008.717986,E,0.0,0.0,060226,,,A,V*20
$GPRMC,231946.00,A,5211.716746,N,00008.717983,E,0.0,0.0,060226,,,A,V*26
$GPRMC,231947.00,A,5211.716750,N,00008.717988,E,0.0,0.0,060226,,,A,V*2B
$GPRMC,231948.00,A,5211.716749,N,00008.717989,E,0.0,0.0,060226,,,A,V*2D
$GPRMC,231949.00,A,5211.716750,N,00008.717989,E,0.0,0.0,060226,,,A,V*24
$GPRMC,231950.00,A,5211.716742,N,00008.717982,E,0.0,0.0,060226,,,A,V*24
$GPRMC,231951.00,A,5211.716741,N,00008.717980,E,0.0,0.0,060226,,,A,V*24
$GPRMC,231952.00,A,5211.716737,N,00008.717972,E,0.0,0.0,060226,,,A,V*2B
$GPRMC,231953.00,A,5211.716735,N,00008.717974,E,0.0,0.0,060226,,,A,V*2E
$GPRMC,231954.00,A,5211.716738,N,00008.717979,E,0.0,0.0,060226,,,A,V*29
$GPRMC,231955.00,A,5211.716735,N,00008.717978,E,0.0,0.0,060226,,,A,V*24
$GPRMC,231956.00,A,5211.716729,N,00008.717976,E,0.0,0.0,060226,,,A,V*24
$GPRMC,231957.00,A,5211.716728,N,00008.717976,E,0.0,0.0,060226,,,A,V*24
$GPRMC,231958.00,A,5211.716726,N,00008.717976,E,0.0,0.0,060226,,,A,V*25
$GPRMC,231959.00,A,5211.716729,N,00008.717981,E,0.0,0.0,060226,,,A,V*23
$GPRMC,232000.00,A,5211.716728,N,00008.717977,E,0.0,0.0,060226,,,A,V*2D
$GPRMC,232001.00,A,5211.716707,N,00008.717977,E,0.0,0.0,060226,,,A,V*21
$GPRMC,232002.00,A,5211.716699,N,00008.717969,E,0.0,0.0,060226,,,A,V*2B
$GPRMC,232003.00,A,5211.716701,N,00008.717971,E,0.0,0.0,060226,,,A,V*23
$GPRMC,232004.00,A,5211.716696,N,00008.717965,E,0.0,0.0,060226,,,A,V*2E
$GPRMC,232005.00,A,5211.716699,N,00008.717963,E,0.0,0.0,060226,,,A,V*26
$GPRMC,232006.00,A,5211.716722,N,00008.717954,E,0.0,0.0,060226,,,A,V*20
$GPRMC,232007.00,A,5211.716722,N,00008.717955,E,0.0,0.0,060226,,,A,V*20
$GPRMC,232008.00,A,5211.716724,N,00008.717948,E,0.0,0.0,060226,,,A,V*25
$GPRMC,232009.00,A,5211.716724,N,00008.717949,E,0.0,0.0,060226,,,A,V*25
$GPRMC,232010.00,A,5211.716720,N,00008.717947,E,0.0,0.0,060226,,,A,V*27
$GPRMC,232011.00,A,5211.716724,N,00008.717953,E,0.0,0.0,060226,,,A,V*27
$GPRMC,232012.00,A,5211.716713,N,00008.717944,E,0.0,0.0,060226,,,A,V*26
$GPRMC,232013.00,A,5211.716729,N,00008.717941,E,0.0,0.0,060226,,,A,V*2B
$GPRMC,232014.00,A,5211.716738,N,00008.717952,E,0.0,0.0,060226,,,A,V*2E
$GPRMC,232015.00,A,5211.716737,N,00008.717945,E,0.0,0.0,060226,,,A,V*26
$GPRMC,232016.00,A,5211.716738,N,00008.717946,E,0.0,0.0,060226,,,A,V*29
$GPRMC,232017.00,A,5211.716737,N,00008.717942,E,0.0,0.0,060226,,,A,V*23
$GPRMC,232018.00,A,5211.716751,N,00008.717937,E,0.0,0.0,060226,,,A,V*2E
$GPRMC,232019.00,A,5211.716752,N,00008.717940,E,0.0,0.0,060226,,,A,V*2C
$GPRMC,232020.00,A,5211.716748,N,00008.717941,E,0.0,0.0,060226,,,A,V*2C
$GPRMC,232021.00,A,5211.716858,N,00008.717938,E,0.0,0.0,060226,,,A,V*2D
$GPRMC,232022.00,A,5211.716860,N,00008.717946,E,0.0,0.0,060226,,,A,V*2C
$GPRMC,232023.00,A,5211.716877,N,00008.717957,E,0.0,0.0,060226,,,A,V*2B
$GPRMC,232024.00,A,5211.716896,N,00008.717963,E,0.0,0.0,060226,,,A,V*24
$GPRMC,232025.00,A,5211.716900,N,00008.717962,E,0.0,0.0,060226,,,A,V*2A
$GPRMC,232026.00,A,5211.716903,N,00008.717972,E,0.0,0.0,060226,,,A,V*2B
$GPRMC,232027.00,A,5211.716904,N,00008.717970,E,0.0,0.0,060226,,,A,V*2F
$GPRMC,232028.00,A,5211.716897,N,00008.717961,E,0.0,0.0,060226,,,A,V*2B
$GPRMC,232029.00,A,5211.716901,N,00008.717967,E,0.0,0.0,060226,,,A,V*22
$GPRMC,232030.00,A,5211.716906,N,00008.717976,E,0.0,0.0,060226,,,A,V*2D
$GPRMC,232031.00,A,5211.716906,N,00008.717973,E,0.0,0.0,060226,,,A,V*29
$GPRMC,232032.00,A,5211.716905,N,00008.717970,E,0.0,0.0,060226,,,A,V*2A
$GPRMC,232033.00,A,5211.716904,N,00008.717973,E,0.0,0.0,060226,,,A,V*29
$GPRMC,232034.00,A,5211.716909,N,00008.717976,E,0.0,0.0,060226,,,A,V*26
$GPRMC,232035.00,A,5211.716906,N,00008.717976,E,0.0,0.0,060226,,,A,V*28
$GPRMC,232036.00,A,5211.716909,N,00008.717972,E,0.0,0.0,060226,,,A,V*20
$GPRMC,232037.00,A,5211.716912,N,00008.717973,E,0.0,0.0,060226,,,A,V*2A
$GPRMC,232038.00,A,5211.716913,N,00008.717973,E,0.0,0.0,060226,,,A,V*24
$GPRMC,232039.00,A,5211.716915,N,00008.717976,E,0.0,0.0,060226,,,A,V*26
$GPRMC,232040.00,A,5211.716916,N,00008.717975,E,0.0,0.0,060226,,,A,V*28
$GPRMC,232041.00,A,5211.716918,N,00008.717977,E,0.0,0.0,060226,,,A,V*25
$GPRMC,232042.00,A,5211.716915,N,00008.717976,E,0.0,0.0,060226,,,A,V*2A
$GPRMC,232043.00,A,5211.716915,N,00008.717976,E,0.0,0.0,060226,,,A,V*2B
$GPRMC,232044.00,A,5211.716915,N,00008.717976,E,0.0,0.0,060226,,,A,V*2C
$GPRMC,232045.00,A,5211.716915,N,00008.717975,E,0.0,0.0,060226,,,A,V*2E
$GPRMC,232046.00,A,5211.716921,N,00008.717979,E,0.0,0.0,060226,,,A,V*26
$GPRMC,232047.00,A,5211.716923,N,00008.717975,E,0.0,0.0,060226,,,A,V*29
$GPRMC,232048.00,A,5211.716922,N,00008.717976,E,0.0,0.0,060226,,,A,V*24
$GPRMC,232049.00,A,5211.716915,N,00008.717978,E,0.0,0.0,060226,,,A,V*2F
$GPRMC,232050.00,A,5211.716913,N,00008.717978,E,0.0,0.0,060226,,,A,V*21
$GPRMC,232051.00,A,5211.716921,N,00008.717981,E,0.0,0.0,060226,,,A,V*27
$GPRMC,232052.00,A,5211.716923,N,00008.717982,E,0.0,0.0,060226,,,A,V*25
$GPRMC,232053.00,A,5211.716917,N,00008.717977,E,0.0,0.0,060226,,,A,V*29
$GPRMC,232054.00,A,5211.716913,N,00008.717977,E,0.0,0.0,060226,,,A,V*2A
$GPRMC,232055.00,A,5211.716918,N,00008.717978,E,0.0,0.0,060226,,,A,V*2F
$GPRMC,232056.00,A,5211.716919,N,00008.717979,E,0.0,0.0,060226,,,A,V*2C
$GPRMC,232057.00,A,5211.716929,N,00008.717980,E,0.0,0.0,060226,,,A,V*28
$GPRMC,232058.00,A,5211.716925,N,00008.717980,E,0.0,0.0,060226,,,A,V*2B
$GPRMC,232059.00,A,5211.716926,N,00008.717982,E,0.0,0.0,060226,,,A,V*2B
$GPRMC,232100.00,A,5211.716928,N,00008.717981,E,0.0,0.0,060226,,,A,V*2B
$GPRMC,232101.00,A,5211.716926,N,00008.717986,E,0.0,0.0,060226,,,A,V*23
$GPRMC,232102.00,A,5211.716928,N,00008.717985,E,0.0,0.0,060226,,,A,V*2D
$GPRMC,232103.00,A,5211.716936,N,00008.717985,E,0.0,0.0,060226,,,A,V*23
$GPRMC,232104.00,A,5211.716934,N,00008.717988,E,0.0,0.0,060226,,,A,V*2B
$GPRMC,232105.00,A,5211.716936,N,00008.717986,E,0.0,0.0,060226,,,A,V*26
$GPRMC,232106.00,A,5211.716931,N,00008.717982,E,0.0,0.0,060226,,,A,V*26
$GPRMC,232107.00,A,5211.716925,N,00008.717988,E,0.0,0.0,060226,,,A,V*28
$GPRMC,232108.00,A,5211.716936,N,00008.717998,E,0.0,0.0,060226,,,A,V*24
$GPRMC,232109.00,A,5211.716933,N,00008.717999,E,0.0,0.0,060226,,,A,V*21
$GPRMC,232110.00,A,5211.716936,N,00008.718001,E,0.0,0.0,060226,,,A,V*2B
$GPRMC,232111.00,A,5211.716938,N,00008.718003,E,0.0,0.0,060226,,,A,V*26
$GPRMC,232112.00,A,5211.716932,N,00008.718004,E,0.0,0.0,060226,,,A,V*28
$GPRMC,232113.00,A,5211.716932,N,00008.718000,E,0.0,0.0,060226,,,A,V*2D
$GPRMC,232114.00,A,5211.716931,N,00008.718002,E,0.0,0.0,060226,,,A,V*2B
$GPRMC,232115.00,A,5211.716929,N,00008.717999,E,0.0,0.0,060226,,,A,V*27
$GPRMC,232116.00,A,5211.716927,N,00008.717994,E,0.0,0.0,060226,,,A,V*27
$GPRMC,232117.00,A,5211.716935,N,00008.717995,E,0.0,0.0,060226,,,A,V*24
$GPRMC,232118.00,A,5211.716940,N,00008.717995,E,0.0,0.0,060226,,,A,V*29
$GPRMC,232119.00,A,5211.716941,N,00008.717997,E,0.0,0.0,060226,,,A,V*2B
$GPRMC,232120.00,A,5211.716940,N,00008.717996,E,0.0,0.0,060226,,,A,V*21
$GPRMC,232121.00,A,5211.716940,N,00008.717992,E,0.0,0.0,060226,,,A,V*24
$GPRMC,232122.00,A,5211.716948,N,00008.717994,E,0.0,0.0,060226,,,A,V*29
$GPRMC,232123.00,A,5211.716952,N,00008.717993,E,0.0,0.0,060226,,,A,V*24
$GPRMC,232124.00,A,5211.716954,N,00008.717989,E,0.0,0.0,060226,,,A,V*2E
$GPRMC,232125.00,A,5211.716955,N,00008.717989,E,0.0,0.0,060226,,,A,V*2E
$GPRMC,232126.00,A,5211.716957,N,00008.717988,E,0.0,0.0,060226,,,A,V*2E
$GPRMC,232127.00,A,5211.716955,N,00008.717986,E,0.0,0.0,060226,,,A,V*23
$GPRMC,232128.00,A,5211.716957,N,00008.717987,E,0.0,0.0,060226,,,A,V*2F
$GPRMC,232129.00,A,5211.716956,N,00008.717986,E,0.0,0.0,060226,,,A,V*2E
$GPRMC,232130.00,A,5211.716954,N,00008.717986,E,0.0,0.0,060226,,,A,V*24
$GPRMC,232131.00,A,5211.716949,N,00008.717983,E,0.0,0.0,060226,,,A,V*2C
$GPRMC,232132.00,A,5211.716958,N,00008.717987,E,0.0,0.0,060226,,,A,V*2B
$GPRMC,232133.00,A,5211.716950,N,00008.717988,E,0.0,0.0,060226,,,A,V*2D
$GPRMC,232134.00,A,5211.716955,N,00008.717986,E,0.0,0.0,060226,,,A,V*21
$GPRMC,232135.00,A,5211.716970,N,00008.717989,E,0.0,0.0,060226,,,A,V*28
$GPRMC,232136.00,A,5211.716969,N,00008.717989,E,0.0,0.0,060226,,,A,V*23
$GPRMC,232137.00,A,5211.716967,N,00008.717985,E,0.0,0.0,060226,,,A,V*20
$GPRMC,232138.00,A,5211.716963,N,00008.717984,E,0.0,0.0,060226,,,A,V*2A
$GPRMC,232139.00,A,5211.716961,N,00008.717985,E,0.0,0.0,060226,,,A,V*28
$GPRMC,232140.00,A,5211.716963,N,00008.717983,E,0.0,0.0,060226,,,A,V*22
$GPRMC,232141.00,A,5211.716965,N,00008.717983,E,0.0,0.0,060226,,,A,V*25
$GPRMC,232142.00,A,5211.716966,N,00008.717983,E,0.0,0.0,060226,,,A,V*25
$GPRMC,232143.00,A,5211.716957,N,00008.717976,E,0.0,0.0,060226,,,A,V*2C
$GPRMC,232144.00,A,5211.716959,N,00008.717974,E,0.0,0.0,060226,,,A,V*27
$GPRMC,232145.00,A,5211.716960,N,00008.717974,E,0.0,0.0,060226,,,A,V*2C
$GPRMC,232146.00,A,5211.716956,N,00008.717974,E,0.0,0.0,060226,,,A,V*2A
$GPRMC,232147.00,A,5211.716956,N,00008.717970,E,0.0,0.0,060226,,,A,V*2F
$GPRMC,232148.00,A,5211.716955,N,00008.717971,E,0.0,0.0,060226,,,A,V*22
$GPRMC,232149.00,A,5211.716960,N,00008.717973,E,0.0,0.0,060226,,,A,V*27
$GPRMC,232150.00,A,5211.716966,N,00008.717973,E,0.0,0.0,060226,,,A,V*29
$GPRMC,232151.00,A,5211.716969,N,00008.717973,E,0.0,0.0,060226,,,A,V*27
$GPRMC,232152.00,A,5211.716968,N,00008.717977,E,0.0,0.0,060226,,,A,V*21
$GPRMC,232153.00,A,5211.716966,N,00008.717976,E,0.0,0.0,060226,,,A,V*2F
$GPRMC,232154.00,A,5211.716969,N,00008.717969,E,0.0,0.0,060226,,,A,V*29
$GPRMC,232155.00,A,5211.716967,N,00008.717968,E,0.0,0.0,060226,,,A,V*27
$GPRMC,232156.00,A,5211.716968,N,00008.717974,E,0.0,0.0,060226,,,A,V*26
$GPRMC,232157.00,A,5211.716968,N,00008.717971,E,0.0,0.0,060226,,,A,V*22
$GPRMC,232158.00,A,5211.716970,N,00008.717992,E,0.0,0.0,060226,,,A,V*29
$GPRMC,232159.00,A,5211.716963,N,00008.717993,E,0.0,0.0,060226,,,A,V*2B
$GPRMC,232200.00,A,5211.716966,N,00008.717984,E,0.0,0.0,060226,,,A,V*27
$GPRMC,232201.00,A,5211.716973,N,00008.717988,E,0.0,0.0,060226,,,A,V*2E
$GPRMC,232202.00,A,5211.716980,N,00008.717982,E,0.0,0.0,060226,,,A,V*2B
$GPRMC,232203.00,A,5211.716979,N,00008.717975,E,0.0,0.0,060226,,,A,V*24
$GPRMC,232204.00,A,5211.716980,N,00008.717979,E,0.0,0.0,060226,,,A,V*29
$GPRMC,232205.00,A,5211.716980,N,00008.717976,E,0.0,0.0,060226,,,A,V*27
$GPRMC,232206.00,A,5211.716975,N,00008.717972,E,0.0,0.0,060226,,,A,V*2A
$GPRMC,232207.00,A,5211.716975,N,00008.717969,E,0.0,0.0,060226,,,A,V*21
$GPRMC,232208.00,A,5211.716977,N,00008.717976,E,0.0,0.0,060226,,,A,V*22
$GPRMC,232209.00,A,5211.716980,N,00008.717980,E,0.0,0.0,060226,,,A,V*22
$GPRMC,232210.00,A,5211.716983,N,00008.717979,E,0.0,0.0,060226,,,A,V*2F
$GPRMC,232211.00,A,5211.716984,N,00008.717973,E,0.0,0.0,060226,,,A,V*23
$GPRMC,232212.00,A,5211.716984,N,00008.717972,E,0.0,0.0,060226,,,A,V*21
$GPRMC,232213.00,A,5211.716986,N,00008.717970,E,0.0,0.0,060226,,,A,V*20
$GPRMC,232214.00,A,5211.716985,N,00008.717965,E,0.0,0.0,060226,,,A,V*20
$GPRMC,232215.00,A,5211.716983,N,00008.717965,E,0.0,0.0,060226,,,A,V*27
$GPRMC,232216.00,A,5211.716988,N,00008.717968,E,0.0,0.0,060226,,,A,V*22
$GPRMC,232217.00,A,5211.716987,N,00008.717967,E,0.0,0.0,060226,,,A,V*23
$GPRMC,232218.00,A,5211.716991,N,00008.717972,E,0.0,0.0,060226,,,A,V*2F
$GPRMC,232219.00,A,5211.716993,N,00008.717967,E,0.0,0.0,060226,,,A,V*28
$GPRMC,232220.00,A,5211.716996,N,00008.717967,E,0.0,0.0,060226,,,A,V*27
$GPRMC,232221.00,A,5211.716998,N,00008.717969,E,0.0,0.0,060226,,,A,V*26
$GPRMC,232222.00,A,5211.717003,N,00008.717969,E,0.0,0.0,060226,,,A,V*2F
$GPRMC,232223.00,A,5211.717005,N,00008.717968,E,0.0,0.0,060226,,,A,V*29
$GPRMC,232224.00,A,5211.717004,N,00008.717968,E,0.0,0.0,060226,,,A,V*2F
$GPRMC,232225.00,A,5211.717008,N,00008.717968,E,0.0,0.0,060226,,,A,V*22
$GPRMC,232226.00,A,5211.717001,N,00008.717958,E,0.0,0.0,060226,,,A,V*2B
$GPRMC,232227.00,A,5211.717005,N,00008.717960,E,0.0,0.0,060226,,,A,V*25
$GPRMC,232228.00,A,5211.717008,N,00008.717964,E,0.0,0.0,060226,,,A,V*23
$GPRMC,232229.00,A,5211.717021,N,00008.717973,E,0.0,0.0,060226,,,A,V*2F
$GPRMC,232230.00,A,5211.717024,N,00008.717982,E,0.0,0.0,060226,,,A,V*2C
$GPRMC,232231.00,A,5211.717027,N,00008.717980,E,0.0,0.0,060226,,,A,V*2C
$GPRMC,232232.00,A,5211.717024,N,00008.717984,E,0.0,0.0,060226,,,A,V*28
$GPRMC,232233.00,A,5211.717021,N,00008.717980,E,0.0,0.0,060226,,,A,V*28
$GPRMC,232234.00,A,5211.717023,N,00008.717980,E,0.0,0.0,060226,,,A,V*2D
$GPRMC,232235.00,A,5211.717020,N,00008.717976,E,0.0,0.0,060226,,,A,V*26
$GPRMC,232236.00,A,5211.717019,N,00008.717978,E,0.0,0.0,060226,,,A,V*21
$GPRMC,232237.00,A,5211.717026,N,00008.717980,E,0.0,0.0,060226,,,A,V*2B
$GPRMC,232238.00,A,5211.717019,N,00008.717986,E,0.0,0.0,060226,,,A,V*2E
$GPRMC,232239.00,A,5211.717022,N,00008.717988,E,0.0,0.0,060226,,,A,V*29
$GPRMC,232240.00,A,5211.717021,N,00008.717982,E,0.0,0.0,060226,,,A,V*2E
$GPRMC,232241.00,A,5211.717021,N,00008.717979,E,0.0,0.0,060226,,,A,V*2B
$GPRMC,232242.00,A,5211.717029,N,00008.717983,E,0.0,0.0,060226,,,A,V*25
$GPRMC,232243.00,A,5211.717032,N,00008.717976,E,0.0,0.0,060226,,,A,V*24
$GPRMC,232244.00,A,5211.717031,N,00008.717975,E,0.0,0.0,060226,,,A,V*23
$GPRMC,232245.00,A,5211.717033,N,00008.717974,E,0.0,0.0,060226,,,A,V*21
$GPRMC,232246.00,A,5211.717032,N,00008.717970,E,0.0,0.0,060226,,,A,V*27
$GPRMC,232247.00,A,5211.717038,N,00008.717980,E,0.0,0.0,060226,,,A,V*23
$GPRMC,232248.00,A,5211.717042,N,00008.717981,E,0.0,0.0,060226,,,A,V*20
$GPRMC,232249.00,A,5211.717042,N,00008.717980,E,0.0,0.0,060226,,,A,V*20
$GPRMC,232250.00,A,5211.717049,N,00008.717983,E,0.0,0.0,060226,,,A,V*20
$GPRMC,232251.00,A,5211.717047,N,00008.717980,E,0.0,0.0,060226,,,A,V*2C
$GPRMC,232252.00,A,5211.717047,N,00008.717979,E,0.0,0.0,060226,,,A,V*29
$GPRMC,232253.00,A,5211.717050,N,00008.717982,E,0.0,0.0,060226,,,A,V*2A
$GPRMC,232254.00,A,5211.717056,N,00008.717981,E,0.0,0.0,060226,,,A,V*28
$GPRMC,232255.00,A,5211.717061,N,00008.717980,E,0.0,0.0,060226,,,A,V*2C
$GPRMC,232256.00,A,5211.717062,N,00008.717981,E,0.0,0.0,060226,,,A,V*2D
$GPRMC,232257.00,A,5211.717064,N,00008.717979,E,0.0,0.0,060226,,,A,V*2D
$GPRMC,232258.00,A,5211.717061,N,00008.717976,E,0.0,0.0,060226,,,A,V*28
$GPRMC,232259.00,A,5211.717067,N,00008.717971,E,0.0,0.0,060226,,,A,V*28
$GPRMC,232300.00,A,5211.717063,N,00008.717968,E,0.0,0.0,060226,,,A,V*29
$GPRMC,232301.00,A,5211.717064,N,00008.717967,E,0.0,0.0,060226,,,A,V*20
$GPRMC,232302.00,A,5211.717065,N,00008.717960,E,0.0,0.0,060226,,,A,V*25
$GPRMC,232303.00,A,5211.717074,N,00008.717965,E,0.0,0.0,060226,,,A,V*21
$GPRMC,232304.00,A,5211.717078,N,00008.717968,E,0.0,0.0,060226,,,A,V*27
$GPRMC,232305.00,A,5211.717079,N,00008.717968,E,0.0,0.0,060226,,,A,V*27
$GPRMC,232306.00,A,5211.717075,N,00008.717971,E,0.0,0.0,060226,,,A,V*20
$GPRMC,232307.00,A,5211.717076,N,00008.717977,E,0.0,0.0,060226,,,A,V*24
$GPRMC,232308.00,A,5211.717073,N,00008.717973,E,0.0,0.0,060226,,,A,V*2A
$GPRMC,232309.00,A,5211.717074,N,00008.717972,E,0.0,0.0,060226,,,A,V*2D
$GPRMC,232310.00,A,5211.717071,N,00008.717969,E,0.0,0.0,060226,,,A,V*2A
$GPRMC,232311.00,A,5211.717074,N,00008.717969,E,0.0,0.0,060226,,,A,V*2E
$GPRMC,232312.00,A,5211.717078,N,00008.717968,E,0.0,0.0,060226,,,A,V*20
$GPRMC,232313.00,A,5211.717078,N,00008.717964,E,0.0,0.0,060226,,,A,V*2D
$GPRMC,232314.00,A,5211.717081,N,00008.717964,E,0.0,0.0,060226,,,A,V*2C
$GPRMC,232315.00,A,5211.717083,N,00008.717967,E,0.0,0.0,060226,,,A,V*2C
$GPRMC,232316.00,A,5211.717085,N,00008.717960,E,0.0,0.0,060226,,,A,V*2E
$GPRMC,232317.00,A,5211.717089,N,00008.717961,E,0.0,0.0,060226,,,A,V*22
$GPRMC,232318.00,A,5211.717086,N,00008.717954,E,0.0,0.0,060226,,,A,V*24
$GPRMC,232319.00,A,5211.717093,N,00008.717957,E,0.0,0.0,060226,,,A,V*22
$GPRMC,232320.00,A,5211.717097,N,00008.717959,E,0.0,0.0,060226,,,A,V*22
$GPRMC,232321.00,A,5211.717097,N,00008.717960,E,0.0,0.0,060226,,,A,V*29
$GPRMC,232322.00,A,5211.717093,N,00008.717958,E,0.0,0.0,060226,,,A,V*25
$GPRMC,232323.00,A,5211.717095,N,00008.717958,E,0.0,0.0,060226,,,A,V*22
$GPRMC,232324.00,A,5211.717099,N,00008.717964,E,0.0,0.0,060226,,,A,V*26
$GPRMC,232325.00,A,5211.717118,N,00008.717988,E,0.0,0.0,060226,,,A,V*2D
$GPRMC,232326.00,A,5211.717128,N,00008.717993,E,0.0,0.0,060226,,,A,V*27
$GPRMC,232327.00,A,5211.717128,N,00008.717999,E,0.0,0.0,060226,,,A,V*2C
$GPRMC,232328.00,A,5211.717125,N,00008.718001,E,0.0,0.0,060226,,,A,V*29
$GPRMC,232329.00,A,5211.717124,N,00008.718001,E,0.0,0.0,060226,,,A,V*29
$GPRMC,232330.00,A,5211.717129,N,00008.718005,E,0.0,0.0,060226,,,A,V*28
$GPRMC,232331.00,A,5211.717129,N,00008.718005,E,0.0,0.0,060226,,,A,V*29
$GPRMC,232332.00,A,5211.717133,N,00008.718001,E,0.0,0.0,060226,,,A,V*25
$GPRMC,232333.00,A,5211.717134,N,00008.718000,E,0.0,0.0,060226,,,A,V*22
$GPRMC,232334.00,A,5211.717140,N,00008.718005,E,0.0,0.0,060226,,,A,V*23
$GPRMC,232335.00,A,5211.717141,N,00008.718001,E,0.0,0.0,060226,,,A,V*27
$GPRMC,232336.00,A,5211.717140,N,00008.717997,E,0.0,0.0,060226,,,A,V*2C
$GPRMC,232337.00,A,5211.717144,N,00008.717995,E,0.0,0.0,060226,,,A,V*2B
$GPRMC,232338.00,A,5211.717149,N,00008.717992,E,0.0,0.0,060226,,,A,V*2E
$GPRMC,232339.00,A,5211.717127,N,00008.717962,E,0.0,0.0,060226,,,A,V*28
$GPRMC,232340.00,A,5211.717123,N,00008.717956,E,0.0,0.0,060226,,,A,V*25
$GPRMC,232341.00,A,5211.717127,N,00008.717965,E,0.0,0.0,060226,,,A,V*20
$GPRMC,232342.00,A,5211.717132,N,00008.717970,E,0.0,0.0,060226,,,A,V*23
$GPRMC,232343.00,A,5211.717134,N,00008.717968,E,0.0,0.0,060226,,,A,V*2D
$GPRMC,232344.00,A,5211.717128,N,00008.717964,E,0.0,0.0,060226,,,A,V*2B
$GPRMC,232345.00,A,5211.717125,N,00008.717967,E,0.0,0.0,060226,,,A,V*24
$GPRMC,232346.00,A,5211.717129,N,00008.717959,E,0.0,0.0,060226,,,A,V*26
$GPRMC,232347.00,A,5211.717133,N,00008.717955,E,0.0,0.0,060226,,,A,V*20
$GPRMC,232348.00,A,5211.717135,N,00008.717959,E,0.0,0.0,060226,,,A,V*25
$GPRMC,232349.00,A,5211.717113,N,00008.717923,E,0.0,0.0,060226,,,A,V*2D
$GPRMC,232350.00,A,5211.717119,N,00008.717920,E,0.0,0.0,060226,,,A,V*2C
$GPRMC,232351.00,A,5211.717124,N,00008.717919,E,0.0,0.0,060226,,,A,V*29
$GPRMC,232352.00,A,5211.717124,N,00008.717920,E,0.0,0.0,060226,,,A,V*20
$GPRMC,232353.00,A,5211.717125,N,00008.717917,E,0.0,0.0,060226,,,A,V*24
$GPRMC,232354.00,A,5211.717125,N,00008.717917,E,0.0,0.0,060226,,,A,V*23
$GPRMC,232355.00,A,5211.717139,N,00008.717931,E,0.0,0.0,060226,,,A,V*2B
$GPRMC,232356.00,A,5211.717107,N,00008.717866,E,0.0,0.0,060226,,,A,V*26
$GPRMC,232357.00,A,5211.717106,N,00008.717856,E,0.0,0.0,060226,,,A,V*25
$GPRMC,232358.00,A,5211.717113,N,00008.717851,E,0.0,0.0,060226,,,A,V*29
$GPRMC,232359.00,A,5211.717112,N,00008.717853,E,0.0,0.0,060226,,,A,V*2B
$GPRMC,232400.00,A,5211.717113,N,00008.717850,E,0.0,0.0,060226,,,A,V*22
$GPRMC,232401.00,A,5211.717115,N,00008.717848,E,0.0,0.0,060226,,,A,V*2C
$GPRMC,232402.00,A,5211.717116,N,00008.717837,E,0.0,0.0,060226,,,A,V*24
$GPRMC,232403.00,A,5211.717111,N,00008.717820,E,0.0,0.0,060226,,,A,V*24
$GPRMC,232404.00,A,5211.717074,N,00008.717735,E,0.0,0.0,060226,,,A,V*2A
$GPRMC,232405.00,A,5211.717076,N,00008.717739,E,0.0,0.0,060226,,,A,V*25
$GPRMC,232406.00,A,5211.717076,N,00008.717739,E,0.0,0.0,060226,,,A,V*26
$GPRMC,232407.00,A,5211.717086,N,00008.717743,E,0.0,0.0,060226,,,A,V*25
$GPRMC,232408.00,A,5211.717091,N,00008.717745,E,0.0,0.0,060226,,,A,V*2A
$GPRMC,232409.00,A,5211.717093,N,00008.717742,E,0.0,0.0,060226,,,A,V*2E
$GPRMC,232410.00,A,5211.717092,N,00008.717739,E,0.0,0.0,060226,,,A,V*2B
$GPRMC,232411.00,A,5211.717097,N,00008.717736,E,0.0,0.0,060226,,,A,V*20
$GPRMC,232412.00,A,5211.717101,N,00008.717742,E,0.0,0.0,060226,,,A,V*2E
$GPRMC,232413.00,A,5211.717100,N,00008.717734,E,0.0,0.0,060226,,,A,V*2F
$GPRMC,232414.00,A,5211.717118,N,00008.717763,E,0.0,0.0,060226,,,A,V*23
$GPRMC,232415.00,A,5211.717116,N,00008.717751,E,0.0,0.0,060226,,,A,V*2D
$GPRMC,232416.00,A,5211.717118,N,00008.717750,E,0.0,0.0,060226,,,A,V*21
$GPRMC,232417.00,A,5211.717133,N,00008.717755,E,0.0,0.0,060226,,,A,V*2C
$GPRMC,232418.00,A,5211.717137,N,00008.717752,E,0.0,0.0,060226,,,A,V*20
$GPRMC,232419.00,A,5211.717135,N,00008.717743,E,0.0,0.0,060226,,,A,V*23
$GPRMC,232420.00,A,5211.717138,N,00008.717743,E,0.0,0.0,060226,,,A,V*24
$GPRMC,232421.00,A,5211.717143,N,00008.717748,E,0.0,0.0,060226,,,A,V*22
$GPRMC,232422.00,A,5211.717141,N,00008.717741,E,0.0,0.0,060226,,,A,V*2A
$GPRMC,232423.00,A,5211.717134,N,00008.717730,E,0.0,0.0,060226,,,A,V*2F
$GPRMC,232424.00,A,5211.717123,N,00008.717728,E,0.0,0.0,060226,,,A,V*27
$GPRMC,232425.00,A,5211.717124,N,00008.717730,E,0.0,0.0,060226,,,A,V*28
$GPRMC,232426.00,A,5211.717122,N,00008.717732,E,0.0,0.0,060226,,,A,V*2F
$GPRMC,232427.00,A,5211.717128,N,00008.717737,E,0.0,0.0,060226,,,A,V*21
$GPRMC,232428.00,A,5211.717150,N,00008.717759,E,0.0,0.0,060226,,,A,V*29
$GPRMC,232429.00,A,5211.717150,N,00008.717761,E,0.0,0.0,060226,,,A,V*23
$GPRMC,232430.00,A,5211.717151,N,00008.717760,E,0.0,0.0,060226,,,A,V*2B
$GPRMC,232431.00,A,5211.717154,N,00008.717763,E,0.0,0.0,060226,,,A,V*2C
$GPRMC,232432.00,A,5211.717157,N,00008.717757,E,0.0,0.0,060226,,,A,V*2B
$GPRMC,232433.00,A,5211.717155,N,00008.717757,E,0.0,0.0,060226,,,A,V*28
$GPRMC,232434.00,A,5211.717155,N,00008.717740,E,0.0,0.0,060226,,,A,V*29
$GPRMC,232435.00,A,5211.717153,N,00008.717736,E,0.0,0.0,060226,,,A,V*2F
$GPRMC,232436.00,A,5211.717154,N,00008.717742,E,0.0,0.0,060226,,,A,V*28
$GPRMC,232437.00,A,5211.717157,N,00008.717746,E,0.0,0.0,060226,,,A,V*2E
$GPRMC,232438.00,A,5211.717150,N,00008.717736,E,0.0,0.0,060226,,,A,V*21
$GPRMC,232439.00,A,5211.717144,N,00008.717732,E,0.0,0.0,060226,,,A,V*21
$GPRMC,232440.00,A,5211.717151,N,00008.717735,E,0.0,0.0,060226,,,A,V*2C
$GPRMC,232441.00,A,5211.717150,N,00008.717725,E,0.0,0.0,060226,,,A,V*2D
$GPRMC,232442.00,A,5211.717148,N,00008.717728,E,0.0,0.0,060226,,,A,V*2A
$GPRMC,232443.00,A,5211.717150,N,00008.717736,E,0.0,0.0,060226,,,A,V*2D
$GPRMC,232444.00,A,5211.717161,N,00008.717736,E,0.0,0.0,060226,,,A,V*28
$GPRMC,232445.00,A,5211.717159,N,00008.717725,E,0.0,0.0,060226,,,A,V*20
$GPRMC,232446.00,A,5211.717164,N,00008.717727,E,0.0,0.0,060226,,,A,V*2F
$GPRMC,232447.00,A,5211.717160,N,00008.717718,E,0.0,0.0,060226,,,A,V*26
$GPRMC,232448.00,A,5211.717158,N,00008.717714,E,0.0,0.0,060226,,,A,V*2E
$GPRMC,232449.00,A,5211.717153,N,00008.717711,E,0.0,0.0,060226,,,A,V*21
$GPRMC,232450.00,A,5211.717160,N,00008.717712,E,0.0,0.0,060226,,,A,V*2A
$GPRMC,232451.00,A,5211.717157,N,00008.717706,E,0.0,0.0,060226,,,A,V*2A
$GPRMC,232452.00,A,5211.717160,N,00008.717701,E,0.0,0.0,060226,,,A,V*2A
$GPRMC,232453.00,A,5211.717154,N,00008.717695,E,0.0,0.0,060226,,,A,V*20
$GPRMC,232454.00,A,5211.717154,N,00008.717700,E,0.0,0.0,060226,,,A,V*2A
$GPRMC,232455.00,A,5211.717158,N,00008.717694,E,0.0,0.0,060226,,,A,V*2B
$GPRMC,232456.00,A,5211.717160,N,00008.717694,E,0.0,0.0,060226,,,A,V*23
$GPRMC,232457.00,A,5211.717168,N,00008.717704,E,0.0,0.0,060226,,,A,V*22
$GPRMC,232458.00,A,5211.717167,N,00008.717704,E,0.0,0.0,060226,,,A,V*22
$GPRMC,232459.00,A,5211.717171,N,00008.717718,E,0.0,0.0,060226,,,A,V*29
$GPRMC,232500.00,A,5211.717175,N,00008.717713,E,0.0,0.0,060226,,,A,V*2B
$GPRMC,232501.00,A,5211.717175,N,00008.717711,E,0.0,0.0,060226,,,A,V*28
$GPRMC,232502.00,A,5211.717174,N,00008.717713,E,0.0,0.0,060226,,,A,V*28
$GPRMC,232503.00,A,5211.717174,N,00008.717714,E,0.0,0.0,060226,,,A,V*2E
$GPRMC,232504.00,A,5211.717174,N,00008.717714,E,0.0,0.0,060226,,,A,V*29
$GPRMC,232505.00,A,5211.717179,N,00008.717716,E,0.0,0.0,060226,,,A,V*27
$GPRMC,232506.00,A,5211.717180,N,00008.717717,E,0.0,0.0,060226,,,A,V*23
$GPRMC,232507.00,A,5211.717179,N,00008.717717,E,0.0,0.0,060226,,,A,V*24
$GPRMC,232508.00,A,5211.717177,N,00008.717721,E,0.0,0.0,060226,,,A,V*20
$GPRMC,232509.00,A,5211.717178,N,00008.717720,E,0.0,0.0,060226,,,A,V*2F
$GPRMC,232510.00,A,5211.717179,N,00008.717721,E,0.0,0.0,060226,,,A,V*27
$GPRMC,232511.00,A,5211.717184,N,00008.717718,E,0.0,0.0,060226,,,A,V*2E
$GPRMC,232512.00,A,5211.717182,N,00008.717718,E,0.0,0.0,060226,,,A,V*2B
$GPRMC,232513.00,A,5211.717181,N,00008.717728,E,0.0,0.0,060226,,,A,V*2A
$GPRMC,232514.00,A,5211.717181,N,00008.717729,E,0.0,0.0,060226,,,A,V*2C
$GPRMC,232515.00,A,5211.717183,N,00008.717728,E,0.0,0.0,060226,,,A,V*2E
$GPRMC,232516.00,A,5211.717178,N,00008.717730,E,0.0,0.0,060226,,,A,V*20
$GPRMC,232517.00,A,5211.717179,N,00008.717731,E,0.0,0.0,060226,,,A,V*21
$GPRMC,232518.00,A,5211.717178,N,00008.717728,E,0.0,0.0,060226,,,A,V*27
$GPRMC,232519.00,A,5211.717177,N,00008.717730,E,0.0,0.0,060226,,,A,V*20
$GPRMC,232520.00,A,5211.717177,N,00008.717732,E,0.0,0.0,060226,,,A,V*28
$GPRMC,232521.00,A,5211.717176,N,00008.717736,E,0.0,0.0,060226,,,A,V*2C
$GPRMC,232522.00,A,5211.717175,N,00008.717737,E,0.0,0.0,060226,,,A,V*2D
$GPRMC,232523.00,A,5211.717173,N,00008.717739,E,0.0,0.0,060226,,,A,V*24
$GPRMC,232524.00,A,5211.717173,N,00008.717740,E,0.0,0.0,060226,,,A,V*2D
$GPRMC,232525.00,A,5211.717171,N,00008.717742,E,0.0,0.0,060226,,,A,V*2C
$GPRMC,232526.00,A,5211.717171,N,00008.717741,E,0.0,0.0,060226,,,A,V*2C
$GPRMC,232527.00,A,5211.717171,N,00008.717741,E,0.0,0.0,060226,,,A,V*2D
$GPRMC,232528.00,A,5211.717173,N,00008.717738,E,0.0,0.0,060226,,,A,V*2E
$GPRMC,232529.00,A,5211.717173,N,00008.717736,E,0.0,0.0,060226,,,A,V*21
$GPRMC,232530.00,A,5211.717179,N,00008.717736,E,0.0,0.0,060226,,,A,V*23
$GPRMC,232531.00,A,5211.717177,N,00008.717737,E,0.0,0.0,060226,,,A,V*2D
$GPRMC,232532.00,A,5211.717176,N,00008.717738,E,0.0,0.0,060226,,,A,V*20
$GPRMC,232533.00,A,5211.717175,N,00008.717734,E,0.0,0.0,060226,,,A,V*2E
$GPRMC,232534.00,A,5211.717176,N,00008.717736,E,0.0,0.0,060226,,,A,V*28
$GPRMC,232535.00,A,5211.717177,N,00008.717730,E,0.0,0.0,060226,,,A,V*2E
$GPRMC,232536.00,A,5211.717188,N,00008.717736,E,0.0,0.0,060226,,,A,V*2B
$GPRMC,232537.00,A,5211.717544,N,00008.717907,E,0.6025918,9.3,060226,,,A,V*29
$GPRMC,232538.00,A,5211.720471,N,00008.719954,E,0.0,0.0,060226,,,A,V*26
$GPRMC,232539.00,A,5211.720566,N,00008.720188,E,0.0,0.0,060226,,,A,V*23
$GPRMC,232540.00,A,5211.720501,N,00008.720395,E,0.0,0.0,060226,,,A,V*22
$GPRMC,232541.00,A,5211.720702,N,00008.720518,E,0.0,0.0,060226,,,A,V*21
$GPRMC,232542.00,A,5211.720788,N,00008.720222,E,0.0,0.0,060226,,,A,V*2E
$GPRMC,232543.00,A,5211.721308,N,00008.720529,E,0.0,0.0,060226,,,A,V*2E
$GPRMC,232544.00,A,5211.721380,N,00008.720914,E,0.0,0.0,060226,,,A,V*2B
$GPRMC,232545.00,A,5211.721149,N,00008.721081,E,0.0,0.0,060226,,,A,V*29
$GPRMC,232546.00,A,5211.720775,N,00008.720685,E,0.0,0.0,060226,,,A,V*21
$GPRMC,232547.00,A,5211.720948,N,00008.720520,E,0.0,0.0,060226,,,A,V*2C
$GPRMC,232548.00,A,5211.721335,N,00008.720832,E,0.0,0.0,060226,,,A,V*2C
$GPRMC,232549.00,A,5211.721657,N,00008.720877,E,0.0,0.0,060226,,,A,V*2D
$GPRMC,232550.00,A,5211.721687,N,00008.720866,E,0.0,0.0,060226,,,A,V*28
$GPRMC,232551.00,A,5211.721611,N,00008.720757,E,0.0,0.0,060226,,,A,V*2B
$GPRMC,232552.00,A,5211.721681,N,00008.720801,E,0.0,0.0,060226,,,A,V*2D
$GPRMC,232553.00,A,5211.721687,N,00008.720742,E,0.0,0.0,060226,,,A,V*22
$GPRMC,232554.00,A,5211.721407,N,00008.720502,E,0.0,0.0,060226,,,A,V*29
$GPRMC,232555.00,A,5211.721250,N,00008.720338,E,0.0,0.0,060226,,,A,V*23
$GPRMC,232556.00,A,5211.720779,N,00008.719905,E,0.0,0.0,060226,,,A,V*21
$GPRMC,232557.00,A,5211.720688,N,00008.719797,E,0.0,0.0,060226,,,A,V*2A
$GPRMC,232558.00,A,5211.720672,N,00008.719785,E,0.0,0.0,060226,,,A,V*23
$GPRMC,232559.00,A,5211.720741,N,00008.719849,E,0.0,0.0,060226,,,A,V*2C
$GPRMC,232600.00,A,5211.720736,N,00008.719846,E,0.0,0.0,060226,,,A,V*2C
$GPRMC,232601.00,A,5211.720566,N,00008.719714,E,0.0,0.0,060226,,,A,V*22
$GPRMC,232602.00,A,5211.720479,N,00008.719620,E,0.0,0.0,060226,,,A,V*28
$GPRMC,232603.00,A,5211.720473,N,00008.719612,E,0.0,0.0,060226,,,A,V*22
$GPRMC,232604.00,A,5211.720398,N,00008.719552,E,0.0,0.0,060226,,,A,V*20
$GPRMC,232605.00,A,5211.720395,N,00008.719548,E,0.0,0.0,060226,,,A,V*27
$GPRMC,232606.00,A,5211.720395,N,00008.719553,E,0.0,0.0,060226,,,A,V*2E
$GPRMC,232607.00,A,5211.720394,N,00008.719555,E,0.0,0.0,060226,,,A,V*28
$GPRMC,232608.00,A,5211.720434,N,00008.719591,E,0.0,0.0,060226,,,A,V*22
$GPRMC,232609.00,A,5211.720447,N,00008.719605,E,0.0,0.0,060226,,,A,V*29
$GPRMC,232610.00,A,5211.720447,N,00008.719605,E,0.0,0.0,060226,,,A,V*21
$GPRMC,232611.00,A,5211.720448,N,00008.719605,E,0.0,0.0,060226,,,A,V*2F
$GPRMC,232612.00,A,5211.720449,N,00008.719609,E,0.0,0.0,060226,,,A,V*21
$GPRMC,232613.00,A,5211.720448,N,00008.719610,E,0.0,0.0,060226,,,A,V*29
$GPRMC,232614.00,A,5211.720450,N,00008.719614,E,0.0,0.0,060226,,,A,V*23
$GPRMC,232615.00,A,5211.720452,N,00008.719614,E,0.0,0.0,060226,,,A,V*20
$GPRMC,232616.00,A,5211.720458,N,00008.719612,E,0.0,0.0,060226,,,A,V*2F
$GPRMC,232617.00,A,5211.720470,N,00008.719624,E,0.0,0.0,060226,,,A,V*21
$GPRMC,232618.00,A,5211.720470,N,00008.719621,E,0.0,0.0,060226,,,A,V*2B
$GPRMC,232619.00,A,5211.720468,N,00008.719619,E,0.0,0.0,060226,,,A,V*28
$GPRMC,232620.00,A,5211.720457,N,00008.719611,E,0.0,0.0,060226,,,A,V*26
$GPRMC,232621.00,A,5211.720457,N,00008.719609,E,0.0,0.0,060226,,,A,V*2E
$GPRMC,232622.00,A,5211.720456,N,00008.719609,E,0.0,0.0,060226,,,A,V*2C
$GPRMC,232623.00,A,5211.720451,N,00008.719602,E,0.0,0.0,060226,,,A,V*21
$GPRMC,232624.00,A,5211.720451,N,00008.719600,E,0.0,0.0,060226,,,A,V*24
$GPRMC,232625.00,A,5211.720451,N,00008.719592,E,0.0,0.0,060226,,,A,V*2D
$GPRMC,232626.00,A,5211.720448,N,00008.719591,E,0.0,0.0,060226,,,A,V*25
$GPRMC,232627.00,A,5211.720444,N,00008.719590,E,0.0,0.0,060226,,,A,V*29
$GPRMC,232628.00,A,5211.720441,N,00008.719591,E,0.0,0.0,060226,,,A,V*22
$GPRMC,232629.00,A,5211.720440,N,00008.719590,E,0.0,0.0,060226,,,A,V*23
$GPRMC,232630.00,A,5211.720122,N,00008.719719,E,0.8164147,176.8,060226,,,A,V*28
$GPRMC,232631.00,A,5211.720640,N,00008.719773,E,0.0,0.0,060226,,,A,V*27
$GPRMC,232632.00,A,5211.720400,N,00008.719563,E,0.0,0.0,060226,,,A,V*21
$GPRMC,232633.00,A,5211.720185,N,00008.719600,E,0.0,0.0,060226,,,A,V*2E
$GPRMC,232634.00,A,5211.720576,N,00008.719601,E,0.0,0.0,060226,,,A,V*20
$GPRMC,232635.00,A,5211.720487,N,00008.719446,E,0.0,0.0,060226,,,A,V*2F
$GPRMC,232636.00,A,5211.720938,N,00008.719660,E,0.0,0.0,060226,,,A,V*23
$GPRMC,232637.00,A,5211.721096,N,00008.719872,E,0.0,0.0,060226,,,A,V*23
$GPRMC,232638.00,A,5211.721050,N,00008.719989,E,0.0,0.0,060226,,,A,V*23
$GPRMC,232639.00,A,5211.721439,N,00008.720066,E,0.0,0.0,060226,,,A,V*2B
$GPRMC,232640.00,A,5211.721499,N,00008.720125,E,0.0,0.0,060226,,,A,V*29
$GPRMC,232641.00,A,5211.721700,N,00008.720206,E,0.0,0.0,060226,,,A,V*29
$GPRMC,232642.00,A,5211.721697,N,00008.720160,E,0.0,0.0,060226,,,A,V*26
$GPRMC,232643.00,A,5211.721697,N,00008.720155,E,0.0,0.0,060226,,,A,V*21
$GPRMC,232644.00,A,5211.721644,N,00008.720058,E,0.0,0.0,060226,,,A,V*24
$GPRMC,232645.00,A,5211.721662,N,00008.720078,E,0.0,0.0,060226,,,A,V*23
$GPRMC,232646.00,A,5211.721642,N,00008.720038,E,0.0,0.0,060226,,,A,V*26
$GPRMC,232647.00,A,5211.721653,N,00008.720052,E,0.0,0.0,060226,,,A,V*2B
$GPRMC,232648.00,A,5211.721624,N,00008.720019,E,0.0,0.0,060226,,,A,V*2B
$GPRMC,232649.00,A,5211.721625,N,00008.720020,E,0.0,0.0,060226,,,A,V*21
$GPRMC,232650.00,A,5211.721573,N,00008.719920,E,0.0,0.0,060226,,,A,V*2A
$GPRMC,232651.00,A,5211.721577,N,00008.719924,E,0.0,0.0,060226,,,A,V*2B
$GPRMC,232652.00,A,5211.721577,N,00008.719925,E,0.0,0.0,060226,,,A,V*29
$GPRMC,232653.00,A,5211.721577,N,00008.719926,E,0.0,0.0,060226,,,A,V*2B
$GPRMC,232654.00,A,5211.721586,N,00008.719947,E,0.0,0.0,060226,,,A,V*25
$GPRMC,232655.00,A,5211.721587,N,00008.719947,E,0.0,0.0,060226,,,A,V*25
$GPRMC,232656.00,A,5211.721588,N,00008.719945,E,0.0,0.0,060226,,,A,V*2B
$GPRMC,232657.00,A,5211.721597,N,00008.719944,E,0.0,0.0,060226,,,A,V*25
$GPRMC,232658.00,A,5211.721594,N,00008.719941,E,0.0,0.0,060226,,,A,V*2C
$GPRMC,232659.00,A,5211.721594,N,00008.719940,E,0.0,0.0,060226,,,A,V*2C
$GPRMC,232700.00,A,5211.721596,N,00008.719942,E,0.0,0.0,060226,,,A,V*21
$GPRMC,232701.00,A,5211.721596,N,00008.719941,E,0.0,0.0,060226,,,A,V*23
$GPRMC,232702.00,A,5211.721616,N,00008.719974,E,0.0,0.0,060226,,,A,V*2D
$GPRMC,232703.00,A,5211.721618,N,00008.719975,E,0.0,0.0,060226,,,A,V*23
$GPRMC,232704.00,A,5211.721616,N,00008.719973,E,0.0,0.0,060226,,,A,V*2C
$GPRMC,232705.00,A,5211.721614,N,00008.719971,E,0.0,0.0,060226,,,A,V*2D
$GPRMC,232706.00,A,5211.721615,N,00008.719971,E,0.0,0.0,060226,,,A,V*2F
$GPRMC,232707.00,A,5211.721612,N,00008.719970,E,0.0,0.0,060226,,,A,V*28
$GPRMC,232708.00,A,5211.721624,N,00008.719982,E,0.0,0.0,060226,,,A,V*2F
$GPRMC,232709.00,A,5211.721623,N,00008.719981,E,0.0,0.0,060226,,,A,V*2A
$GPRMC,232710.00,A,5211.721624,N,00008.719980,E,0.0,0.0,060226,,,A,V*24
$GPRMC,232711.00,A,5211.721623,N,00008.719979,E,0.0,0.0,060226,,,A,V*24
$GPRMC,232712.00,A,5211.721622,N,00008.719978,E,0.0,0.0,060226,,,A,V*27
$GPRMC,232713.00,A,5211.721623,N,00008.719980,E,0.0,0.0,060226,,,A,V*20
$GPRMC,232714.00,A,5211.721623,N,00008.719981,E,0.0,0.0,060226,,,A,V*26
$GPRMC,232715.00,A,5211.721621,N,00008.719980,E,0.0,0.0,060226,,,A,V*24
$GPRMC,232716.00,A,5211.721621,N,00008.719980,E,0.0,0.0,060226,,,A,V*27
$GPRMC,232717.00,A,5211.721638,N,00008.720001,E,0.0,0.0,060226,,,A,V*24
$GPRMC,232718.00,A,5211.721639,N,00008.720007,E,0.0,0.0,060226,,,A,V*2C
$GPRMC,232719.00,A,5211.721640,N,00008.720006,E,0.0,0.0,060226,,,A,V*22
$GPRMC,232720.00,A,5211.721642,N,00008.720008,E,0.0,0.0,060226,,,A,V*24
$GPRMC,232721.00,A,5211.721642,N,00008.720010,E,0.0,0.0,060226,,,A,V*2C
$GPRMC,232722.00,A,5211.721644,N,00008.720013,E,0.0,0.0,060226,,,A,V*2A
$GPRMC,232723.00,A,5211.721664,N,00008.720030,E,0.0,0.0,060226,,,A,V*28
$GPRMC,232724.00,A,5211.721664,N,00008.720032,E,0.0,0.0,060226,,,A,V*2D
$GPRMC,232725.00,A,5211.721665,N,00008.720031,E,0.0,0.0,060226,,,A,V*2E
$GPRMC,232726.00,A,5211.721664,N,00008.720029,E,0.0,0.0,060226,,,A,V*25
$GPRMC,232727.00,A,5211.721664,N,00008.720030,E,0.0,0.0,060226,,,A,V*2C
$GPRMC,232728.00,A,5211.721662,N,00008.720029,E,0.0,0.0,060226,,,A,V*2D
$GPRMC,232729.00,A,5211.721619,N,00008.719984,E,0.0,0.0,060226,,,A,V*24
$GPRMC,232730.00,A,5211.721617,N,00008.719980,E,0.0,0.0,060226,,,A,V*26
$GPRMC,232731.00,A,5211.721606,N,00008.719970,E,0.0,0.0,060226,,,A,V*28
$GPRMC,232732.00,A,5211.721605,N,00008.719971,E,0.0,0.0,060226,,,A,V*29
$GPRMC,232733.00,A,5211.721605,N,00008.719971,E,0.0,0.0,060226,,,A,V*28
$GPRMC,232734.00,A,5211.721604,N,00008.719972,E,0.0,0.0,060226,,,A,V*2D
$GPRMC,232735.00,A,5211.721616,N,00008.719982,E,0.0,0.0,060226,,,A,V*20
$GPRMC,232736.00,A,5211.721617,N,00008.719984,E,0.0,0.0,060226,,,A,V*24
$GPRMC,232737.00,A,5211.721615,N,00008.719984,E,0.0,0.0,060226,,,A,V*27
$GPRMC,232738.00,A,5211.721615,N,00008.719983,E,0.0,0.0,060226,,,A,V*2F
$GPRMC,232739.00,A,5211.721637,N,00008.720005,E,0.0,0.0,060226,,,A,V*23
$GPRMC,232740.00,A,5211.721633,N,00008.720002,E,0.0,0.0,060226,,,A,V*2E
$GPRMC,232741.00,A,5211.721633,N,00008.720002,E,0.0,0.0,060226,,,A,V*2F
$GPRMC,232742.00,A,5211.721632,N,00008.720001,E,0.0,0.0,060226,,,A,V*2E
$GPRMC,232743.00,A,5211.721629,N,00008.720002,E,0.0,0.0,060226,,,A,V*26
$GPRMC,232744.00,A,5211.721552,N,00008.719930,E,0.0,0.0,060226,,,A,V*2C
$GPRMC,232745.00,A,5211.721537,N,00008.719914,E,0.0,0.0,060226,,,A,V*28
$GPRMC,232746.00,A,5211.721536,N,00008.719911,E,0.0,0.0,060226,,,A,V*2F
$GPRMC,232747.00,A,5211.721592,N,00008.719990,E,0.0,0.0,060226,,,A,V*29
$GPRMC,232748.00,A,5211.721301,N,00008.719614,E,0.0,0.0,060226,,,A,V*29
$GPRMC,232749.00,A,5211.721298,N,00008.719609,E,0.0,0.0,060226,,,A,V*25
$GPRMC,232750.00,A,5211.721327,N,00008.719647,E,0.0,0.0,060226,,,A,V*22
$GPRMC,232751.00,A,5211.721355,N,00008.719665,E,0.0,0.0,060226,,,A,V*26
$GPRMC,232752.00,A,5211.721329,N,00008.719626,E,0.0,0.0,060226,,,A,V*29
$GPRMC,232753.00,A,5211.721357,N,00008.719652,E,0.0,0.0,060226,,,A,V*22
$GPRMC,232754.00,A,5211.721399,N,00008.719711,E,0.0,0.0,060226,,,A,V*21
$GPRMC,232755.00,A,5211.721395,N,00008.719708,E,0.0,0.0,060226,,,A,V*24
$GPRMC,232756.00,A,5211.721392,N,00008.719707,E,0.0,0.0,060226,,,A,V*2F
$GPRMC,232757.00,A,5211.721397,N,00008.719713,E,0.0,0.0,060226,,,A,V*2E
$GPRMC,232758.00,A,5211.721418,N,00008.719724,E,0.0,0.0,060226,,,A,V*25
$GPRMC,232759.00,A,5211.721414,N,00008.719720,E,0.0,0.0,060226,,,A,V*2C
$GPRMC,232800.00,A,5211.721380,N,00008.719683,E,0.0,0.0,060226,,,A,V*2D
$GPRMC,232801.00,A,5211.721381,N,00008.719685,E,0.0,0.0,060226,,,A,V*2B
$GPRMC,232802.00,A,5211.721381,N,00008.719684,E,0.0,0.0,060226,,,A,V*29
$GPRMC,232803.00,A,5211.721419,N,00008.719707,E,0.0,0.0,060226,,,A,V*24
$GPRMC,232804.00,A,5211.721421,N,00008.719713,E,0.0,0.0,060226,,,A,V*2D
$GPRMC,232805.00,A,5211.721421,N,00008.719712,E,0.0,0.0,060226,,,A,V*2D
$GPRMC,232806.00,A,5211.721426,N,00008.719715,E,0.0,0.0,060226,,,A,V*2E
$GPRMC,232807.00,A,5211.721425,N,00008.719715,E,0.0,0.0,060226,,,A,V*2C
$GPRMC,232808.00,A,5211.721421,N,00008.719714,E,0.0,0.0,060226,,,A,V*26
$GPRMC,232809.00,A,5211.721419,N,00008.719711,E,0.0,0.0,060226,,,A,V*29
$GPRMC,232810.00,A,5211.721420,N,00008.719711,E,0.0,0.0,060226,,,A,V*2B
$GPRMC,232811.00,A,5211.721421,N,00008.719713,E,0.0,0.0,060226,,,A,V*29
$GPRMC,232812.00,A,5211.721424,N,00008.719714,E,0.0,0.0,060226,,,A,V*28
$GPRMC,232813.00,A,5211.721427,N,00008.719716,E,0.0,0.0,060226,,,A,V*28
$GPRMC,232814.00,A,5211.721426,N,00008.719717,E,0.0,0.0,060226,,,A,V*2F
$GPRMC,232815.00,A,5211.721426,N,00008.719717,E,0.0,0.0,060226,,,A,V*2E
$GPRMC,232816.00,A,5211.721424,N,00008.719713,E,0.0,0.0,060226,,,A,V*2B
$GPRMC,232817.00,A,5211.721425,N,00008.719716,E,0.0,0.0,060226,,,A,V*2E
$GPRMC,232818.00,A,5211.721426,N,00008.719716,E,0.0,0.0,060226,,,A,V*22
$GPRMC,232819.00,A,5211.721423,N,00008.719714,E,0.0,0.0,060226,,,A,V*24
$GPRMC,232820.00,A,5211.721423,N,00008.719714,E,0.0,0.0,060226,,,A,V*2E
$GPRMC,232821.00,A,5211.721422,N,00008.719714,E,0.0,0.0,060226,,,A,V*2E
$GPRMC,232822.00,A,5211.721420,N,00008.719711,E,0.0,0.0,060226,,,A,V*2A
$GPRMC,232823.00,A,5211.721420,N,00008.719710,E,0.0,0.0,060226,,,A,V*2A
$GPRMC,232824.00,A,5211.721418,N,00008.719711,E,0.0,0.0,060226,,,A,V*27
$GPRMC,232825.00,A,5211.721420,N,00008.719711,E,0.0,0.0,060226,,,A,V*2D
$GPRMC,232826.00,A,5211.721417,N,00008.719710,E,0.0,0.0,060226,,,A,V*2B
$GPRMC,232827.00,A,5211.721414,N,00008.719704,E,0.0,0.0,060226,,,A,V*2C
$GPRMC,232828.00,A,5211.721418,N,00008.719710,E,0.0,0.0,060226,,,A,V*2A
$GPRMC,232829.00,A,5211.721418,N,00008.719713,E,0.0,0.0,060226,,,A,V*28
$GPRMC,232830.00,A,5211.721418,N,00008.719714,E,0.0,0.0,060226,,,A,V*27
$GPRMC,232831.00,A,5211.721419,N,00008.719715,E,0.0,0.0,060226,,,A,V*26
$GPRMC,232832.00,A,5211.721418,N,00008.719714,E,0.0,0.0,060226,,,A,V*25
$GPRMC,232833.00,A,5211.721415,N,00008.719711,E,0.0,0.0,060226,,,A,V*2C
$GPRMC,232834.00,A,5211.721414,N,00008.719711,E,0.0,0.0,060226,,,A,V*2A
$GPRMC,232835.00,A,5211.721411,N,00008.719704,E,0.0,0.0,060226,,,A,V*2A
$GPRMC,232836.00,A,5211.721414,N,00008.719708,E,0.0,0.0,060226,,,A,V*20
$GPRMC,232837.00,A,5211.721414,N,00008.719710,E,0.0,0.0,060226,,,A,V*28
$GPRMC,232838.00,A,5211.721412,N,00008.719709,E,0.0,0.0,060226,,,A,V*29
$GPRMC,232839.00,A,5211.721413,N,00008.719709,E,0.0,0.0,060226,,,A,V*29
$GPRMC,232840.00,A,5211.721414,N,00008.719708,E,0.0,0.0,060226,,,A,V*21
$GPRMC,232841.00,A,5211.721413,N,00008.719709,E,0.0,0.0,060226,,,A,V*26
$GPRMC,232842.00,A,5211.721411,N,00008.719707,E,0.0,0.0,060226,,,A,V*29
$GPRMC,232843.00,A,5211.721412,N,00008.719709,E,0.0,0.0,060226,,,A,V*25
$GPRMC,232844.00,A,5211.721411,N,00008.719707,E,0.0,0.0,060226,,,A,V*2F
$GPRMC,232845.00,A,5211.721408,N,00008.719707,E,0.0,0.0,060226,,,A,V*26
$GPRMC,232846.00,A,5211.721406,N,00008.719701,E,0.0,0.0,060226,,,A,V*2D
$GPRMC,232847.00,A,5211.721405,N,00008.719699,E,0.0,0.0,060226,,,A,V*2F
$GPRMC,232848.00,A,5211.721401,N,00008.719695,E,0.0,0.0,060226,,,A,V*28
$GPRMC,232849.00,A,5211.721400,N,00008.719695,E,0.0,0.0,060226,,,A,V*28
$GPRMC,232850.00,A,5211.721397,N,00008.719693,E,0.0,0.0,060226,,,A,V*2F
$GPRMC,232851.00,A,5211.721393,N,00008.719687,E,0.0,0.0,060226,,,A,V*2F
$GPRMC,232852.00,A,5211.721395,N,00008.719687,E,0.0,0.0,060226,,,A,V*2A
$GPRMC,232853.00,A,5211.721395,N,00008.719689,E,0.0,0.0,060226,,,A,V*25
$GPRMC,232854.00,A,5211.721395,N,00008.719687,E,0.0,0.0,060226,,,A,V*2C
$GPRMC,232855.00,A,5211.721394,N,00008.719686,E,0.0,0.0,060226,,,A,V*2D
$GPRMC,232856.00,A,5211.721394,N,00008.719684,E,0.0,0.0,060226,,,A,V*2C
$GPRMC,232857.00,A,5211.721394,N,00008.719685,E,0.0,0.0,060226,,,A,V*2C
$GPRMC,232858.00,A,5211.721394,N,00008.719685,E,0.0,0.0,060226,,,A,V*23
$GPRMC,232859.00,A,5211.721394,N,00008.719686,E,0.0,0.0,060226,,,A,V*21
$GPRMC,232900.00,A,5211.721394,N,00008.719687,E,0.0,0.0,060226,,,A,V*2D
$GPRMC,232901.00,A,5211.721393,N,00008.719688,E,0.0,0.0,060226,,,A,V*24
$GPRMC,232902.00,A,5211.721392,N,00008.719690,E,0.0,0.0,060226,,,A,V*2F
$GPRMC,232903.00,A,5211.721393,N,00008.719690,E,0.0,0.0,060226,,,A,V*2F
$GPRMC,232904.00,A,5211.721396,N,00008.719698,E,0.0,0.0,060226,,,A,V*25
$GPRMC,232905.00,A,5211.721396,N,00008.719698,E,0.0,0.0,060226,,,A,V*24
$GPRMC,232906.00,A,5211.721397,N,00008.719701,E,0.0,0.0,060226,,,A,V*27
$GPRMC,232907.00,A,5211.721397,N,00008.719701,E,0.0,0.0,060226,,,A,V*26
$GPRMC,232908.00,A,5211.721397,N,00008.719701,E,0.0,0.0,060226,,,A,V*29
$GPRMC,232909.00,A,5211.721397,N,00008.719701,E,0.0,0.0,060226,,,A,V*28
$GPRMC,232910.00,A,5211.721396,N,00008.719700,E,0.0,0.0,060226,,,A,V*20
$GPRMC,232911.00,A,5211.721388,N,00008.719692,E,0.0,0.0,060226,,,A,V*24
$GPRMC,232912.00,A,5211.721388,N,00008.719692,E,0.0,0.0,060226,,,A,V*27
$GPRMC,232913.00,A,5211.721385,N,00008.719689,E,0.0,0.0,060226,,,A,V*21
$GPRMC,232914.00,A,5211.721386,N,00008.719690,E,0.0,0.0,060226,,,A,V*2D
$GPRMC,232915.00,A,5211.721386,N,00008.719690,E,0.0,0.0,060226,,,A,V*2C
$GPRMC,232916.00,A,5211.721386,N,00008.719688,E,0.0,0.0,060226,,,A,V*26
$GPRMC,232917.00,A,5211.721386,N,00008.719687,E,0.0,0.0,060226,,,A,V*28
$GPRMC,232918.00,A,5211.721372,N,00008.719674,E,0.0,0.0,060226,,,A,V*20
$GPRMC,232919.00,A,5211.721372,N,00008.719675,E,0.0,0.0,060226,,,A,V*20
$GPRMC,232920.00,A,5211.721371,N,00008.719674,E,0.0,0.0,060226,,,A,V*28
$GPRMC,232921.00,A,5211.721373,N,00008.719674,E,0.0,0.0,060226,,,A,V*2B
$GPRMC,232922.00,A,5211.721373,N,00008.719675,E,0.0,0.0,060226,,,A,V*29
$GPRMC,232923.00,A,5211.721371,N,00008.719673,E,0.0,0.0,060226,,,A,V*2C
$GPRMC,232924.00,A,5211.721370,N,00008.719676,E,0.0,0.0,060226,,,A,V*2F
$GPRMC,232925.00,A,5211.721371,N,00008.719675,E,0.0,0.0,060226,,,A,V*2C
$GPRMC,232926.00,A,5211.721373,N,00008.719677,E,0.0,0.0,060226,,,A,V*2F
$GPRMC,232927.00,A,5211.721373,N,00008.719678,E,0.0,0.0,060226,,,A,V*21
$GPRMC,232928.00,A,5211.721370,N,00008.719675,E,0.0,0.0,060226,,,A,V*20
$GPRMC,232929.00,A,5211.721370,N,00008.719675,E,0.0,0.0,060226,,,A,V*21
$GPRMC,232930.00,A,5211.721369,N,00008.719672,E,0.0,0.0,060226,,,A,V*26
$GPRMC,232931.00,A,5211.721369,N,00008.719672,E,0.0,0.0,060226,,,A,V*27
$GPRMC,232932.00,A,5211.721369,N,00008.719672,E,0.0,0.0,060226,,,A,V*24
$GPRMC,232933.00,A,5211.721368,N,00008.719669,E,0.0,0.0,060226,,,A,V*2E
$GPRMC,232934.00,A,5211.721367,N,00008.719670,E,0.0,0.0,060226,,,A,V*2E
$GPRMC,232935.00,A,5211.721367,N,00008.719670,E,0.0,0.0,060226,,,A,V*2F
$GPRMC,232936.00,A,5211.721363,N,00008.719665,E,0.0,0.0,060226,,,A,V*2C
$GPRMC,232937.00,A,5211.721363,N,00008.719663,E,0.0,0.0,060226,,,A,V*2B
$GPRMC,232938.00,A,5211.721362,N,00008.719666,E,0.0,0.0,060226,,,A,V*20
$GPRMC,232939.00,A,5211.721358,N,00008.719663,E,0.0,0.0,060226,,,A,V*2D
$GPRMC,232940.00,A,5211.721356,N,00008.719665,E,0.0,0.0,060226,,,A,V*2B
$GPRMC,232941.00,A,5211.721357,N,00008.719665,E,0.0,0.0,060226,,,A,V*2B
$GPRMC,232942.00,A,5211.721357,N,00008.719666,E,0.0,0.0,060226,,,A,V*2B
$GPRMC,232943.00,A,5211.721354,N,00008.719662,E,0.0,0.0,060226,,,A,V*2D
$GPRMC,232944.00,A,5211.721353,N,00008.719662,E,0.0,0.0,060226,,,A,V*2D
$GPRMC,232945.00,A,5211.721352,N,00008.719662,E,0.0,0.0,060226,,,A,V*2D
$GPRMC,232946.00,A,5211.721350,N,00008.719662,E,0.0,0.0,060226,,,A,V*2C
$GPRMC,232947.00,A,5211.721349,N,00008.719659,E,0.0,0.0,060226,,,A,V*2D
$GPRMC,232948.00,A,5211.721350,N,00008.719660,E,0.0,0.0,060226,,,A,V*20
$GPRMC,232949.00,A,5211.721350,N,00008.719659,E,0.0,0.0,060226,,,A,V*2B
$GPRMC,232950.00,A,5211.721349,N,00008.719659,E,0.0,0.0,060226,,,A,V*2B
$GPRMC,232951.00,A,5211.721349,N,00008.719660,E,0.0,0.0,060226,,,A,V*20
$GPRMC,232952.00,A,5211.721348,N,00008.719660,E,0.0,0.0,060226,,,A,V*22
$GPRMC,232953.00,A,5211.721349,N,00008.719660,E,0.0,0.0,060226,,,A,V*22
$GPRMC,232954.00,A,5211.721348,N,00008.719659,E,0.0,0.0,060226,,,A,V*2E
$GPRMC,232955.00,A,5211.721348,N,00008.719659,E,0.0,0.0,060226,,,A,V*2F
$GPRMC,232956.00,A,5211.721346,N,00008.719660,E,0.0,0.0,060226,,,A,V*28
$GPRMC,232957.00,A,5211.721346,N,00008.719661,E,0.0,0.0,060226,,,A,V*28
$GPRMC,232958.00,A,5211.721346,N,00008.719661,E,0.0,0.0,060226,,,A,V*27
$GPRMC,232959.00,A,5211.721346,N,00008.719660,E,0.0,0.0,060226,,,A,V*27
$GPRMC,233000.00,A,5211.721346,N,00008.719660,E,0.0,0.0,060226,,,A,V*23
$GPRMC,233001.00,A,5211.721346,N,00008.719659,E,0.0,0.0,060226,,,A,V*28
$GPRMC,233002.00,A,5211.721345,N,00008.719659,E,0.0,0.0,060226,,,A,V*28
$GPRMC,233003.00,A,5211.721346,N,00008.719659,E,0.0,0.0,060226,,,A,V*2A
$GPRMC,233004.00,A,5211.721346,N,00008.719661,E,0.0,0.0,060226,,,A,V*26
$GPRMC,233005.00,A,5211.721347,N,00008.719661,E,0.0,0.0,060226,,,A,V*26
$GPRMC,233006.00,A,5211.721347,N,00008.719660,E,0.0,0.0,060226,,,A,V*24
$GPRMC,233007.00,A,5211.721346,N,00008.719661,E,0.0,0.0,060226,,,A,V*25
$GPRMC,233008.00,A,5211.721347,N,00008.719660,E,0.0,0.0,060226,,,A,V*2A
$GPRMC,233009.00,A,5211.721346,N,00008.719661,E,0.0,0.0,060226,,,A,V*2B
$GPRMC,233010.00,A,5211.721346,N,00008.719660,E,0.0,0.0,060226,,,A,V*22
$GPRMC,233011.00,A,5211.721345,N,00008.719659,E,0.0,0.0,060226,,,A,V*2A
$GPRMC,233012.00,A,5211.721344,N,00008.719659,E,0.0,0.0,060226,,,A,V*28
$GPRMC,233013.00,A,5211.721344,N,00008.719658,E,0.0,0.0,060226,,,A,V*28
$GPRMC,233014.00,A,5211.721343,N,00008.719657,E,0.0,0.0,060226,,,A,V*27
$GPRMC,233015.00,A,5211.721342,N,00008.719658,E,0.0,0.0,060226,,,A,V*28
$GPRMC,233016.00,A,5211.721342,N,00008.719657,E,0.0,0.0,060226,,,A,V*24
$GPRMC,233017.00,A,5211.721342,N,00008.719657,E,0.0,0.0,060226,,,A,V*25
$GPRMC,233018.00,A,5211.721343,N,00008.719656,E,0.0,0.0,060226,,,A,V*2A
$GPRMC,233019.00,A,5211.721343,N,00008.719654,E,0.0,0.0,060226,,,A,V*29
$GPRMC,233020.00,A,5211.721343,N,00008.719654,E,0.0,0.0,060226,,,A,V*23
$GPRMC,233021.00,A,5211.721342,N,00008.719654,E,0.0,0.0,060226,,,A,V*23
$GPRMC,233022.00,A,5211.721340,N,00008.719654,E,0.0,0.0,060226,,,A,V*22
$GPRMC,233023.00,A,5211.721342,N,00008.719656,E,0.0,0.0,060226,,,A,V*23
$GPRMC,233024.00,A,5211.721340,N,00008.719655,E,0.0,0.0,060226,,,A,V*25
$GPRMC,233025.00,A,5211.721340,N,00008.719654,E,0.0,0.0,060226,,,A,V*25
$GPRMC,233026.00,A,5211.721340,N,00008.719656,E,0.0,0.0,060226,,,A,V*24
$GPRMC,233027.00,A,5211.721339,N,00008.719655,E,0.0,0.0,060226,,,A,V*28
$GPRMC,233028.00,A,5211.721339,N,00008.719655,E,0.0,0.0,060226,,,A,V*27
$GPRMC,233029.00,A,5211.721339,N,00008.719656,E,0.0,0.0,060226,,,A,V*25
$GPRMC,233030.00,A,5211.721337,N,00008.719653,E,0.0,0.0,060226,,,A,V*26
$GPRMC,233031.00,A,5211.721335,N,00008.719653,E,0.0,0.0,060226,,,A,V*25
$GPRMC,233032.00,A,5211.721334,N,00008.719652,E,0.0,0.0,060226,,,A,V*26
$GPRMC,233033.00,A,5211.721334,N,00008.719653,E,0.0,0.0,060226,,,A,V*26
$GPRMC,233034.00,A,5211.721332,N,00008.719652,E,0.0,0.0,060226,,,A,V*26
$GPRMC,233035.00,A,5211.721332,N,00008.719651,E,0.0,0.0,060226,,,A,V*24
$GPRMC,233036.00,A,5211.721333,N,00008.719649,E,0.0,0.0,060226,,,A,V*2F
$GPRMC,233037.00,A,5211.721333,N,00008.719650,E,0.0,0.0,060226,,,A,V*26
$GPRMC,233038.00,A,5211.721333,N,00008.719649,E,0.0,0.0,060226,,,A,V*21
$GPRMC,233039.00,A,5211.721333,N,00008.719648,E,0.0,0.0,060226,,,A,V*21
$GPRMC,233040.00,A,5211.721333,N,00008.719647,E,0.0,0.0,060226,,,A,V*20
$GPRMC,233041.00,A,5211.721331,N,00008.719647,E,0.0,0.0,060226,,,A,V*23
$GPRMC,233042.00,A,5211.721331,N,00008.719647,E,0.0,0.0,060226,,,A,V*20
$GPRMC,233043.00,A,5211.721331,N,00008.719646,E,0.0,0.0,060226,,,A,V*20
$GPRMC,233044.00,A,5211.721329,N,00008.719645,E,0.0,0.0,060226,,,A,V*2D
$GPRMC,233045.00,A,5211.721328,N,00008.719643,E,0.0,0.0,060226,,,A,V*2B
$GPRMC,233046.00,A,5211.721327,N,00008.719643,E,0.0,0.0,060226,,,A,V*27
$GPRMC,233047.00,A,5211.721327,N,00008.719641,E,0.0,0.0,060226,,,A,V*24
$GPRMC,233048.00,A,5211.721327,N,00008.719640,E,0.0,0.0,060226,,,A,V*2A
$GPRMC,233049.00,A,5211.721321,N,00008.719633,E,0.0,0.0,060226,,,A,V*29
$GPRMC,233050.00,A,5211.721320,N,00008.719635,E,0.0,0.0,060226,,,A,V*26
$GPRMC,233051.00,A,5211.721397,N,00008.719726,E,0.0,0.0,060226,,,A,V*28
$GPRMC,233052.00,A,5211.721395,N,00008.719723,E,0.0,0.0,060226,,,A,V*2C
$GPRMC,233053.00,A,5211.721397,N,00008.719725,E,0.0,0.0,060226,,,A,V*29
$GPRMC,233054.00,A,5211.721395,N,00008.719723,E,0.0,0.0,060226,,,A,V*2A
$GPRMC,233055.00,A,5211.721394,N,00008.719726,E,0.0,0.0,060226,,,A,V*2F
$GPRMC,233056.00,A,5211.721394,N,00008.719723,E,0.0,0.0,060226,,,A,V*29
$GPRMC,233057.00,A,5211.721389,N,00008.719718,E,0.0,0.0,060226,,,A,V*2C
$GPRMC,233058.00,A,5211.721390,N,00008.719720,E,0.0,0.0,060226,,,A,V*20
$GPRMC,233059.00,A,5211.721391,N,00008.719720,E,0.0,0.0,060226,,,A,V*20
$GPRMC,233100.00,A,5211.721392,N,00008.719721,E,0.0,0.0,060226,,,A,V*2F
$GPRMC,233101.00,A,5211.721394,N,00008.719722,E,0.0,0.0,060226,,,A,V*2B
$GPRMC,233102.00,A,5211.721395,N,00008.719722,E,0.0,0.0,060226,,,A,V*29
$GPRMC,233103.00,A,5211.721395,N,00008.719724,E,0.0,0.0,060226,,,A,V*2E
$GPRMC,233104.00,A,5211.721422,N,00008.719757,E,0.0,0.0,060226,,,A,V*26
$GPRMC,233105.00,A,5211.721423,N,00008.719757,E,0.0,0.0,060226,,,A,V*26
$GPRMC,233106.00,A,5211.721424,N,00008.719756,E,0.0,0.0,060226,,,A,V*23
$GPRMC,233107.00,A,5211.721424,N,00008.719757,E,0.0,0.0,060226,,,A,V*23
$GPRMC,233108.00,A,5211.721493,N,00008.719838,E,0.0,0.0,060226,,,A,V*26
$GPRMC,233109.00,A,5211.721493,N,00008.719838,E,0.0,0.0,060226,,,A,V*27
$GPRMC,233110.00,A,5211.721494,N,00008.719837,E,0.0,0.0,060226,,,A,V*27
$GPRMC,233111.00,A,5211.721494,N,00008.719837,E,0.0,0.0,060226,,,A,V*26
$GPRMC,233112.00,A,5211.721494,N,00008.719839,E,0.0,0.0,060226,,,A,V*2B
$GPRMC,233113.00,A,5211.721494,N,00008.719842,E,0.0,0.0,060226,,,A,V*26
$GPRMC,233114.00,A,5211.721494,N,00008.719841,E,0.0,0.0,060226,,,A,V*22
$GPRMC,233115.00,A,5211.721495,N,00008.719840,E,0.0,0.0,060226,,,A,V*23
$GPRMC,233116.00,A,5211.721495,N,00008.719837,E,0.0,0.0,060226,,,A,V*20
$GPRMC,233117.00,A,5211.721526,N,00008.719871,E,0.0,0.0,060226,,,A,V*2A
$GPRMC,233118.00,A,5211.721524,N,00008.719869,E,0.0,0.0,060226,,,A,V*2E
$GPRMC,233119.00,A,5211.721524,N,00008.719867,E,0.0,0.0,060226,,,A,V*21
$GPRMC,233120.00,A,5211.721523,N,00008.719869,E,0.0,0.0,060226,,,A,V*22
$GPRMC,233121.00,A,5211.721525,N,00008.719867,E,0.0,0.0,060226,,,A,V*2B
$GPRMC,233122.00,A,5211.721525,N,00008.719861,E,0.0,0.0,060226,,,A,V*2E
$GPRMC,233123.00,A,5211.721549,N,00008.719888,E,0.0,0.0,060226,,,A,V*22
$GPRMC,233124.00,A,5211.721550,N,00008.719888,E,0.0,0.0,060226,,,A,V*2D
$GPRMC,233125.00,A,5211.721550,N,00008.719888,E,0.0,0.0,060226,,,A,V*2C
$GPRMC,233126.00,A,5211.721549,N,00008.719887,E,0.0,0.0,060226,,,A,V*28
$GPRMC,233127.00,A,5211.721549,N,00008.719885,E,0.0,0.0,060226,,,A,V*2B
$GPRMC,233128.00,A,5211.721548,N,00008.719883,E,0.0,0.0,060226,,,A,V*23
$GPRMC,233129.00,A,5211.721546,N,00008.719882,E,0.0,0.0,060226,,,A,V*2D
$GPRMC,233130.00,A,5211.721546,N,00008.719883,E,0.0,0.0,060226,,,A,V*24
$GPRMC,233131.00,A,5211.721543,N,00008.719881,E,0.0,0.0,060226,,,A,V*22
$GPRMC,233132.00,A,5211.721543,N,00008.719880,E,0.0,0.0,060226,,,A,V*20
$GPRMC,233133.00,A,5211.721542,N,00008.719879,E,0.0,0.0,060226,,,A,V*26
$GPRMC,233134.00,A,5211.721542,N,00008.719878,E,0.0,0.0,060226,,,A,V*20
$GPRMC,233135.00,A,5211.721540,N,00008.719874,E,0.0,0.0,060226,,,A,V*2F
$GPRMC,233136.00,A,5211.721539,N,00008.719874,E,0.0,0.0,060226,,,A,V*22
$GPRMC,233137.00,A,5211.721540,N,00008.719873,E,0.0,0.0,060226,,,A,V*2A
$GPRMC,233138.00,A,5211.721540,N,00008.719871,E,0.0,0.0,060226,,,A,V*27
$GPRMC,233139.00,A,5211.721541,N,00008.719869,E,0.0,0.0,060226,,,A,V*2E
$GPRMC,233140.00,A,5211.721542,N,00008.719868,E,0.0,0.0,060226,,,A,V*22
$GPRMC,233141.00,A,5211.721542,N,00008.719866,E,0.0,0.0,060226,,,A,V*2D
$GPRMC,233142.00,A,5211.721542,N,00008.719865,E,0.0,0.0,060226,,,A,V*2D
$GPRMC,233143.00,A,5211.721541,N,00008.719866,E,0.0,0.0,060226,,,A,V*2C
$GPRMC,233144.00,A,5211.721542,N,00008.719866,E,0.0,0.0,060226,,,A,V*28
$GPRMC,233145.00,A,5211.721542,N,00008.719867,E,0.0,0.0,060226,,,A,V*28
$GPRMC,233146.00,A,5211.721544,N,00008.719869,E,0.0,0.0,060226,,,A,V*23
$GPRMC,233147.00,A,5211.721542,N,00008.719868,E,0.0,0.0,060226,,,A,V*25
$GPRMC,233148.00,A,5211.721540,N,00008.719868,E,0.0,0.0,060226,,,A,V*28
$GPRMC,233149.00,A,5211.721540,N,00008.719867,E,0.0,0.0,060226,,,A,V*26
$GPRMC,233150.00,A,5211.721538,N,00008.719867,E,0.0,0.0,060226,,,A,V*21
$GPRMC,233151.00,A,5211.721533,N,00008.719863,E,0.0,0.0,060226,,,A,V*2F
$GPRMC,233152.00,A,5211.721534,N,00008.719863,E,0.0,0.0,060226,,,A,V*2B
$GPRMC,233153.00,A,5211.721533,N,00008.719863,E,0.0,0.0,060226,,,A,V*2D
$GPRMC,233154.00,A,5211.721533,N,00008.719863,E,0.0,0.0,060226,,,A,V*2A
$GPRMC,233155.00,A,5211.721532,N,00008.719863,E,0.0,0.0,060226,,,A,V*2A
$GPRMC,233156.00,A,5211.721533,N,00008.719863,E,0.0,0.0,060226,,,A,V*28
$GPRMC,233157.00,A,5211.721533,N,00008.719862,E,0.0,0.0,060226,,,A,V*28
$GPRMC,233158.00,A,5211.721533,N,00008.719862,E,0.0,0.0,060226,,,A,V*27
$GPRMC,233159.00,A,5211.721467,N,00008.719812,E,0.0,0.0,060226,,,A,V*21
$GPRMC,233200.00,A,5211.721467,N,00008.719813,E,0.0,0.0,060226,,,A,V*2F
$GPRMC,233201.00,A,5211.721469,N,00008.719810,E,0.0,0.0,060226,,,A,V*23
$GPRMC,233202.00,A,5211.721469,N,00008.719809,E,0.0,0.0,060226,,,A,V*28
$GPRMC,233203.00,A,5211.721468,N,00008.719810,E,0.0,0.0,060226,,,A,V*20
$GPRMC,233204.00,A,5211.721469,N,00008.719807,E,0.0,0.0,060226,,,A,V*20
$GPRMC,233205.00,A,5211.721469,N,00008.719807,E,0.0,0.0,060226,,,A,V*21
$GPRMC,233206.00,A,5211.721469,N,00008.719810,E,0.0,0.0,060226,,,A,V*24
$GPRMC,233207.00,A,5211.721460,N,00008.719802,E,0.0,0.0,060226,,,A,V*2F
$GPRMC,233208.00,A,5211.721459,N,00008.719802,E,0.0,0.0,060226,,,A,V*2A
$GPRMC,233209.00,A,5211.721460,N,00008.719803,E,0.0,0.0,060226,,,A,V*20
$GPRMC,233210.00,A,5211.721459,N,00008.719803,E,0.0,0.0,060226,,,A,V*22
$GPRMC,233211.00,A,5211.721460,N,00008.719803,E,0.0,0.0,060226,,,A,V*29
$GPRMC,233212.00,A,5211.721458,N,00008.719804,E,0.0,0.0,060226,,,A,V*26
$GPRMC,233213.00,A,5211.721458,N,00008.719804,E,0.0,0.0,060226,,,A,V*27
$GPRMC,233214.00,A,5211.721457,N,00008.719805,E,0.0,0.0,060226,,,A,V*2E
$GPRMC,233215.00,A,5211.721456,N,00008.719805,E,0.0,0.0,060226,,,A,V*2E
$GPRMC,233216.00,A,5211.721465,N,00008.719809,E,0.0,0.0,060226,,,A,V*21
$GPRMC,233217.00,A,5211.721464,N,00008.719808,E,0.0,0.0,060226,,,A,V*20
$GPRMC,233218.00,A,5211.721464,N,00008.719807,E,0.0,0.0,060226,,,A,V*20
$GPRMC,233219.00,A,5211.721463,N,00008.719807,E,0.0,0.0,060226,,,A,V*26
$GPRMC,233220.00,A,5211.721462,N,00008.719807,E,0.0,0.0,060226,,,A,V*2D
$GPRMC,233221.00,A,5211.721462,N,00008.719807,E,0.0,0.0,060226,,,A,V*2C
$GPRMC,233222.00,A,5211.721462,N,00008.719806,E,0.0,0.0,060226,,,A,V*2E
$GPRMC,233223.00,A,5211.721480,N,00008.719824,E,0.0,0.0,060226,,,A,V*23
$GPRMC,233224.00,A,5211.721481,N,00008.719824,E,0.0,0.0,060226,,,A,V*25
$GPRMC,233225.00,A,5211.721479,N,00008.719824,E,0.0,0.0,060226,,,A,V*23
$GPRMC,233226.00,A,5211.721478,N,00008.719825,E,0.0,0.0,060226,,,A,V*20
$GPRMC,233227.00,A,5211.721478,N,00008.719825,E,0.0,0.0,060226,,,A,V*21
$GPRMC,233228.00,A,5211.721477,N,00008.719825,E,0.0,0.0,060226,,,A,V*21
$GPRMC,233229.00,A,5211.721479,N,00008.719826,E,0.0,0.0,060226,,,A,V*2D
$GPRMC,233230.00,A,5211.721479,N,00008.719827,E,0.0,0.0,060226,,,A,V*24
$GPRMC,233231.00,A,5211.721480,N,00008.719828,E,0.0,0.0,060226,,,A,V*2C
$GPRMC,233232.00,A,5211.721515,N,00008.719856,E,0.0,0.0,060226,,,A,V*2B
$GPRMC,233233.00,A,5211.721517,N,00008.719858,E,0.0,0.0,060226,,,A,V*26
$GPRMC,233234.00,A,5211.721518,N,00008.719858,E,0.0,0.0,060226,,,A,V*2E
$GPRMC,233235.00,A,5211.721517,N,00008.719859,E,0.0,0.0,060226,,,A,V*21
$GPRMC,233236.00,A,5211.721517,N,00008.719859,E,0.0,0.0,060226,,,A,V*22
$GPRMC,233237.00,A,5211.721516,N,00008.719861,E,0.0,0.0,060226,,,A,V*29
$GPRMC,233238.00,A,5211.721517,N,00008.719862,E,0.0,0.0,060226,,,A,V*24
$GPRMC,233239.00,A,5211.721520,N,00008.719864,E,0.0,0.0,060226,,,A,V*27
$GPRMC,233240.00,A,5211.721521,N,00008.719864,E,0.0,0.0,060226,,,A,V*28
$GPRMC,233241.00,A,5211.721521,N,00008.719865,E,0.0,0.0,060226,,,A,V*28
$GPRMC,233242.00,A,5211.721521,N,00008.719864,E,0.0,0.0,060226,,,A,V*2A
$GPRMC,233243.00,A,5211.721521,N,00008.719864,E,0.0,0.0,060226,,,A,V*2B
$GPRMC,233244.00,A,5211.721520,N,00008.719864,E,0.0,0.0,060226,,,A,V*2D
$GPRMC,233245.00,A,5211.721521,N,00008.719865,E,0.0,0.0,060226,,,A,V*2C
$GPRMC,233246.00,A,5211.721521,N,00008.719866,E,0.0,0.0,060226,,,A,V*2C
$GPRMC,233247.00,A,5211.721535,N,00008.719879,E,0.0,0.0,060226,,,A,V*26
$GPRMC,233248.00,A,5211.721536,N,00008.719878,E,0.0,0.0,060226,,,A,V*2B
$GPRMC,233249.00,A,5211.721538,N,00008.719879,E,0.0,0.0,060226,,,A,V*25
$GPRMC,233250.00,A,5211.721539,N,00008.719880,E,0.0,0.0,060226,,,A,V*2A
$GPRMC,233251.00,A,5211.721541,N,00008.719879,E,0.0,0.0,060226,,,A,V*22
$GPRMC,233252.00,A,5211.721540,N,00008.719878,E,0.0,0.0,060226,,,A,V*21
$GPRMC,233253.00,A,5211.721540,N,00008.719877,E,0.0,0.0,060226,,,A,V*2F
$GPRMC,233254.00,A,5211.721540,N,00008.719879,E,0.0,0.0,060226,,,A,V*26
$GPRMC,233255.00,A,5211.721541,N,00008.719882,E,0.0,0.0,060226,,,A,V*22
$GPRMC,233256.00,A,5211.721542,N,00008.719883,E,0.0,0.0,060226,,,A,V*23
$GPRMC,233257.00,A,5211.721542,N,00008.719883,E,0.0,0.0,060226,,,A,V*22
$GPRMC,233258.00,A,5211.721543,N,00008.719882,E,0.0,0.0,060226,,,A,V*2D
$GPRMC,233259.00,A,5211.721544,N,00008.719883,E,0.0,0.0,060226,,,A,V*2A
$GPRMC,233300.00,A,5211.721545,N,00008.719884,E,0.0,0.0,060226,,,A,V*21
$GPRMC,233301.00,A,5211.721546,N,00008.719885,E,0.0,0.0,060226,,,A,V*22
$GPRMC,233302.00,A,5211.721551,N,00008.719885,E,0.0,0.0,060226,,,A,V*27
$GPRMC,233303.00,A,5211.721553,N,00008.719886,E,0.0,0.0,060226,,,A,V*27
$GPRMC,233304.00,A,5211.721550,N,00008.719885,E,0.0,0.0,060226,,,A,V*20
$GPRMC,233305.00,A,5211.721550,N,00008.719884,E,0.0,0.0,060226,,,A,V*20
$GPRMC,233306.00,A,5211.721549,N,00008.719882,E,0.0,0.0,060226,,,A,V*2D
$GPRMC,233307.00,A,5211.721549,N,00008.719883,E,0.0,0.0,060226,,,A,V*2D
$GPRMC,233308.00,A,5211.721549,N,00008.719884,E,0.0,0.0,060226,,,A,V*25
$GPRMC,233309.00,A,5211.721549,N,00008.719885,E,0.0,0.0,060226,,,A,V*25
$GPRMC,233310.00,A,5211.721549,N,00008.719885,E,0.0,0.0,060226,,,A,V*2D
$GPRMC,233311.00,A,5211.721551,N,00008.719885,E,0.0,0.0,060226,,,A,V*25
$GPRMC,233312.00,A,5211.721549,N,00008.719883,E,0.0,0.0,060226,,,A,V*29
$GPRMC,233313.00,A,5211.721548,N,00008.719884,E,0.0,0.0,060226,,,A,V*2E
$GPRMC,233314.00,A,5211.721547,N,00008.719883,E,0.0,0.0,060226,,,A,V*21
$GPRMC,233315.00,A,5211.721547,N,00008.719886,E,0.0,0.0,060226,,,A,V*25
$GPRMC,233316.00,A,5211.721546,N,00008.719886,E,0.0,0.0,060226,,,A,V*27
