$GPRMC,200911.00,A,3730.48508,N,02327.22553,E,0.196,,270424,,,A*73
$GPGGA,200911.00,3730.48508,N,02327.22553,E,1,08,1.03,47.2,M,32.4,M,,*68
$GPGLL,3730.48508,N,02327.22553,E,200911.00,A,A*63
$GPRMC,200912.00,A,3730.48517,N,02327.22551,E,0.067,,270424,,,A*73
$GPGGA,200912.00,3730.48517,N,02327.22551,E,1,08,1.03,47.2,M,32.4,M,,*67
$GPGLL,3730.48517,N,02327.22551,E,200912.00,A,A*6C
$GPRMC,200913.00,A,3730.48517,N,02327.22566,E,0.216,,270424,,,A*72
$GPGGA,200913.00,3730.48517,N,02327.22566,E,1,08,1.03,47.3,M,32.4,M,,*63
$GPGLL,3730.48517,N,02327.22566,E,200913.00,A,A*69
$GPRMC,200914.00,A,3730.48500,N,02327.22590,E,0.191,,270424,,,A*76
$GPGGA,200914.00,3730.48500,N,02327.22590,E,1,08,1.03,47.6,M,32.4,M,,*6E
$GPGLL,3730.48500,N,02327.22590,E,200914.00,A,A*61
$GPRMC,200915.00,A,3730.48493,N,02327.22597,E,0.100,,270424,,,A*73
$GPGGA,200915.00,3730.48493,N,02327.22597,E,1,08,1.03,47.7,M,32.4,M,,*62
$GPGLL,3730.48493,N,02327.22597,E,200915.00,A,A*6C
$GPRMC,200916.00,A,3730.48488,N,02327.22595,E,0.043,,270424,,,A*7E
$GPGGA,200916.00,3730.48488,N,02327.22595,E,1,08,1.03,47.8,M,32.4,M,,*66
$GPGLL,3730.48488,N,02327.22595,E,200916.00,A,A*67
$GPRMC,200917.00,A,3730.48470,N,02327.22610,E,0.064,,270424,,,A*73
$GPGGA,200917.00,3730.48470,N,02327.22610,E,1,08,1.03,47.9,M,32.4,M,,*6F
$GPGLL,3730.48470,N,02327.22610,E,200917.00,A,A*6F
$GPRMC,200918.00,A,3730.48449,N,02327.22632,E,0.034,,270424,,,A*73
$GPGGA,200918.00,3730.48449,N,02327.22632,E,1,08,1.03,48.1,M,32.4,M,,*6D
$GPGLL,3730.48449,N,02327.22632,E,200918.00,A,A*6A
$GPRMC,200919.00,A,3730.48450,N,02327.22634,E,0.048,,270424,,,A*77
$GPGGA,200919.00,3730.48450,N,02327.22634,E,1,08,1.03,48.1,M,32.4,M,,*62
$GPGLL,3730.48450,N,02327.22634,E,200919.00,A,A*65
$GPRMC,200920.00,A,3730.48454,N,02327.22637,E,0.139,,270424,,,A*7D
$GPGGA,200920.00,3730.48454,N,02327.22637,E,1,08,1.03,48.0,M,32.4,M,,*6E
$GPGLL,3730.48454,N,02327.22637,E,200920.00,A,A*68
$GPRMC,200921.00,A,3730.48457,N,02327.22624,E,0.182,,270424,,,A*7D
$GPGGA,200921.00,3730.48457,N,02327.22624,E,1,08,1.03,47.9,M,32.4,M,,*68
$GPGLL,3730.48457,N,02327.22624,E,200921.00,A,A*68
$GPRMC,200922.00,A,3730.48446,N,02327.22650,E,0.134,,270424,,,A*70
$GPGGA,200922.00,3730.48446,N,02327.22650,E,1,08,1.03,48.1,M,32.4,M,,*6F
$GPGLL,3730.48446,N,02327.22650,E,200922.00,A,A*68
$GPRMC,200923.00,A,3730.48445,N,02327.22637,E,0.274,,270424,,,A*74
$GPGGA,200923.00,3730.48445,N,02327.22637,E,1,08,1.03,48.2,M,32.4,M,,*6F
$GPGLL,3730.48445,N,02327.22637,E,200923.00,A,A*6B
$GPRMC,200924.00,A,3730.48442,N,02327.22654,E,0.030,,270424,,,A*73
$GPGGA,200924.00,3730.48442,N,02327.22654,E,1,08,1.03,48.2,M,32.4,M,,*6A
$GPGLL,3730.48442,N,02327.22654,E,200924.00,A,A*6E
$GPRMC,200925.00,A,3730.48427,N,02327.22683,E,0.262,,270424,,,A*7E
$GPGGA,200925.00,3730.48427,N,02327.22683,E,1,08,1.03,48.2,M,32.4,M,,*62
$GPGLL,3730.48427,N,02327.22683,E,200925.00,A,A*66
$GPRMC,200926.00,A,3730.48414,N,02327.22701,E,0.397,,270424,,,A*7D
$GPGGA,200926.00,3730.48414,N,02327.22701,E,1,08,1.03,48.2,M,32.4,M,,*6A
$GPGLL,3730.48414,N,02327.22701,E,200926.00,A,A*6E
$GPRMC,200927.00,A,3730.48396,N,02327.22716,E,0.388,,270424,,,A*79
$GPGGA,200927.00,3730.48396,N,02327.22716,E,1,08,1.03,48.2,M,32.4,M,,*60
$GPGLL,3730.48396,N,02327.22716,E,200927.00,A,A*64
$GPRMC,200928.00,A,3730.48384,N,02327.22730,E,0.345,,270424,,,A*70
$GPGGA,200928.00,3730.48384,N,02327.22730,E,1,08,1.03,48.3,M,32.4,M,,*69
$GPGLL,3730.48384,N,02327.22730,E,200928.00,A,A*6C
$GPRMC,200929.00,A,3730.48370,N,02327.22724,E,0.271,,270424,,,A*79
$GPGGA,200929.00,3730.48370,N,02327.22724,E,1,08,1.03,48.3,M,32.4,M,,*66
$GPGLL,3730.48370,N,02327.22724,E,200929.00,A,A*63
$GPRMC,200930.00,A,3730.48355,N,02327.22744,E,0.365,,270424,,,A*74
$GPGGA,200930.00,3730.48355,N,02327.22744,E,1,08,1.03,48.3,M,32.4,M,,*6F
$GPGLL,3730.48355,N,02327.22744,E,200930.00,A,A*6A
$GPRMC,200931.00,A,3730.48357,N,02327.22756,E,0.355,,270424,,,A*77
$GPGGA,200931.00,3730.48357,N,02327.22756,E,1,08,1.03,47.9,M,32.4,M,,*6A
$GPGLL,3730.48357,N,02327.22756,E,200931.00,A,A*6A
$GPRMC,200932.00,A,3730.48348,N,02327.22789,E,0.598,,270424,,,A*7F
$GPGGA,200932.00,3730.48348,N,02327.22789,E,1,08,1.03,47.8,M,32.4,M,,*64
$GPGLL,3730.48348,N,02327.22789,E,200932.00,A,A*65
$GPRMC,200933.00,A,3730.48355,N,02327.22782,E,0.392,,270424,,,A*75
$GPGGA,200933.00,3730.48355,N,02327.22782,E,1,08,1.03,47.4,M,32.4,M,,*6E
$GPGLL,3730.48355,N,02327.22782,E,200933.00,A,A*63
$GPRMC,200934.00,A,3730.48349,N,02327.22781,E,0.193,,270424,,,A*7F
$GPGGA,200934.00,3730.48349,N,02327.22781,E,1,08,1.43,47.0,M,32.4,M,,*67
$GPGLL,3730.48349,N,02327.22781,E,200934.00,A,A*6A
$GPRMC,200935.00,A,3730.48336,N,02327.22792,E,0.050,,270424,,,A*7A
$GPGGA,200935.00,3730.48336,N,02327.22792,E,1,08,1.43,47.2,M,32.4,M,,*6E
$GPGLL,3730.48336,N,02327.22792,E,200935.00,A,A*61
$GPRMC,200936.00,A,3730.48329,N,02327.22799,E,0.179,,270424,,,A*76
$GPGGA,200936.00,3730.48329,N,02327.22799,E,1,08,1.43,46.8,M,32.4,M,,*63
$GPGLL,3730.48329,N,02327.22799,E,200936.00,A,A*67
$GPRMC,200937.00,A,3730.48327,N,02327.22797,E,0.193,,270424,,,A*73
$GPGGA,200937.00,3730.48327,N,02327.22797,E,1,08,1.43,46.5,M,32.4,M,,*6F
$GPGLL,3730.48327,N,02327.22797,E,200937.00,A,A*66
$GPRMC,200938.00,A,3730.48334,N,02327.22770,E,0.139,,270424,,,A*77
$GPGGA,200938.00,3730.48334,N,02327.22770,E,1,08,1.43,46.3,M,32.4,M,,*6D
$GPGLL,3730.48334,N,02327.22770,E,200938.00,A,A*62
$GPRMC,200939.00,A,3730.48344,N,02327.22735,E,0.353,,270424,,,A*7E
$GPGGA,200939.00,3730.48344,N,02327.22735,E,1,08,1.43,46.1,M,32.4,M,,*68
$GPGLL,3730.48344,N,02327.22735,E,200939.00,A,A*65
$GPRMC,200940.00,A,3730.48363,N,02327.22694,E,0.459,,270424,,,A*72
$GPGGA,200940.00,3730.48363,N,02327.22694,E,1,08,1.03,45.6,M,32.4,M,,*69
$GPGLL,3730.48363,N,02327.22694,E,200940.00,A,A*64
$GPRMC,200941.00,A,3730.48371,N,02327.22672,E,0.297,,270424,,,A*7C
$GPGGA,200941.00,3730.48371,N,02327.22672,E,1,08,1.03,45.3,M,32.4,M,,*66
$GPGLL,3730.48371,N,02327.22672,E,200941.00,A,A*6E
$GPRMC,200942.00,A,3730.48377,N,02327.22662,E,0.107,,270424,,,A*72
$GPGGA,200942.00,3730.48377,N,02327.22662,E,1,08,1.03,44.8,M,32.4,M,,*68
$GPGLL,3730.48377,N,02327.22662,E,200942.00,A,A*6A
$GPRMC,200943.00,A,3730.48374,N,02327.22658,E,0.210,,270424,,,A*7C
$GPGGA,200943.00,3730.48374,N,02327.22658,E,1,08,1.03,44.6,M,32.4,M,,*6D
$GPGLL,3730.48374,N,02327.22658,E,200943.00,A,A*61
$GPRMC,200944.00,A,3730.48372,N,02327.22661,E,0.107,,270424,,,A*72
$GPGGA,200944.00,3730.48372,N,02327.22661,E,1,08,1.03,44.4,M,32.4,M,,*64
$GPGLL,3730.48372,N,02327.22661,E,200944.00,A,A*6A
$GPRMC,200945.00,A,3730.48369,N,02327.22666,E,0.154,,270424,,,A*78
$GPGGA,200945.00,3730.48369,N,02327.22666,E,1,08,1.03,44.0,M,32.4,M,,*6C
$GPGLL,3730.48369,N,02327.22666,E,200945.00,A,A*66
$GPRMC,200946.00,A,3730.48366,N,02327.22667,E,0.125,,270424,,,A*73
$GPGGA,200946.00,3730.48366,N,02327.22667,E,1,08,1.03,43.9,M,32.4,M,,*6F
$GPGLL,3730.48366,N,02327.22667,E,200946.00,A,A*6B
$GPRMC,200947.00,A,3730.48370,N,02327.22659,E,0.064,,270424,,,A*7C
$GPGGA,200947.00,3730.48370,N,02327.22659,E,1,08,1.03,43.8,M,32.4,M,,*65
$GPGLL,3730.48370,N,02327.22659,E,200947.00,A,A*60
$GPRMC,200948.00,A,3730.48367,N,02327.22658,E,0.099,,270424,,,A*76
$GPGGA,200948.00,3730.48367,N,02327.22658,E,1,08,1.03,43.6,M,32.4,M,,*63
$GPGLL,3730.48367,N,02327.22658,E,200948.00,A,A*68
$GPRMC,200949.00,A,3730.48378,N,02327.22643,E,0.102,,270424,,,A*70
$GPGGA,200949.00,3730.48378,N,02327.22643,E,1,07,1.10,43.2,M,32.4,M,,*6F
$GPGLL,3730.48378,N,02327.22643,E,200949.00,A,A*6D
$GPRMC,200950.00,A,3730.48374,N,02327.22663,E,0.225,,270424,,,A*70
$GPGGA,200950.00,3730.48374,N,02327.22663,E,1,07,1.10,43.0,M,32.4,M,,*6B
$GPGLL,3730.48374,N,02327.22663,E,200950.00,A,A*6B
$GPRMC,200951.00,A,3730.48381,N,02327.22664,E,0.165,,270424,,,A*7B
$GPGGA,200951.00,3730.48381,N,02327.22664,E,1,07,1.10,42.8,M,32.4,M,,*6E
$GPGLL,3730.48381,N,02327.22664,E,200951.00,A,A*67
$GPRMC,200952.00,A,3730.48382,N,02327.22670,E,0.102,,270424,,,A*7F
$GPGGA,200952.00,3730.48382,N,02327.22670,E,1,07,1.10,42.5,M,32.4,M,,*66
$GPGLL,3730.48382,N,02327.22670,E,200952.00,A,A*62
$GPRMC,200953.00,A,3730.48379,N,02327.22683,E,0.117,,270424,,,A*72
$GPGGA,200953.00,3730.48379,N,02327.22683,E,1,07,1.10,42.4,M,32.4,M,,*6E
$GPGLL,3730.48379,N,02327.22683,E,200953.00,A,A*6B
$GPRMC,200954.00,A,3730.48387,N,02327.22673,E,0.054,,270424,,,A*7D
$GPGGA,200954.00,3730.48387,N,02327.22673,E,1,08,1.10,42.1,M,32.4,M,,*6D
$GPGLL,3730.48387,N,02327.22673,E,200954.00,A,A*62
$GPRMC,200955.00,A,3730.48379,N,02327.22686,E,0.166,,270424,,,A*77
$GPGGA,200955.00,3730.48379,N,02327.22686,E,1,08,1.10,42.1,M,32.4,M,,*67
$GPGLL,3730.48379,N,02327.22686,E,200955.00,A,A*68
$GPRMC,200956.00,A,3730.48384,N,02327.22677,E,0.066,,270424,,,A*79
$GPGGA,200956.00,3730.48384,N,02327.22677,E,1,08,1.10,42.0,M,32.4,M,,*69
$GPGLL,3730.48384,N,02327.22677,E,200956.00,A,A*67
$GPRMC,200957.00,A,3730.48371,N,02327.22702,E,0.169,,270424,,,A*7F
$GPGGA,200957.00,3730.48371,N,02327.22702,E,1,08,1.03,42.0,M,32.4,M,,*63
$GPGLL,3730.48371,N,02327.22702,E,200957.00,A,A*6F
$GPRMC,200958.00,A,3730.48367,N,02327.22717,E,0.162,,270424,,,A*78
$GPGGA,200958.00,3730.48367,N,02327.22717,E,1,08,1.03,41.9,M,32.4,M,,*65
$GPGLL,3730.48367,N,02327.22717,E,200958.00,A,A*63
$GPRMC,200959.00,A,3730.48356,N,02327.22742,E,0.439,,270424,,,A*70
$GPGGA,200959.00,3730.48356,N,02327.22742,E,1,08,1.03,41.9,M,32.4,M,,*66
$GPGLL,3730.48356,N,02327.22742,E,200959.00,A,A*60
$GPRMC,201000.00,A,3730.48365,N,02327.22732,E,0.420,,270424,,,A*7B
$GPGGA,201000.00,3730.48365,N,02327.22732,E,1,08,1.03,41.6,M,32.4,M,,*6A
$GPGLL,3730.48365,N,02327.22732,E,201000.00,A,A*63
$GPRMC,201001.00,A,3730.48385,N,02327.22713,E,0.107,,270424,,,A*77
$GPGGA,201001.00,3730.48385,N,02327.22713,E,1,08,1.03,41.2,M,32.4,M,,*62
$GPGLL,3730.48385,N,02327.22713,E,201001.00,A,A*6F
$GPRMC,201002.00,A,3730.48389,N,02327.22721,E,0.197,,270424,,,A*70
$GPGGA,201002.00,3730.48389,N,02327.22721,E,1,08,1.03,41.1,M,32.4,M,,*6F
$GPGLL,3730.48389,N,02327.22721,E,201002.00,A,A*61
$GPRMC,201003.00,A,3730.48401,N,02327.22726,E,0.258,,270424,,,A*71
$GPGGA,201003.00,3730.48401,N,02327.22726,E,1,08,1.03,40.9,M,32.4,M,,*67
$GPGLL,3730.48401,N,02327.22726,E,201003.00,A,A*60
$GPRMC,201004.00,A,3730.48402,N,02327.22733,E,0.229,,270424,,,A*77
$GPGGA,201004.00,3730.48402,N,02327.22733,E,1,08,1.43,40.7,M,32.4,M,,*6D
$GPGLL,3730.48402,N,02327.22733,E,201004.00,A,A*60
$GPRMC,201005.00,A,3730.48389,N,02327.22759,E,0.417,,270424,,,A*75
$GPGGA,201005.00,3730.48389,N,02327.22759,E,1,08,1.43,40.7,M,32.4,M,,*64
$GPGLL,3730.48389,N,02327.22759,E,201005.00,A,A*69
$GPRMC,201006.00,A,3730.48406,N,02327.22736,E,0.151,,270424,,,A*78
$GPGGA,201006.00,3730.48406,N,02327.22736,E,1,08,1.43,40.4,M,32.4,M,,*6D
$GPGLL,3730.48406,N,02327.22736,E,201006.00,A,A*63
$GPRMC,201007.00,A,3730.48410,N,02327.22730,E,0.094,,270424,,,A*70
$GPGGA,201007.00,3730.48410,N,02327.22730,E,1,08,1.43,40.2,M,32.4,M,,*6B
$GPGLL,3730.48410,N,02327.22730,E,201007.00,A,A*63
$GPRMC,201008.00,A,3730.48420,N,02327.22717,E,0.074,,270424,,,A*77
$GPGGA,201008.00,3730.48420,N,02327.22717,E,1,08,1.43,40.1,M,32.4,M,,*61
$GPGLL,3730.48420,N,02327.22717,E,201008.00,A,A*6A
$GPRMC,201009.00,A,3730.48431,N,02327.22714,E,0.162,,270424,,,A*73
$GPGGA,201009.00,3730.48431,N,02327.22714,E,1,08,1.43,39.8,M,32.4,M,,*64
$GPGLL,3730.48431,N,02327.22714,E,201009.00,A,A*68
$GPRMC,201010.00,A,3730.48457,N,02327.22679,E,0.154,,270424,,,A*74
$GPGGA,201010.00,3730.48457,N,02327.22679,E,1,08,1.03,39.6,M,32.4,M,,*6C
$GPGLL,3730.48457,N,02327.22679,E,201010.00,A,A*6A
$GPRMC,201011.00,A,3730.48465,N,02327.22666,E,0.213,,270424,,,A*7A
$GPGGA,201011.00,3730.48465,N,02327.22666,E,1,08,1.03,39.4,M,32.4,M,,*60
$GPGLL,3730.48465,N,02327.22666,E,201011.00,A,A*64
$GPRMC,201012.00,A,3730.48451,N,02327.22699,E,0.392,,270424,,,A*76
$GPGGA,201012.00,3730.48451,N,02327.22699,E,1,08,1.03,39.6,M,32.4,M,,*66
$GPGLL,3730.48451,N,02327.22699,E,201012.00,A,A*60
$GPRMC,201013.00,A,3730.48469,N,02327.22685,E,0.206,,270424,,,A*7D
$GPGGA,201013.00,3730.48469,N,02327.22685,E,1,08,1.03,39.4,M,32.4,M,,*63
$GPGLL,3730.48469,N,02327.22685,E,201013.00,A,A*67
$GPRMC,201014.00,A,3730.48498,N,02327.22652,E,0.205,,270424,,,A*7D
$GPGGA,201014.00,3730.48498,N,02327.22652,E,1,08,1.03,39.2,M,32.4,M,,*66
$GPGLL,3730.48498,N,02327.22652,E,201014.00,A,A*64
$GPRMC,201015.00,A,3730.48522,N,02327.22629,E,0.338,,270424,,,A*7F
$GPGGA,201015.00,3730.48522,N,02327.22629,E,1,08,1.03,39.1,M,32.4,M,,*68
$GPGLL,3730.48522,N,02327.22629,E,201015.00,A,A*69
$GPRMC,201016.00,A,3730.48519,N,02327.22647,E,0.197,,270424,,,A*7B
$GPGGA,201016.00,3730.48519,N,02327.22647,E,1,08,1.03,39.2,M,32.4,M,,*68
$GPGLL,3730.48519,N,02327.22647,E,201016.00,A,A*6A
$GPRMC,201017.00,A,3730.48522,N,02327.22647,E,0.063,,270424,,,A*78
$GPGGA,201017.00,3730.48522,N,02327.22647,E,1,08,1.03,39.1,M,32.4,M,,*62
$GPGLL,3730.48522,N,02327.22647,E,201017.00,A,A*63
$GPRMC,201018.00,A,3730.48520,N,02327.22661,E,0.219,,270424,,,A*7E
$GPGGA,201018.00,3730.48520,N,02327.22661,E,1,08,1.03,39.0,M,32.4,M,,*6A
$GPGLL,3730.48520,N,02327.22661,E,201018.00,A,A*6A
$GPRMC,201019.00,A,3730.48507,N,02327.22697,E,0.517,,270424,,,A*7A
$GPGGA,201019.00,3730.48507,N,02327.22697,E,1,08,1.03,39.0,M,32.4,M,,*67
$GPGLL,3730.48507,N,02327.22697,E,201019.00,A,A*67
$GPRMC,201020.00,A,3730.48534,N,02327.22682,E,0.285,,270424,,,A*78
$GPGGA,201020.00,3730.48534,N,02327.22682,E,1,08,1.03,38.6,M,32.4,M,,*6E
$GPGLL,3730.48534,N,02327.22682,E,201020.00,A,A*69
$GPRMC,201021.00,A,3730.48556,N,02327.22674,E,0.351,,270424,,,A*7C
$GPGGA,201021.00,3730.48556,N,02327.22674,E,1,08,1.03,38.2,M,32.4,M,,*66
$GPGLL,3730.48556,N,02327.22674,E,201021.00,A,A*65
$GPRMC,201022.00,A,3730.48583,N,02327.22650,E,0.121,,270424,,,A*74
$GPGGA,201022.00,3730.48583,N,02327.22650,E,1,08,1.03,37.9,M,32.4,M,,*6F
$GPGLL,3730.48583,N,02327.22650,E,201022.00,A,A*68
$GPRMC,201023.00,A,3730.48602,N,02327.22638,E,0.012,,270424,,,A*70
$GPGGA,201023.00,3730.48602,N,02327.22638,E,1,08,1.03,37.5,M,32.4,M,,*66
$GPGLL,3730.48602,N,02327.22638,E,201023.00,A,A*6D
$GPRMC,201024.00,A,3730.48621,N,02327.22626,E,0.025,,270424,,,A*7D
$GPGGA,201024.00,3730.48621,N,02327.22626,E,1,08,1.03,37.2,M,32.4,M,,*68
$GPGLL,3730.48621,N,02327.22626,E,201024.00,A,A*64
$GPRMC,201025.00,A,3730.48658,N,02327.22579,E,0.408,,270424,,,A*70
$GPGGA,201025.00,3730.48658,N,02327.22579,E,1,08,1.03,36.7,M,32.4,M,,*6A
$GPGLL,3730.48658,N,02327.22579,E,201025.00,A,A*62
$GPRMC,201026.00,A,3730.48685,N,02327.22553,E,0.284,,270424,,,A*79
$GPGGA,201026.00,3730.48685,N,02327.22553,E,1,08,1.03,36.4,M,32.4,M,,*62
$GPGLL,3730.48685,N,02327.22553,E,201026.00,A,A*69
$GPRMC,201027.00,A,3730.48697,N,02327.22556,E,0.152,,270424,,,A*76
$GPGGA,201027.00,3730.48697,N,02327.22556,E,1,08,1.03,36.0,M,32.4,M,,*61
$GPGLL,3730.48697,N,02327.22556,E,201027.00,A,A*6E
$GPRMC,201028.00,A,3730.48707,N,02327.22553,E,0.139,,270424,,,A*79
$GPGGA,201028.00,3730.48707,N,02327.22553,E,1,08,1.03,35.9,M,32.4,M,,*69
$GPGLL,3730.48707,N,02327.22553,E,201028.00,A,A*6C
$GPRMC,201029.00,A,3730.48711,N,02327.22564,E,0.251,,270424,,,A*76
$GPGGA,201029.00,3730.48711,N,02327.22564,E,1,08,1.03,35.7,M,32.4,M,,*65
$GPGLL,3730.48711,N,02327.22564,E,201029.00,A,A*6E
$GPRMC,201030.00,A,3730.48709,N,02327.22576,E,0.632,,270424,,,A*75
$GPGGA,201030.00,3730.48709,N,02327.22576,E,1,08,1.03,35.8,M,32.4,M,,*68
$GPGLL,3730.48709,N,02327.22576,E,201030.00,A,A*6C
$GPRMC,201031.00,A,3730.48718,N,02327.22553,E,0.244,,270424,,,A*76
$GPGGA,201031.00,3730.48718,N,02327.22553,E,1,08,1.03,35.8,M,32.4,M,,*6E
$GPGLL,3730.48718,N,02327.22553,E,201031.00,A,A*6A
$GPRMC,201032.00,A,3730.48715,N,02327.22552,E,0.084,,270424,,,A*77
$GPGGA,201032.00,3730.48715,N,02327.22552,E,1,08,1.03,35.9,M,32.4,M,,*60
$GPGLL,3730.48715,N,02327.22552,E,201032.00,A,A*65
$GPRMC,201033.00,A,3730.48708,N,02327.22557,E,0.295,,270424,,,A*7D
$GPGGA,201033.00,3730.48708,N,02327.22557,E,1,08,1.03,36.0,M,32.4,M,,*62
$GPGLL,3730.48708,N,02327.22557,E,201033.00,A,A*6D
$GPRMC,201034.00,A,3730.48719,N,02327.22525,E,0.209,,270424,,,A*7A
$GPGGA,201034.00,3730.48719,N,02327.22525,E,1,08,1.42,36.1,M,32.4,M,,*64
$GPGLL,3730.48719,N,02327.22525,E,201034.00,A,A*6F
$GPRMC,201035.00,A,3730.48709,N,02327.22512,E,0.535,,270424,,,A*76
$GPGGA,201035.00,3730.48709,N,02327.22512,E,1,08,1.42,36.3,M,32.4,M,,*62
$GPGLL,3730.48709,N,02327.22512,E,201035.00,A,A*6B
$GPRMC,201036.00,A,3730.48697,N,02327.22513,E,0.136,,270424,,,A*75
$GPGGA,201036.00,3730.48697,N,02327.22513,E,1,08,1.42,36.7,M,32.4,M,,*62
$GPGLL,3730.48697,N,02327.22513,E,201036.00,A,A*6F
$GPRMC,201037.00,A,3730.48692,N,02327.22518,E,0.251,,270424,,,A*78
$GPGGA,201037.00,3730.48692,N,02327.22518,E,1,08,1.42,37.0,M,32.4,M,,*6B
$GPGLL,3730.48692,N,02327.22518,E,201037.00,A,A*60
$GPRMC,201038.00,A,3730.48710,N,02327.22485,E,0.417,,270424,,,A*7D
$GPGGA,201038.00,3730.48710,N,02327.22485,E,1,08,1.42,36.9,M,32.4,M,,*62
$GPGLL,3730.48710,N,02327.22485,E,201038.00,A,A*61
$GPRMC,201039.00,A,3730.48683,N,02327.22510,E,0.462,,270424,,,A*78
$GPGGA,201039.00,3730.48683,N,02327.22510,E,1,08,1.42,37.4,M,32.4,M,,*69
$GPGLL,3730.48683,N,02327.22510,E,201039.00,A,A*66
$GPRMC,201040.00,A,3730.48689,N,02327.22495,E,0.299,,270424,,,A*72
$GPGGA,201040.00,3730.48689,N,02327.22495,E,1,08,1.03,37.3,M,32.4,M,,*63
$GPGLL,3730.48689,N,02327.22495,E,201040.00,A,A*6E
$GPRMC,201041.00,A,3730.48676,N,02327.22504,E,0.261,,270424,,,A*7D
$GPGGA,201041.00,3730.48676,N,02327.22504,E,1,08,1.03,37.7,M,32.4,M,,*6F
$GPGLL,3730.48676,N,02327.22504,E,201041.00,A,A*66
$GPRMC,201042.00,A,3730.48688,N,02327.22500,E,0.123,,270424,,,A*7E
$GPGGA,201042.00,3730.48688,N,02327.22500,E,1,08,1.03,37.4,M,32.4,M,,*6A
$GPGLL,3730.48688,N,02327.22500,E,201042.00,A,A*60
$GPRMC,201043.00,A,3730.48684,N,02327.22502,E,0.357,,270424,,,A*70
$GPGGA,201043.00,3730.48684,N,02327.22502,E,1,08,1.03,37.5,M,32.4,M,,*64
$GPGLL,3730.48684,N,02327.22502,E,201043.00,A,A*6F
$GPRMC,201044.00,A,3730.48677,N,02327.22490,E,0.292,,270424,,,A*79
$GPGGA,201044.00,3730.48677,N,02327.22490,E,1,08,1.03,37.9,M,32.4,M,,*69
$GPGLL,3730.48677,N,02327.22490,E,201044.00,A,A*6E
$GPRMC,201045.00,A,3730.48675,N,02327.22477,E,0.216,,270424,,,A*7F
$GPGGA,201045.00,3730.48675,N,02327.22477,E,1,08,1.03,38.3,M,32.4,M,,*66
$GPGLL,3730.48675,N,02327.22477,E,201045.00,A,A*64
$GPRMC,201046.00,A,3730.48676,N,02327.22467,E,0.332,,270424,,,A*79
$GPGGA,201046.00,3730.48676,N,02327.22467,E,1,08,1.03,38.4,M,32.4,M,,*60
$GPGLL,3730.48676,N,02327.22467,E,201046.00,A,A*65
$GPRMC,201047.00,A,3730.48687,N,02327.22448,E,0.423,,270424,,,A*7C
$GPGGA,201047.00,3730.48687,N,02327.22448,E,1,08,1.03,38.2,M,32.4,M,,*64
$GPGLL,3730.48687,N,02327.22448,E,201047.00,A,A*67
$GPRMC,201048.00,A,3730.48692,N,02327.22429,E,0.508,,270424,,,A*78
$GPGGA,201048.00,3730.48692,N,02327.22429,E,1,08,1.03,38.1,M,32.4,M,,*6B
$GPGLL,3730.48692,N,02327.22429,E,201048.00,A,A*6B
$GPRMC,201049.00,A,3730.48708,N,02327.22407,E,0.478,,270424,,,A*71
$GPGGA,201049.00,3730.48708,N,02327.22407,E,1,08,1.03,37.9,M,32.4,M,,*63
$GPGLL,3730.48708,N,02327.22407,E,201049.00,A,A*64
$GPRMC,201050.00,A,3730.48734,N,02327.22404,E,0.265,,270424,,,A*7F
$GPGGA,201050.00,3730.48734,N,02327.22404,E,1,08,1.03,36.9,M,32.4,M,,*66
$GPGLL,3730.48734,N,02327.22404,E,201050.00,A,A*60
$GPRMC,201051.00,A,3730.48767,N,02327.22372,E,0.588,,270424,,,A*7A
$GPGGA,201051.00,3730.48767,N,02327.22372,E,1,08,1.03,36.4,M,32.4,M,,*6A
$GPGLL,3730.48767,N,02327.22372,E,201051.00,A,A*61
$GPRMC,201052.00,A,3730.48746,N,02327.22366,E,0.368,,270424,,,A*77
$GPGGA,201052.00,3730.48746,N,02327.22366,E,1,08,1.42,36.9,M,32.4,M,,*67
$GPGLL,3730.48746,N,02327.22366,E,201052.00,A,A*64
$GPRMC,201053.00,A,3730.48747,N,02327.22370,E,0.281,,270424,,,A*76
$GPGGA,201053.00,3730.48747,N,02327.22370,E,1,08,1.42,36.7,M,32.4,M,,*6E
$GPGLL,3730.48747,N,02327.22370,E,201053.00,A,A*63
$GPRMC,201054.00,A,3730.48741,N,02327.22372,E,0.273,,270424,,,A*78
$GPGGA,201054.00,3730.48741,N,02327.22372,E,1,08,1.42,36.9,M,32.4,M,,*63
$GPGLL,3730.48741,N,02327.22372,E,201054.00,A,A*60
$GPRMC,201055.00,A,3730.48717,N,02327.22373,E,0.104,,270424,,,A*78
$GPGGA,201055.00,3730.48717,N,02327.22373,E,1,08,1.42,37.6,M,32.4,M,,*6E
$GPGLL,3730.48717,N,02327.22373,E,201055.00,A,A*63
$GPRMC,201056.00,A,3730.48720,N,02327.22356,E,0.283,,270424,,,A*74
$GPGGA,201056.00,3730.48720,N,02327.22356,E,1,08,1.42,37.9,M,32.4,M,,*61
$GPGLL,3730.48720,N,02327.22356,E,201056.00,A,A*63
$GPRMC,201057.00,A,3730.48715,N,02327.22354,E,0.232,,270424,,,A*7B
$GPGGA,201057.00,3730.48715,N,02327.22354,E,1,08,1.42,37.9,M,32.4,M,,*64
$GPGLL,3730.48715,N,02327.22354,E,201057.00,A,A*66
$GPRMC,201058.00,A,3730.48718,N,02327.22320,E,0.801,,270424,,,A*70
$GPGGA,201058.00,3730.48718,N,02327.22320,E,1,08,1.42,38.1,M,32.4,M,,*62
$GPGLL,3730.48718,N,02327.22320,E,201058.00,A,A*67
$GPRMC,201059.00,A,3730.48698,N,02327.22319,E,0.323,,270424,,,A*79
$GPGGA,201059.00,3730.48698,N,02327.22319,E,1,08,1.42,38.9,M,32.4,M,,*68
$GPGLL,3730.48698,N,02327.22319,E,201059.00,A,A*65
$GPRMC,201100.00,A,3730.48691,N,02327.22308,E,0.527,,270424,,,A*7F
$GPGGA,201100.00,3730.48691,N,02327.22308,E,1,08,1.42,39.5,M,32.4,M,,*61
$GPGLL,3730.48691,N,02327.22308,E,201100.00,A,A*61
$GPRMC,201101.00,A,3730.48711,N,02327.22271,E,0.865,,270424,,,A*73
$GPGGA,201101.00,3730.48711,N,02327.22271,E,1,08,1.42,39.4,M,32.4,M,,*67
$GPGLL,3730.48711,N,02327.22271,E,201101.00,A,A*66
$GPRMC,201102.00,A,3730.48717,N,02327.22217,E,1.307,,270424,,,A*78
$GPGGA,201102.00,3730.48717,N,02327.22217,E,1,07,1.42,39.9,M,32.4,M,,*60
$GPGLL,3730.48717,N,02327.22217,E,201102.00,A,A*63
$GPRMC,201103.00,A,3730.48715,N,02327.22235,E,0.463,,270424,,,A*7F
$GPGGA,201103.00,3730.48715,N,02327.22235,E,1,07,1.42,40.2,M,32.4,M,,*66
$GPGLL,3730.48715,N,02327.22235,E,201103.00,A,A*60
$GPRMC,201104.00,A,3730.48726,N,02327.22268,E,0.881,,270424,,,A*70
$GPGGA,201104.00,3730.48726,N,02327.22268,E,1,07,1.42,40.1,M,32.4,M,,*6A
$GPGLL,3730.48726,N,02327.22268,E,201104.00,A,A*6F
$GPRMC,201105.00,A,3730.48728,N,02327.22280,E,0.425,,270424,,,A*7B
$GPGGA,201105.00,3730.48728,N,02327.22280,E,1,07,1.42,40.4,M,32.4,M,,*66
$GPGLL,3730.48728,N,02327.22280,E,201105.00,A,A*66
$GPRMC,201106.00,A,3730.48714,N,02327.22317,E,0.790,,270424,,,A*75
$GPGGA,201106.00,3730.48714,N,02327.22317,E,1,07,1.42,41.2,M,32.4,M,,*62
$GPGLL,3730.48714,N,02327.22317,E,201106.00,A,A*65
$GPRMC,201107.00,A,3730.48714,N,02327.22337,E,0.441,,270424,,,A*79
$GPGGA,201107.00,3730.48714,N,02327.22337,E,1,07,1.42,41.1,M,32.4,M,,*62
$GPGLL,3730.48714,N,02327.22337,E,201107.00,A,A*66
$GPRMC,201108.00,A,3730.48700,N,02327.22338,E,0.274,,270424,,,A*7C
$GPGGA,201108.00,3730.48700,N,02327.22338,E,1,08,1.42,41.8,M,32.4,M,,*61
$GPGLL,3730.48700,N,02327.22338,E,201108.00,A,A*63
$GPRMC,201109.00,A,3730.48707,N,02327.22321,E,0.628,,270424,,,A*7F
$GPGGA,201109.00,3730.48707,N,02327.22321,E,1,08,1.42,41.8,M,32.4,M,,*6F
$GPGLL,3730.48707,N,02327.22321,E,201109.00,A,A*6D
$GPRMC,201110.00,A,3730.48682,N,02327.22322,E,0.275,,270424,,,A*74
$GPGGA,201110.00,3730.48682,N,02327.22322,E,1,08,1.03,42.5,M,32.4,M,,*63
$GPGLL,3730.48682,N,02327.22322,E,201110.00,A,A*6A
$GPRMC,201111.00,A,3730.48668,N,02327.22319,E,0.517,,270424,,,A*7A
$GPGGA,201111.00,3730.48668,N,02327.22319,E,1,08,1.03,43.8,M,32.4,M,,*62
$GPGLL,3730.48668,N,02327.22319,E,201111.00,A,A*67
$GPRMC,201112.00,A,3730.48656,N,02327.22314,E,0.415,,270424,,,A*7A
$GPGGA,201112.00,3730.48656,N,02327.22314,E,1,08,1.03,44.6,M,32.4,M,,*68
$GPGLL,3730.48656,N,02327.22314,E,201112.00,A,A*64
$GPRMC,201113.00,A,3730.48627,N,02327.22334,E,0.229,,270424,,,A*76
$GPGGA,201113.00,3730.48627,N,02327.22334,E,1,07,1.42,45.5,M,32.4,M,,*65
$GPGLL,3730.48627,N,02327.22334,E,201113.00,A,A*61
$GPRMC,201114.00,A,3730.48612,N,02327.22306,E,0.521,,270424,,,A*79
$GPGGA,201114.00,3730.48612,N,02327.22306,E,1,07,1.42,46.5,M,32.4,M,,*66
$GPGLL,3730.48612,N,02327.22306,E,201114.00,A,A*61
$GPRMC,201115.00,A,3730.48629,N,02327.22295,E,0.340,,270424,,,A*7A
$GPGGA,201115.00,3730.48629,N,02327.22295,E,1,06,2.01,46.3,M,32.4,M,,*67
$GPGLL,3730.48629,N,02327.22295,E,201115.00,A,A*63
$GPRMC,201116.00,A,3730.48629,N,02327.22299,E,0.177,,270424,,,A*73
$GPGGA,201116.00,3730.48629,N,02327.22299,E,1,06,2.01,46.5,M,32.4,M,,*6E
$GPGLL,3730.48629,N,02327.22299,E,201116.00,A,A*6C
$GPRMC,201117.00,A,3730.48629,N,02327.22314,E,0.088,,270424,,,A*77
$GPGGA,201117.00,3730.48629,N,02327.22314,E,1,06,2.01,46.5,M,32.4,M,,*6B
$GPGLL,3730.48629,N,02327.22314,E,201117.00,A,A*69
$GPRMC,201118.00,A,3730.48642,N,02327.22308,E,0.184,,270424,,,A*75
$GPGGA,201118.00,3730.48642,N,02327.22308,E,1,06,2.01,46.4,M,32.4,M,,*65
$GPGLL,3730.48642,N,02327.22308,E,201118.00,A,A*66
$GPRMC,201119.00,A,3730.48620,N,02327.22314,E,0.136,,270424,,,A*74
$GPGGA,201119.00,3730.48620,N,02327.22314,E,1,06,2.01,46.7,M,32.4,M,,*6E
$GPGLL,3730.48620,N,02327.22314,E,201119.00,A,A*6E
$GPRMC,201120.00,A,3730.48605,N,02327.22289,E,0.470,,270424,,,A*7B
$GPGGA,201120.00,3730.48605,N,02327.22289,E,1,06,2.01,47.5,M,32.4,M,,*65
$GPGLL,3730.48605,N,02327.22289,E,201120.00,A,A*66
$GPRMC,201121.00,A,3730.48611,N,02327.22282,E,0.358,,270424,,,A*79
$GPGGA,201121.00,3730.48611,N,02327.22282,E,1,06,2.01,47.6,M,32.4,M,,*69
$GPGLL,3730.48611,N,02327.22282,E,201121.00,A,A*69
$GPRMC,201122.00,A,3730.48651,N,02327.22259,E,0.323,,270424,,,A*74
$GPGGA,201122.00,3730.48651,N,02327.22259,E,1,06,2.01,46.9,M,32.4,M,,*66
$GPGLL,3730.48651,N,02327.22259,E,201122.00,A,A*68
$GPRMC,201123.00,A,3730.48654,N,02327.22259,E,0.184,,270424,,,A*7F
$GPGGA,201123.00,3730.48654,N,02327.22259,E,1,06,2.01,46.7,M,32.4,M,,*6C
$GPGLL,3730.48654,N,02327.22259,E,201123.00,A,A*6C
$GPRMC,201124.00,A,3730.48670,N,02327.22247,E,0.273,,270424,,,A*7A
$GPGGA,201124.00,3730.48670,N,02327.22247,E,1,06,2.01,46.2,M,32.4,M,,*67
$GPGLL,3730.48670,N,02327.22247,E,201124.00,A,A*62
$GPRMC,201125.00,A,3730.48651,N,02327.22260,E,0.265,,270424,,,A*7A
$GPGGA,201125.00,3730.48651,N,02327.22260,E,1,06,2.01,46.2,M,32.4,M,,*60
$GPGLL,3730.48651,N,02327.22260,E,201125.00,A,A*65
$GPRMC,201126.00,A,3730.48670,N,02327.22248,E,0.358,,270424,,,A*7F
$GPGGA,201126.00,3730.48670,N,02327.22248,E,1,06,2.01,45.7,M,32.4,M,,*6C
$GPGLL,3730.48670,N,02327.22248,E,201126.00,A,A*6F
$GPRMC,201127.00,A,3730.48650,N,02327.22279,E,0.173,,270424,,,A*75
$GPGGA,201127.00,3730.48650,N,02327.22279,E,1,06,2.01,45.4,M,32.4,M,,*6E
$GPGLL,3730.48650,N,02327.22279,E,201127.00,A,A*6E
$GPRMC,201128.00,A,3730.48648,N,02327.22301,E,0.271,,270424,,,A*7C
$GPGGA,201128.00,3730.48648,N,02327.22301,E,1,06,2.01,44.9,M,32.4,M,,*6A
$GPGLL,3730.48648,N,02327.22301,E,201128.00,A,A*66
$GPRMC,201129.00,A,3730.48694,N,02327.22276,E,0.034,,270424,,,A*7E
$GPGGA,201129.00,3730.48694,N,02327.22276,E,1,06,2.01,43.8,M,32.4,M,,*6D
$GPGLL,3730.48694,N,02327.22276,E,201129.00,A,A*67
$GPRMC,201130.00,A,3730.48675,N,02327.22299,E,0.100,,270424,,,A*7E
$GPGGA,201130.00,3730.48675,N,02327.22299,E,1,06,2.01,44.0,M,32.4,M,,*64
$GPGLL,3730.48675,N,02327.22299,E,201130.00,A,A*61
$GPRMC,201131.00,A,3730.48667,N,02327.22319,E,0.088,,270424,,,A*74
$GPGGA,201131.00,3730.48667,N,02327.22319,E,1,06,2.01,43.9,M,32.4,M,,*61
$GPGLL,3730.48667,N,02327.22319,E,201131.00,A,A*6A
$GPRMC,201132.00,A,3730.48659,N,02327.22329,E,0.112,,270424,,,A*7B
$GPGGA,201132.00,3730.48659,N,02327.22329,E,1,06,2.01,43.9,M,32.4,M,,*6C
$GPGLL,3730.48659,N,02327.22329,E,201132.00,A,A*67
$GPRMC,201133.00,A,3730.48659,N,02327.22356,E,0.343,,270424,,,A*74
$GPGGA,201133.00,3730.48659,N,02327.22356,E,1,06,2.01,43.3,M,32.4,M,,*6F
$GPGLL,3730.48659,N,02327.22356,E,201133.00,A,A*6E
$GPRMC,201134.00,A,3730.48672,N,02327.22368,E,0.293,,270424,,,A*7B
$GPGGA,201134.00,3730.48672,N,02327.22368,E,1,06,2.01,42.6,M,32.4,M,,*68
$GPGLL,3730.48672,N,02327.22368,E,201134.00,A,A*6D
$GPRMC,201135.00,A,3730.48637,N,02327.22395,E,0.211,,270424,,,A*73
$GPGGA,201135.00,3730.48637,N,02327.22395,E,1,06,2.01,43.0,M,32.4,M,,*6D
$GPGLL,3730.48637,N,02327.22395,E,201135.00,A,A*6F
$GPRMC,201136.00,A,3730.48609,N,02327.22416,E,0.318,,270424,,,A*79
$GPGGA,201136.00,3730.48609,N,02327.22416,E,1,07,2.01,43.4,M,32.4,M,,*6A
$GPGLL,3730.48609,N,02327.22416,E,201136.00,A,A*6D
$GPRMC,201137.00,A,3730.48605,N,02327.22424,E,0.218,,270424,,,A*74
$GPGGA,201137.00,3730.48605,N,02327.22424,E,1,07,2.01,43.2,M,32.4,M,,*60
$GPGLL,3730.48605,N,02327.22424,E,201137.00,A,A*61
$GPRMC,201138.00,A,3730.48578,N,02327.22444,E,0.261,,270424,,,A*7A
$GPGGA,201138.00,3730.48578,N,02327.22444,E,1,07,2.01,43.8,M,32.4,M,,*6A
$GPGLL,3730.48578,N,02327.22444,E,201138.00,A,A*61
$GPRMC,201139.00,A,3730.48631,N,02327.22404,E,0.134,,270424,,,A*72
$GPGGA,201139.00,3730.48631,N,02327.22404,E,1,07,1.42,42.0,M,32.4,M,,*6C
$GPGLL,3730.48631,N,02327.22404,E,201139.00,A,A*6A
$GPRMC,201140.00,A,3730.48635,N,02327.22398,E,0.116,,270424,,,A*7A
$GPGGA,201140.00,3730.48635,N,02327.22398,E,1,07,1.42,41.7,M,32.4,M,,*60
$GPGLL,3730.48635,N,02327.22398,E,201140.00,A,A*62
$GPRMC,201141.00,A,3730.48642,N,02327.22397,E,0.047,,270424,,,A*71
$GPGGA,201141.00,3730.48642,N,02327.22397,E,1,07,1.42,41.0,M,32.4,M,,*69
$GPGLL,3730.48642,N,02327.22397,E,201141.00,A,A*6C
$GPRMC,201142.00,A,3730.48631,N,02327.22403,E,0.059,,270424,,,A*73
$GPGGA,201142.00,3730.48631,N,02327.22403,E,1,07,1.42,41.3,M,32.4,M,,*67
$GPGLL,3730.48631,N,02327.22403,E,201142.00,A,A*61
$GPRMC,201143.00,A,3730.48608,N,02327.22418,E,0.071,,270424,,,A*78
$GPGGA,201143.00,3730.48608,N,02327.22418,E,1,07,1.42,41.8,M,32.4,M,,*6D
$GPGLL,3730.48608,N,02327.22418,E,201143.00,A,A*60
$GPRMC,201144.00,A,3730.48574,N,02327.22445,E,0.165,,270424,,,A*7B
$GPGGA,201144.00,3730.48574,N,02327.22445,E,1,07,1.42,42.5,M,32.4,M,,*64
$GPGLL,3730.48574,N,02327.22445,E,201144.00,A,A*67
$GPRMC,201145.00,A,3730.48539,N,02327.22472,E,0.333,,270424,,,A*76
$GPGGA,201145.00,3730.48539,N,02327.22472,E,1,07,1.42,43.3,M,32.4,M,,*6F
$GPGLL,3730.48539,N,02327.22472,E,201145.00,A,A*6B
$GPRMC,201146.00,A,3730.48507,N,02327.22493,E,0.335,,270424,,,A*71
$GPGGA,201146.00,3730.48507,N,02327.22493,E,1,07,1.42,44.0,M,32.4,M,,*6A
$GPGLL,3730.48507,N,02327.22493,E,201146.00,A,A*6A
$GPRMC,201147.00,A,3730.48479,N,02327.22525,E,0.411,,270424,,,A*75
$GPGGA,201147.00,3730.48479,N,02327.22525,E,1,07,1.42,44.5,M,32.4,M,,*6A
$GPGLL,3730.48479,N,02327.22525,E,201147.00,A,A*6F
$GPRMC,201148.00,A,3730.48517,N,02327.22517,E,0.207,,270424,,,A*73
$GPGGA,201148.00,3730.48517,N,02327.22517,E,1,07,1.42,43.2,M,32.4,M,,*6D
$GPGLL,3730.48517,N,02327.22517,E,201148.00,A,A*68
$GPRMC,201149.00,A,3730.48563,N,02327.22526,E,0.314,,270424,,,A*70
$GPGGA,201149.00,3730.48563,N,02327.22526,E,1,07,1.42,41.7,M,32.4,M,,*6A
$GPGLL,3730.48563,N,02327.22526,E,201149.00,A,A*68
$GPRMC,201150.00,A,3730.48570,N,02327.22540,E,0.182,,270424,,,A*77
$GPGGA,201150.00,3730.48570,N,02327.22540,E,1,07,1.42,41.4,M,32.4,M,,*63
$GPGLL,3730.48570,N,02327.22540,E,201150.00,A,A*62
$GPRMC,201151.00,A,3730.48569,N,02327.22570,E,0.165,,270424,,,A*74
$GPGGA,201151.00,3730.48569,N,02327.22570,E,1,07,1.42,40.9,M,32.4,M,,*65
$GPGLL,3730.48569,N,02327.22570,E,201151.00,A,A*68
$GPRMC,201152.00,A,3730.48550,N,02327.22600,E,0.106,,270424,,,A*7C
$GPGGA,201152.00,3730.48550,N,02327.22600,E,1,06,2.20,41.2,M,32.4,M,,*64
$GPGLL,3730.48550,N,02327.22600,E,201152.00,A,A*65
$GPRMC,201153.00,A,3730.48527,N,02327.22630,E,0.120,,270424,,,A*7A
$GPGGA,201153.00,3730.48527,N,02327.22630,E,1,06,2.20,41.6,M,32.4,M,,*62
$GPGLL,3730.48527,N,02327.22630,E,201153.00,A,A*67
$GPRMC,201154.00,A,3730.48521,N,02327.22651,E,0.157,,270424,,,A*7C
$GPGGA,201154.00,3730.48521,N,02327.22651,E,1,06,2.19,41.6,M,32.4,M,,*6E
$GPGLL,3730.48521,N,02327.22651,E,201154.00,A,A*61
$GPRMC,201155.00,A,3730.48497,N,02327.22678,E,0.182,,270424,,,A*72
$GPGGA,201155.00,3730.48497,N,02327.22678,E,1,06,2.19,42.0,M,32.4,M,,*6D
$GPGLL,3730.48497,N,02327.22678,E,201155.00,A,A*67
$GPRMC,201156.00,A,3730.48481,N,02327.22704,E,0.088,,270424,,,A*77
$GPGGA,201156.00,3730.48481,N,02327.22704,E,1,07,1.42,42.2,M,32.4,M,,*6D
$GPGLL,3730.48481,N,02327.22704,E,201156.00,A,A*69
$GPRMC,201157.00,A,3730.48461,N,02327.22734,E,0.182,,270424,,,A*70
$GPGGA,201157.00,3730.48461,N,02327.22734,E,1,07,1.42,42.5,M,32.4,M,,*66
$GPGLL,3730.48461,N,02327.22734,E,201157.00,A,A*65
$GPRMC,201158.00,A,3730.48443,N,02327.22759,E,0.133,,270424,,,A*7E
$GPGGA,201158.00,3730.48443,N,02327.22759,E,1,07,2.19,42.9,M,32.4,M,,*63
$GPGLL,3730.48443,N,02327.22759,E,201158.00,A,A*61
$GPRMC,201159.00,A,3730.48401,N,02327.22795,E,0.168,,270424,,,A*77
$GPGGA,201159.00,3730.48401,N,02327.22795,E,1,07,2.19,43.9,M,32.4,M,,*65
$GPGLL,3730.48401,N,02327.22795,E,201159.00,A,A*66
$GPRMC,201200.00,A,3730.48380,N,02327.22817,E,0.174,,270424,,,A*7E
$GPGGA,201200.00,3730.48380,N,02327.22817,E,1,07,2.19,44.4,M,32.4,M,,*6B
$GPGLL,3730.48380,N,02327.22817,E,201200.00,A,A*62
$GPRMC,201201.00,A,3730.48358,N,02327.22840,E,0.240,,270424,,,A*7C
$GPGGA,201201.00,3730.48358,N,02327.22840,E,1,07,2.19,44.8,M,32.4,M,,*61
$GPGLL,3730.48358,N,02327.22840,E,201201.00,A,A*64
$GPRMC,201202.00,A,3730.48347,N,02327.22855,E,0.148,,270424,,,A*7E
$GPGGA,201202.00,3730.48347,N,02327.22855,E,1,06,2.19,45.0,M,32.4,M,,*60
$GPGLL,3730.48347,N,02327.22855,E,201202.00,A,A*6D
$GPRMC,201203.00,A,3730.48327,N,02327.22876,E,0.152,,270424,,,A*73
$GPGGA,201203.00,3730.48327,N,02327.22876,E,1,06,2.19,45.4,M,32.4,M,,*62
$GPGLL,3730.48327,N,02327.22876,E,201203.00,A,A*6B
$GPRMC,201204.00,A,3730.48312,N,02327.22897,E,0.123,,270424,,,A*7B
$GPGGA,201204.00,3730.48312,N,02327.22897,E,1,06,2.19,45.8,M,32.4,M,,*60
$GPGLL,3730.48312,N,02327.22897,E,201204.00,A,A*65
$GPRMC,201205.00,A,3730.48299,N,02327.22915,E,0.054,,270424,,,A*72
$GPGGA,201205.00,3730.48299,N,02327.22915,E,1,06,2.19,46.0,M,32.4,M,,*63
$GPGLL,3730.48299,N,02327.22915,E,201205.00,A,A*6D
$GPRMC,201206.00,A,3730.48297,N,02327.22927,E,0.110,,270424,,,A*7F
$GPGGA,201206.00,3730.48297,N,02327.22927,E,1,06,2.19,45.9,M,32.4,M,,*65
$GPGLL,3730.48297,N,02327.22927,E,201206.00,A,A*61
$GPRMC,201207.00,A,3730.48287,N,02327.22942,E,0.124,,270424,,,A*7B
$GPGGA,201207.00,3730.48287,N,02327.22942,E,1,06,2.19,46.1,M,32.4,M,,*6D
$GPGLL,3730.48287,N,02327.22942,E,201207.00,A,A*62
$GPRMC,201208.00,A,3730.48265,N,02327.22965,E,0.178,,270424,,,A*74
$GPGGA,201208.00,3730.48265,N,02327.22965,E,1,06,2.19,46.7,M,32.4,M,,*6D
$GPGLL,3730.48265,N,02327.22965,E,201208.00,A,A*64
$GPRMC,201209.00,A,3730.48251,N,02327.22982,E,0.163,,270424,,,A*71
$GPGGA,201209.00,3730.48251,N,02327.22982,E,1,06,2.19,47.0,M,32.4,M,,*64
$GPGLL,3730.48251,N,02327.22982,E,201209.00,A,A*6B
$GPRMC,201210.00,A,3730.48221,N,02327.23010,E,0.239,,270424,,,A*71
$GPGGA,201210.00,3730.48221,N,02327.23010,E,1,06,2.19,47.8,M,32.4,M,,*60
$GPGLL,3730.48221,N,02327.23010,E,201210.00,A,A*67
$GPRMC,201211.00,A,3730.48198,N,02327.23029,E,0.228,,270424,,,A*7B
$GPGGA,201211.00,3730.48198,N,02327.23029,E,1,06,2.19,48.3,M,32.4,M,,*6E
$GPGLL,3730.48198,N,02327.23029,E,201211.00,A,A*6D
$GPRMC,201212.00,A,3730.48183,N,02327.23050,E,0.250,,270424,,,A*73
$GPGGA,201212.00,3730.48183,N,02327.23050,E,1,06,2.19,48.7,M,32.4,M,,*6D
$GPGLL,3730.48183,N,02327.23050,E,201212.00,A,A*6A
$GPRMC,201213.00,A,3730.48189,N,02327.23060,E,0.256,,270424,,,A*7D
$GPGGA,201213.00,3730.48189,N,02327.23060,E,1,05,4.64,48.5,M,32.4,M,,*68
$GPGLL,3730.48189,N,02327.23060,E,201213.00,A,A*62
$GPRMC,201214.00,A,3730.48185,N,02327.23067,E,0.197,,270424,,,A*7F
$GPGGA,201214.00,3730.48185,N,02327.23067,E,1,05,4.63,48.5,M,32.4,M,,*63
$GPGLL,3730.48185,N,02327.23067,E,201214.00,A,A*6E
$GPRMC,201215.00,A,3730.48182,N,02327.23071,E,0.139,,270424,,,A*7A
$GPGGA,201215.00,3730.48182,N,02327.23071,E,1,05,4.63,48.4,M,32.4,M,,*63
$GPGLL,3730.48182,N,02327.23071,E,201215.00,A,A*6F
$GPRMC,201216.00,A,3730.48175,N,02327.23074,E,0.261,,270424,,,A*7A
$GPGGA,201216.00,3730.48175,N,02327.23074,E,1,06,4.62,48.5,M,32.4,M,,*6E
$GPGLL,3730.48175,N,02327.23074,E,201216.00,A,A*61
$GPRMC,201217.00,A,3730.48173,N,02327.23080,E,0.214,,270424,,,A*74
$GPGGA,201217.00,3730.48173,N,02327.23080,E,1,05,4.62,48.4,M,32.4,M,,*60
$GPGLL,3730.48173,N,02327.23080,E,201217.00,A,A*6D
$GPRMC,201218.00,A,3730.48175,N,02327.23084,E,0.096,,270424,,,A*71
$GPGGA,201218.00,3730.48175,N,02327.23084,E,1,05,4.61,48.4,M,32.4,M,,*6E
$GPGLL,3730.48175,N,02327.23084,E,201218.00,A,A*60
$GPRMC,201219.00,A,3730.48165,N,02327.23085,E,0.078,,270424,,,A*70
$GPGGA,201219.00,3730.48165,N,02327.23085,E,1,06,2.00,48.7,M,32.4,M,,*6E
$GPGLL,3730.48165,N,02327.23085,E,201219.00,A,A*61
$GPRMC,201220.00,A,3730.48170,N,02327.23087,E,0.057,,270424,,,A*71
$GPGGA,201220.00,3730.48170,N,02327.23087,E,1,06,2.00,48.4,M,32.4,M,,*61
$GPGLL,3730.48170,N,02327.23087,E,201220.00,A,A*6D
$GPRMC,201221.00,A,3730.48161,N,02327.23090,E,0.070,,270424,,,A*73
$GPGGA,201221.00,3730.48161,N,02327.23090,E,1,06,2.00,48.6,M,32.4,M,,*64
$GPGLL,3730.48161,N,02327.23090,E,201221.00,A,A*6A
$GPRMC,201222.00,A,3730.48145,N,02327.23086,E,0.103,,270424,,,A*74
$GPGGA,201222.00,3730.48145,N,02327.23086,E,1,06,2.00,49.2,M,32.4,M,,*63
$GPGLL,3730.48145,N,02327.23086,E,201222.00,A,A*68
$GPRMC,201223.00,A,3730.48136,N,02327.23084,E,0.154,,270424,,,A*71
$GPGGA,201223.00,3730.48136,N,02327.23084,E,1,06,2.00,49.3,M,32.4,M,,*65
$GPGLL,3730.48136,N,02327.23084,E,201223.00,A,A*6F
$GPRMC,201224.00,A,3730.48128,N,02327.23086,E,0.129,,270424,,,A*71
$GPGGA,201224.00,3730.48128,N,02327.23086,E,1,06,2.00,49.4,M,32.4,M,,*68
$GPGLL,3730.48128,N,02327.23086,E,201224.00,A,A*65
$GPRMC,201225.00,A,3730.48118,N,02327.23085,E,0.192,,270424,,,A*70
$GPGGA,201225.00,3730.48118,N,02327.23085,E,1,06,2.00,49.5,M,32.4,M,,*68
$GPGLL,3730.48118,N,02327.23085,E,201225.00,A,A*64
$GPRMC,201226.00,A,3730.48107,N,02327.23098,E,0.459,,270424,,,A*73
$GPGGA,201226.00,3730.48107,N,02327.23098,E,1,06,2.00,49.6,M,32.4,M,,*6A
$GPGLL,3730.48107,N,02327.23098,E,201226.00,A,A*65
$GPRMC,201227.00,A,3730.48084,N,02327.23096,E,0.326,,270424,,,A*79
$GPGGA,201227.00,3730.48084,N,02327.23096,E,1,06,2.00,50.1,M,32.4,M,,*60
$GPGLL,3730.48084,N,02327.23096,E,201227.00,A,A*60
$GPRMC,201228.00,A,3730.48070,N,02327.23095,E,0.227,,270424,,,A*7E
$GPGGA,201228.00,3730.48070,N,02327.23095,E,1,06,2.00,50.4,M,32.4,M,,*62
$GPGLL,3730.48070,N,02327.23095,E,201228.00,A,A*67
$GPRMC,201229.00,A,3730.48049,N,02327.23093,E,0.221,,270424,,,A*75
$GPGGA,201229.00,3730.48049,N,02327.23093,E,1,06,2.00,50.9,M,32.4,M,,*62
$GPGLL,3730.48049,N,02327.23093,E,201229.00,A,A*6A
$GPRMC,201230.00,A,3730.48036,N,02327.23082,E,0.178,,270424,,,A*7A
$GPGGA,201230.00,3730.48036,N,02327.23082,E,1,06,2.00,51.4,M,32.4,M,,*6E
$GPGLL,3730.48036,N,02327.23082,E,201230.00,A,A*6A
$GPRMC,201231.00,A,3730.48041,N,02327.23075,E,0.218,,270424,,,A*76
$GPGGA,201231.00,3730.48041,N,02327.23075,E,1,06,2.00,51.1,M,32.4,M,,*62
$GPGLL,3730.48041,N,02327.23075,E,201231.00,A,A*63
$GPRMC,201232.00,A,3730.48045,N,02327.23067,E,0.123,,270424,,,A*79
$GPGGA,201232.00,3730.48045,N,02327.23067,E,1,06,2.00,51.0,M,32.4,M,,*67
$GPGLL,3730.48045,N,02327.23067,E,201232.00,A,A*67
$GPRMC,201233.00,A,3730.48038,N,02327.23056,E,0.100,,270424,,,A*71
$GPGGA,201233.00,3730.48038,N,02327.23056,E,1,06,2.00,51.3,M,32.4,M,,*6D
$GPGLL,3730.48038,N,02327.23056,E,201233.00,A,A*6E
$GPRMC,201234.00,A,3730.48019,N,02327.23052,E,0.268,,270424,,,A*7C
$GPGGA,201234.00,3730.48019,N,02327.23052,E,1,06,2.00,51.7,M,32.4,M,,*69
$GPGLL,3730.48019,N,02327.23052,E,201234.00,A,A*6E
$GPRMC,201235.00,A,3730.48022,N,02327.23065,E,0.452,,270424,,,A*7E
$GPGGA,201235.00,3730.48022,N,02327.23065,E,1,06,2.00,51.2,M,32.4,M,,*61
$GPGLL,3730.48022,N,02327.23065,E,201235.00,A,A*63
$GPRMC,201236.00,A,3730.48025,N,02327.23055,E,0.244,,270424,,,A*78
$GPGGA,201236.00,3730.48025,N,02327.23055,E,1,06,2.00,51.0,M,32.4,M,,*64
$GPGLL,3730.48025,N,02327.23055,E,201236.00,A,A*64
$GPRMC,201237.00,A,3730.48031,N,02327.23059,E,0.282,,270424,,,A*7A
$GPGGA,201237.00,3730.48031,N,02327.23059,E,1,06,2.00,50.6,M,32.4,M,,*6B
$GPGLL,3730.48031,N,02327.23059,E,201237.00,A,A*6C
$GPRMC,201238.00,A,3730.48049,N,02327.23020,E,0.205,,270424,,,A*7B
$GPGGA,201238.00,3730.48049,N,02327.23020,E,1,06,2.00,50.4,M,32.4,M,,*67
$GPGLL,3730.48049,N,02327.23020,E,201238.00,A,A*62
$GPRMC,201239.00,A,3730.48042,N,02327.23018,E,0.196,,270424,,,A*73
$GPGGA,201239.00,3730.48042,N,02327.23018,E,1,06,2.00,50.4,M,32.4,M,,*66
$GPGLL,3730.48042,N,02327.23018,E,201239.00,A,A*63
$GPRMC,201240.00,A,3730.48060,N,02327.23001,E,0.093,,270424,,,A*71
$GPGGA,201240.00,3730.48060,N,02327.23001,E,1,06,2.00,49.9,M,32.4,M,,*65
$GPGLL,3730.48060,N,02327.23001,E,201240.00,A,A*65
$GPRMC,201241.00,A,3730.48066,N,02327.23005,E,0.113,,270424,,,A*7B
$GPGGA,201241.00,3730.48066,N,02327.23005,E,1,06,2.00,49.6,M,32.4,M,,*69
$GPGLL,3730.48066,N,02327.23005,E,201241.00,A,A*66
$GPRMC,201242.00,A,3730.48066,N,02327.22989,E,0.152,,270424,,,A*71
$GPGGA,201242.00,3730.48066,N,02327.22989,E,1,06,2.00,49.7,M,32.4,M,,*67
$GPGLL,3730.48066,N,02327.22989,E,201242.00,A,A*69
$GPRMC,201243.00,A,3730.48067,N,02327.22988,E,0.189,,270424,,,A*76
$GPGGA,201243.00,3730.48067,N,02327.22988,E,1,07,2.00,49.5,M,32.4,M,,*65
$GPGLL,3730.48067,N,02327.22988,E,201243.00,A,A*68
$GPRMC,201244.00,A,3730.48044,N,02327.22988,E,0.286,,270424,,,A*7C
$GPGGA,201244.00,3730.48044,N,02327.22988,E,1,07,2.00,50.1,M,32.4,M,,*6F
$GPGLL,3730.48044,N,02327.22988,E,201244.00,A,A*6E
$GPRMC,201245.00,A,3730.48049,N,02327.22969,E,0.105,,270424,,,A*77
$GPGGA,201245.00,3730.48049,N,02327.22969,E,1,07,2.00,50.0,M,32.4,M,,*6D
$GPGLL,3730.48049,N,02327.22969,E,201245.00,A,A*6D
$GPRMC,201246.00,A,3730.48045,N,02327.22972,E,0.169,,270424,,,A*78
$GPGGA,201246.00,3730.48045,N,02327.22972,E,1,07,2.00,49.9,M,32.4,M,,*69
$GPGLL,3730.48045,N,02327.22972,E,201246.00,A,A*68
$GPRMC,201247.00,A,3730.48029,N,02327.22971,E,0.076,,270424,,,A*7F
$GPGGA,201247.00,3730.48029,N,02327.22971,E,1,07,1.42,50.6,M,32.4,M,,*63
$GPGLL,3730.48029,N,02327.22971,E,201247.00,A,A*60
$GPRMC,201248.00,A,3730.48035,N,02327.22944,E,0.239,,270424,,,A*72
$GPGGA,201248.00,3730.48035,N,02327.22944,E,1,07,1.42,50.5,M,32.4,M,,*64
$GPGLL,3730.48035,N,02327.22944,E,201248.00,A,A*64
$GPRMC,201249.00,A,3730.48031,N,02327.22936,E,0.182,,270424,,,A*71
$GPGGA,201249.00,3730.48031,N,02327.22936,E,1,07,1.42,50.8,M,32.4,M,,*69
$GPGLL,3730.48031,N,02327.22936,E,201249.00,A,A*64
$GPRMC,201250.00,A,3730.48017,N,02327.22929,E,0.327,,270424,,,A*7E
$GPGGA,201250.00,3730.48017,N,02327.22929,E,1,07,1.42,51.5,M,32.4,M,,*67
$GPGLL,3730.48017,N,02327.22929,E,201250.00,A,A*66
$GPRMC,201251.00,A,3730.48014,N,02327.22940,E,0.258,,270424,,,A*7A
$GPGGA,201251.00,3730.48014,N,02327.22940,E,1,07,1.42,51.7,M,32.4,M,,*68
$GPGLL,3730.48014,N,02327.22940,E,201251.00,A,A*6B
$GPRMC,201252.00,A,3730.48005,N,02327.22931,E,0.444,,270424,,,A*74
$GPGGA,201252.00,3730.48005,N,02327.22931,E,1,07,1.42,52.3,M,32.4,M,,*6A
$GPGLL,3730.48005,N,02327.22931,E,201252.00,A,A*6E
$GPRMC,201253.00,A,3730.47993,N,02327.22932,E,0.322,,270424,,,A*78
$GPGGA,201253.00,3730.47993,N,02327.22932,E,1,07,1.42,52.6,M,32.4,M,,*64
$GPGLL,3730.47993,N,02327.22932,E,201253.00,A,A*65
$GPRMC,201254.00,A,3730.47989,N,02327.22936,E,0.318,,270424,,,A*79
$GPGGA,201254.00,3730.47989,N,02327.22936,E,1,07,1.42,52.8,M,32.4,M,,*62
$GPGLL,3730.47989,N,02327.22936,E,201254.00,A,A*6D
$GPRMC,201255.00,A,3730.47978,N,02327.22938,E,0.325,,270424,,,A*76
$GPGGA,201255.00,3730.47978,N,02327.22938,E,1,07,1.42,53.3,M,32.4,M,,*69
$GPGLL,3730.47978,N,02327.22938,E,201255.00,A,A*6C
$GPRMC,201256.00,A,3730.47950,N,02327.22967,E,0.078,,270424,,,A*7E
$GPGGA,201256.00,3730.47950,N,02327.22967,E,1,06,2.16,53.8,M,32.4,M,,*62
$GPGLL,3730.47950,N,02327.22967,E,201256.00,A,A*6F
$GPRMC,201257.00,A,3730.47925,N,02327.22990,E,0.326,,270424,,,A*7D
$GPGGA,201257.00,3730.47925,N,02327.22990,E,1,06,2.16,54.3,M,32.4,M,,*65
$GPGLL,3730.47925,N,02327.22990,E,201257.00,A,A*64
$GPRMC,201258.00,A,3730.47935,N,02327.22951,E,0.146,,270424,,,A*7A
$GPGGA,201258.00,3730.47935,N,02327.22951,E,1,06,2.16,54.7,M,32.4,M,,*62
$GPGLL,3730.47935,N,02327.22951,E,201258.00,A,A*67
$GPRMC,201259.00,A,3730.47922,N,02327.22962,E,0.205,,270424,,,A*79
$GPGGA,201259.00,3730.47922,N,02327.22962,E,1,06,2.16,54.9,M,32.4,M,,*6B
$GPGLL,3730.47922,N,02327.22962,E,201259.00,A,A*60
$GPRMC,201300.00,A,3730.47910,N,02327.22968,E,0.040,,270424,,,A*7C
$GPGGA,201300.00,3730.47910,N,02327.22968,E,1,06,2.16,55.3,M,32.4,M,,*66
$GPGLL,3730.47910,N,02327.22968,E,201300.00,A,A*66
$GPRMC,201301.00,A,3730.47910,N,02327.22936,E,0.318,,270424,,,A*78
$GPGGA,201301.00,3730.47910,N,02327.22936,E,1,06,2.16,55.5,M,32.4,M,,*6A
$GPGLL,3730.47910,N,02327.22936,E,201301.00,A,A*6C
$GPRMC,201302.00,A,3730.47882,N,02327.22963,E,0.213,,270424,,,A*7B
$GPGGA,201302.00,3730.47882,N,02327.22963,E,1,07,2.16,55.9,M,32.4,M,,*6E
$GPGLL,3730.47882,N,02327.22963,E,201302.00,A,A*65
$GPRMC,201303.00,A,3730.47875,N,02327.22953,E,0.225,,270424,,,A*74
$GPGGA,201303.00,3730.47875,N,02327.22953,E,1,07,2.16,56.1,M,32.4,M,,*6F
$GPGLL,3730.47875,N,02327.22953,E,201303.00,A,A*6F
$GPRMC,201304.00,A,3730.47836,N,02327.22983,E,0.382,,270424,,,A*75
$GPGGA,201304.00,3730.47836,N,02327.22983,E,1,07,1.42,56.7,M,32.4,M,,*66
$GPGLL,3730.47836,N,02327.22983,E,201304.00,A,A*62
$GPRMC,201305.00,A,3730.47842,N,02327.22934,E,0.237,,270424,,,A*74
$GPGGA,201305.00,3730.47842,N,02327.22934,E,1,07,1.42,57.2,M,32.4,M,,*6C
$GPGLL,3730.47842,N,02327.22934,E,201305.00,A,A*6C
$GPRMC,201306.00,A,3730.47831,N,02327.22915,E,0.093,,270424,,,A*7C
$GPGGA,201306.00,3730.47831,N,02327.22915,E,1,07,1.42,58.0,M,32.4,M,,*65
$GPGLL,3730.47831,N,02327.22915,E,201306.00,A,A*68
$GPRMC,201307.00,A,3730.47815,N,02327.22868,E,0.403,,270424,,,A*7D
$GPGGA,201307.00,3730.47815,N,02327.22868,E,1,07,1.42,58.8,M,32.4,M,,*61
$GPGLL,3730.47815,N,02327.22868,E,201307.00,A,A*64
$GPRMC,201308.00,A,3730.47838,N,02327.22802,E,0.608,,270424,,,A*78
$GPGGA,201308.00,3730.47838,N,02327.22802,E,1,06,2.16,58.9,M,32.4,M,,*6F
$GPGLL,3730.47838,N,02327.22802,E,201308.00,A,A*68
$GPRMC,201309.00,A,3730.47858,N,02327.22749,E,0.732,,270424,,,A*77
$GPGGA,201309.00,3730.47858,N,02327.22749,E,1,05,4.35,58.9,M,32.4,M,,*6C
$GPGLL,3730.47858,N,02327.22749,E,201309.00,A,A*6F
$GPRMC,201310.00,A,3730.47863,N,02327.22737,E,0.528,,270424,,,A*77
$GPGGA,201310.00,3730.47863,N,02327.22737,E,1,05,4.35,58.8,M,32.4,M,,*64
$GPGLL,3730.47863,N,02327.22737,E,201310.00,A,A*66
$GPRMC,201311.00,A,3730.47859,N,02327.22738,E,0.414,,270424,,,A*7E
$GPGGA,201311.00,3730.47859,N,02327.22738,E,1,05,4.35,58.7,M,32.4,M,,*6C
$GPGLL,3730.47859,N,02327.22738,E,201311.00,A,A*61
$GPRMC,201312.00,A,3730.47859,N,02327.22736,E,0.372,,270424,,,A*74
$GPGGA,201312.00,3730.47859,N,02327.22736,E,1,05,4.34,58.6,M,32.4,M,,*61
$GPGLL,3730.47859,N,02327.22736,E,201312.00,A,A*6C
$GPRMC,201313.00,A,3730.47868,N,02327.22720,E,0.416,,270424,,,A*75
$GPGGA,201313.00,3730.47868,N,02327.22720,E,1,05,4.34,58.4,M,32.4,M,,*67
$GPGLL,3730.47868,N,02327.22720,E,201313.00,A,A*68
$GPRMC,201314.00,A,3730.47853,N,02327.22749,E,0.168,,270424,,,A*79
$GPGGA,201314.00,3730.47853,N,02327.22749,E,1,07,2.15,58.0,M,32.4,M,,*64
$GPGLL,3730.47853,N,02327.22749,E,201314.00,A,A*68
$GPRMC,201315.00,A,3730.47865,N,02327.22730,E,0.198,,270424,,,A*7C
$GPGGA,201315.00,3730.47865,N,02327.22730,E,1,07,2.15,57.6,M,32.4,M,,*67
$GPGLL,3730.47865,N,02327.22730,E,201315.00,A,A*62
$GPRMC,201316.00,A,3730.47854,N,02327.22706,E,0.110,,270424,,,A*78
$GPGGA,201316.00,3730.47854,N,02327.22706,E,1,07,1.42,58.2,M,32.4,M,,*69
$GPGLL,3730.47854,N,02327.22706,E,201316.00,A,A*66
$GPRMC,201317.00,A,3730.47813,N,02327.22729,E,0.264,,270424,,,A*77
$GPGGA,201317.00,3730.47813,N,02327.22729,E,1,07,1.42,59.0,M,32.4,M,,*65
$GPGLL,3730.47813,N,02327.22729,E,201317.00,A,A*69
$GPRMC,201318.00,A,3730.47801,N,02327.22717,E,0.334,,270424,,,A*72
$GPGGA,201318.00,3730.47801,N,02327.22717,E,1,07,1.42,59.6,M,32.4,M,,*62
$GPGLL,3730.47801,N,02327.22717,E,201318.00,A,A*68
$GPRMC,201319.00,A,3730.47779,N,02327.22702,E,0.424,,270424,,,A*71
$GPGGA,201319.00,3730.47779,N,02327.22702,E,1,07,1.42,60.3,M,32.4,M,,*68
$GPGLL,3730.47779,N,02327.22702,E,201319.00,A,A*6D
$GPRMC,201320.00,A,3730.47800,N,02327.22630,E,0.141,,270424,,,A*7C
$GPGGA,201320.00,3730.47800,N,02327.22630,E,1,07,1.42,60.9,M,32.4,M,,*69
$GPGLL,3730.47800,N,02327.22630,E,201320.00,A,A*66
$GPRMC,201321.00,A,3730.47791,N,02327.22609,E,0.143,,270424,,,A*72
$GPGGA,201321.00,3730.47791,N,02327.22609,E,1,07,1.42,61.4,M,32.4,M,,*69
$GPGLL,3730.47791,N,02327.22609,E,201321.00,A,A*6A
$GPRMC,201322.00,A,3730.47785,N,02327.22584,E,0.106,,270424,,,A*73
$GPGGA,201322.00,3730.47785,N,02327.22584,E,1,07,1.42,62.0,M,32.4,M,,*6E
$GPGLL,3730.47785,N,02327.22584,E,201322.00,A,A*6A
$GPRMC,201323.00,A,3730.47785,N,02327.22555,E,0.119,,270424,,,A*70
$GPGGA,201323.00,3730.47785,N,02327.22555,E,1,07,1.42,62.5,M,32.4,M,,*66
$GPGLL,3730.47785,N,02327.22555,E,201323.00,A,A*67
$GPRMC,201324.00,A,3730.47768,N,02327.22548,E,0.177,,270424,,,A*70
$GPGGA,201324.00,3730.47768,N,02327.22548,E,1,07,1.42,63.1,M,32.4,M,,*6B
$GPGLL,3730.47768,N,02327.22548,E,201324.00,A,A*6F
$GPRMC,201325.00,A,3730.47778,N,02327.22516,E,0.181,,270424,,,A*72
$GPGGA,201325.00,3730.47778,N,02327.22516,E,1,07,1.42,63.3,M,32.4,M,,*62
$GPGLL,3730.47778,N,02327.22516,E,201325.00,A,A*64
$GPRMC,201326.00,A,3730.47797,N,02327.22476,E,0.202,,270424,,,A*7F
$GPGGA,201326.00,3730.47797,N,02327.22476,E,1,07,1.42,63.5,M,32.4,M,,*61
$GPGLL,3730.47797,N,02327.22476,E,201326.00,A,A*61
$GPRMC,201327.00,A,3730.47791,N,02327.22470,E,0.175,,270424,,,A*7D
$GPGGA,201327.00,3730.47791,N,02327.22470,E,1,07,1.42,63.6,M,32.4,M,,*63
$GPGLL,3730.47791,N,02327.22470,E,201327.00,A,A*60
$GPRMC,201328.00,A,3730.47803,N,02327.22447,E,0.117,,270424,,,A*76
$GPGGA,201328.00,3730.47803,N,02327.22447,E,1,07,1.42,63.8,M,32.4,M,,*62
$GPGLL,3730.47803,N,02327.22447,E,201328.00,A,A*6F
$GPRMC,201329.00,A,3730.47820,N,02327.22420,E,0.192,,270424,,,A*7A
$GPGGA,201329.00,3730.47820,N,02327.22420,E,1,07,1.42,63.9,M,32.4,M,,*62
$GPGLL,3730.47820,N,02327.22420,E,201329.00,A,A*6E
$GPRMC,201330.00,A,3730.47798,N,02327.22453,E,0.252,,270424,,,A*75
$GPGGA,201330.00,3730.47798,N,02327.22453,E,1,07,1.41,64.1,M,32.4,M,,*6E
$GPGLL,3730.47798,N,02327.22453,E,201330.00,A,A*6E
$GPRMC,201331.00,A,3730.47819,N,02327.22425,E,0.185,,270424,,,A*7A
$GPGGA,201331.00,3730.47819,N,02327.22425,E,1,07,1.41,64.2,M,32.4,M,,*6B
$GPGLL,3730.47819,N,02327.22425,E,201331.00,A,A*68
$GPRMC,201332.00,A,3730.47823,N,02327.22402,E,0.162,,270424,,,A*7C
$GPGGA,201332.00,3730.47823,N,02327.22402,E,1,07,1.41,64.7,M,32.4,M,,*61
$GPGLL,3730.47823,N,02327.22402,E,201332.00,A,A*67
$GPRMC,201333.00,A,3730.47821,N,02327.22389,E,0.096,,270424,,,A*71
$GPGGA,201333.00,3730.47821,N,02327.22389,E,1,07,1.41,65.2,M,32.4,M,,*62
$GPGLL,3730.47821,N,02327.22389,E,201333.00,A,A*60
$GPRMC,201334.00,A,3730.47839,N,02327.22357,E,0.356,,270424,,,A*73
$GPGGA,201334.00,3730.47839,N,02327.22357,E,1,07,1.41,65.7,M,32.4,M,,*6A
$GPGLL,3730.47839,N,02327.22357,E,201334.00,A,A*6D
$GPRMC,201335.00,A,3730.47833,N,02327.22355,E,0.226,,270424,,,A*7C
$GPGGA,201335.00,3730.47833,N,02327.22355,E,1,07,1.41,66.2,M,32.4,M,,*65
$GPGLL,3730.47833,N,02327.22355,E,201335.00,A,A*64
$GPRMC,201336.00,A,3730.47832,N,02327.22344,E,0.123,,270424,,,A*78
$GPGGA,201336.00,3730.47832,N,02327.22344,E,1,07,1.41,66.6,M,32.4,M,,*63
$GPGLL,3730.47832,N,02327.22344,E,201336.00,A,A*66
$GPRMC,201337.00,A,3730.47844,N,02327.22314,E,0.188,,270424,,,A*7C
$GPGGA,201337.00,3730.47844,N,02327.22314,E,1,07,1.41,67.1,M,32.4,M,,*60
$GPGLL,3730.47844,N,02327.22314,E,201337.00,A,A*63
$GPRMC,201338.00,A,3730.47858,N,02327.22272,E,0.427,,270424,,,A*7F
$GPGGA,201338.00,3730.47858,N,02327.22272,E,1,07,1.41,67.7,M,32.4,M,,*65
$GPGLL,3730.47858,N,02327.22272,E,201338.00,A,A*60
$GPRMC,201339.00,A,3730.47823,N,02327.22293,E,0.108,,270424,,,A*75
$GPGGA,201339.00,3730.47823,N,02327.22293,E,1,07,1.41,68.4,M,32.4,M,,*6B
$GPGLL,3730.47823,N,02327.22293,E,201339.00,A,A*62
$GPRMC,201340.00,A,3730.47804,N,02327.22301,E,0.250,,270424,,,A*7A
$GPGGA,201340.00,3730.47804,N,02327.22301,E,1,07,1.41,68.7,M,32.4,M,,*69
$GPGLL,3730.47804,N,02327.22301,E,201340.00,A,A*63
$GPRMC,201341.00,A,3730.47816,N,02327.22271,E,0.394,,270424,,,A*77
$GPGGA,201341.00,3730.47816,N,02327.22271,E,1,07,1.41,69.0,M,32.4,M,,*6B
$GPGLL,3730.47816,N,02327.22271,E,201341.00,A,A*67
$GPRMC,201342.00,A,3730.47825,N,02327.22265,E,0.395,,270424,,,A*70
$GPGGA,201342.00,3730.47825,N,02327.22265,E,1,07,1.41,68.9,M,32.4,M,,*65
$GPGLL,3730.47825,N,02327.22265,E,201342.00,A,A*61
$GPRMC,201343.00,A,3730.47830,N,02327.22249,E,0.476,,270424,,,A*71
$GPGGA,201343.00,3730.47830,N,02327.22249,E,1,07,1.41,69.3,M,32.4,M,,*65
$GPGLL,3730.47830,N,02327.22249,E,201343.00,A,A*6A
$GPRMC,201344.00,A,3730.47843,N,02327.22227,E,0.593,,270424,,,A*70
$GPGGA,201344.00,3730.47843,N,02327.22227,E,1,07,1.41,69.7,M,32.4,M,,*6A
$GPGLL,3730.47843,N,02327.22227,E,201344.00,A,A*61
$GPRMC,201345.00,A,3730.47885,N,02327.22152,E,0.989,,270424,,,A*7D
$GPGGA,201345.00,3730.47885,N,02327.22152,E,1,07,1.41,70.4,M,32.4,M,,*6B
$GPGLL,3730.47885,N,02327.22152,E,201345.00,A,A*6B
$GPRMC,201346.00,A,3730.47893,N,02327.22135,E,0.827,,270424,,,A*7D
$GPGGA,201346.00,3730.47893,N,02327.22135,E,1,07,1.41,70.9,M,32.4,M,,*63
$GPGLL,3730.47893,N,02327.22135,E,201346.00,A,A*6E
$GPRMC,201347.00,A,3730.47884,N,02327.22146,E,0.696,,270424,,,A*7A
$GPGGA,201347.00,3730.47884,N,02327.22146,E,1,07,1.41,71.1,M,32.4,M,,*69
$GPGLL,3730.47884,N,02327.22146,E,201347.00,A,A*6D
$GPRMC,201348.00,A,3730.47849,N,02327.22185,E,0.412,,270424,,,A*75
$GPGGA,201348.00,3730.47849,N,02327.22185,E,1,07,1.41,71.6,M,32.4,M,,*6F
$GPGLL,3730.47849,N,02327.22185,E,201348.00,A,A*6C
$GPRMC,201349.00,A,3730.47856,N,02327.22180,E,0.393,,270424,,,A*71
$GPGGA,201349.00,3730.47856,N,02327.22180,E,1,07,1.41,71.6,M,32.4,M,,*65
$GPGLL,3730.47856,N,02327.22180,E,201349.00,A,A*66
$GPRMC,201350.00,A,3730.47849,N,02327.22194,E,0.170,,270424,,,A*7D
$GPGGA,201350.00,3730.47849,N,02327.22194,E,1,07,1.41,71.6,M,32.4,M,,*66
$GPGLL,3730.47849,N,02327.22194,E,201350.00,A,A*65
$GPRMC,201351.00,A,3730.47845,N,02327.22210,E,0.123,,270424,,,A*79
$GPGGA,201351.00,3730.47845,N,02327.22210,E,1,07,1.41,71.3,M,32.4,M,,*61
$GPGLL,3730.47845,N,02327.22210,E,201351.00,A,A*67
$GPRMC,201352.00,A,3730.47803,N,02327.22266,E,0.368,,270424,,,A*74
$GPGGA,201352.00,3730.47803,N,02327.22266,E,1,07,1.41,71.5,M,32.4,M,,*67
$GPGLL,3730.47803,N,02327.22266,E,201352.00,A,A*67
$GPRMC,201353.00,A,3730.47817,N,02327.22258,E,0.210,,270424,,,A*73
$GPGGA,201353.00,3730.47817,N,02327.22258,E,1,07,1.41,71.4,M,32.4,M,,*6F
$GPGLL,3730.47817,N,02327.22258,E,201353.00,A,A*6E
$GPRMC,201354.00,A,3730.47849,N,02327.22234,E,0.118,,270424,,,A*7E
$GPGGA,201354.00,3730.47849,N,02327.22234,E,1,07,1.41,71.1,M,32.4,M,,*6C
$GPGLL,3730.47849,N,02327.22234,E,201354.00,A,A*68
$GPRMC,201355.00,A,3730.47845,N,02327.22239,E,0.223,,270424,,,A*75
$GPGGA,201355.00,3730.47845,N,02327.22239,E,1,07,1.41,71.2,M,32.4,M,,*6F
$GPGLL,3730.47845,N,02327.22239,E,201355.00,A,A*68
$GPRMC,201356.00,A,3730.47892,N,02327.22194,E,0.465,,270424,,,A*7C
$GPGGA,201356.00,3730.47892,N,02327.22194,E,1,07,1.41,71.3,M,32.4,M,,*63
$GPGLL,3730.47892,N,02327.22194,E,201356.00,A,A*65
$GPRMC,201357.00,A,3730.47915,N,02327.22179,E,0.497,,270424,,,A*7D
$GPGGA,201357.00,3730.47915,N,02327.22179,E,1,07,1.41,71.3,M,32.4,M,,*6F
$GPGLL,3730.47915,N,02327.22179,E,201357.00,A,A*69
$GPRMC,201358.00,A,3730.47897,N,02327.22208,E,0.059,,270424,,,A*7A
$GPGGA,201358.00,3730.47897,N,02327.22208,E,1,07,1.41,71.3,M,32.4,M,,*6E
$GPGLL,3730.47897,N,02327.22208,E,201358.00,A,A*68
$GPRMC,201359.00,A,3730.47915,N,02327.22201,E,0.066,,270424,,,A*75
$GPGGA,201359.00,3730.47915,N,02327.22201,E,1,07,1.41,71.3,M,32.4,M,,*6D
$GPGLL,3730.47915,N,02327.22201,E,201359.00,A,A*6B
$GPRMC,201400.00,A,3730.47937,N,02327.22182,E,0.168,,270424,,,A*79
$GPGGA,201400.00,3730.47937,N,02327.22182,E,1,07,1.41,71.2,M,32.4,M,,*6F
$GPGLL,3730.47937,N,02327.22182,E,201400.00,A,A*68
$GPRMC,201401.00,A,3730.47944,N,02327.22162,E,0.323,,270424,,,A*7F
$GPGGA,201401.00,3730.47944,N,02327.22162,E,1,07,1.41,71.0,M,32.4,M,,*66
$GPGLL,3730.47944,N,02327.22162,E,201401.00,A,A*63
$GPRMC,201402.00,A,3730.47942,N,02327.22166,E,0.327,,270424,,,A*7A
$GPGGA,201402.00,3730.47942,N,02327.22166,E,1,07,1.41,70.9,M,32.4,M,,*6F
$GPGLL,3730.47942,N,02327.22166,E,201402.00,A,A*62
$GPRMC,201403.00,A,3730.47966,N,02327.22148,E,0.379,,270424,,,A*7A
$GPGGA,201403.00,3730.47966,N,02327.22148,E,1,07,1.41,70.8,M,32.4,M,,*65
$GPGLL,3730.47966,N,02327.22148,E,201403.00,A,A*69
$GPRMC,201404.00,A,3730.47966,N,02327.22167,E,0.106,,270424,,,A*7A
$GPGGA,201404.00,3730.47966,N,02327.22167,E,1,06,1.66,70.7,M,32.4,M,,*64
$GPGLL,3730.47966,N,02327.22167,E,201404.00,A,A*63
$GPRMC,201405.00,A,3730.47987,N,02327.22154,E,0.276,,270424,,,A*70
$GPGGA,201405.00,3730.47987,N,02327.22154,E,1,06,1.66,70.5,M,32.4,M,,*68
$GPGLL,3730.47987,N,02327.22154,E,201405.00,A,A*6D
$GPRMC,201406.00,A,3730.47996,N,02327.22152,E,0.221,,270424,,,A*77
$GPGGA,201406.00,3730.47996,N,02327.22152,E,1,06,1.66,70.2,M,32.4,M,,*6A
$GPGLL,3730.47996,N,02327.22152,E,201406.00,A,A*68
$GPRMC,201407.00,A,3730.48000,N,02327.22141,E,0.129,,270424,,,A*76
$GPGGA,201407.00,3730.48000,N,02327.22141,E,1,06,1.66,70.0,M,32.4,M,,*62
$GPGLL,3730.48000,N,02327.22141,E,201407.00,A,A*62
$GPRMC,201408.00,A,3730.48000,N,02327.22145,E,0.162,,270424,,,A*72
$GPGGA,201408.00,3730.48000,N,02327.22145,E,1,06,1.66,69.8,M,32.4,M,,*69
$GPGLL,3730.48000,N,02327.22145,E,201408.00,A,A*69
$GPRMC,201409.00,A,3730.47993,N,02327.22158,E,0.104,,270424,,,A*73
$GPGGA,201409.00,3730.47993,N,02327.22158,E,1,06,1.66,69.7,M,32.4,M,,*67
$GPGLL,3730.47993,N,02327.22158,E,201409.00,A,A*68
$GPRMC,201410.00,A,3730.48007,N,02327.22150,E,0.165,,270424,,,A*7F
$GPGGA,201410.00,3730.48007,N,02327.22150,E,1,06,1.66,69.5,M,32.4,M,,*6E
$GPGLL,3730.48007,N,02327.22150,E,201410.00,A,A*63
$GPRMC,201411.00,A,3730.48004,N,02327.22164,E,0.074,,270424,,,A*7B
$GPGGA,201411.00,3730.48004,N,02327.22164,E,1,06,1.66,69.4,M,32.4,M,,*6A
$GPGLL,3730.48004,N,02327.22164,E,201411.00,A,A*66
$GPRMC,201412.00,A,3730.48003,N,02327.22168,E,0.089,,270424,,,A*71
$GPGGA,201412.00,3730.48003,N,02327.22168,E,1,06,1.66,69.1,M,32.4,M,,*67
$GPGLL,3730.48003,N,02327.22168,E,201412.00,A,A*6E
$GPRMC,201413.00,A,3730.47991,N,02327.22176,E,0.241,,270424,,,A*74
$GPGGA,201413.00,3730.47991,N,02327.22176,E,1,06,1.66,68.7,M,32.4,M,,*63
$GPGLL,3730.47991,N,02327.22176,E,201413.00,A,A*6D
$GPRMC,201414.00,A,3730.47979,N,02327.22191,E,0.367,,270424,,,A*79
$GPGGA,201414.00,3730.47979,N,02327.22191,E,1,06,1.66,68.3,M,32.4,M,,*6F
$GPGLL,3730.47979,N,02327.22191,E,201414.00,A,A*65
$GPRMC,201415.00,A,3730.47994,N,02327.22171,E,0.346,,270424,,,A*76
$GPGGA,201415.00,3730.47994,N,02327.22171,E,1,06,1.66,67.8,M,32.4,M,,*67
$GPGLL,3730.47994,N,02327.22171,E,201415.00,A,A*69
$GPRMC,201416.00,A,3730.47997,N,02327.22167,E,0.222,,270424,,,A*72
$GPGGA,201416.00,3730.47997,N,02327.22167,E,1,06,1.66,67.5,M,32.4,M,,*6D
$GPGLL,3730.47997,N,02327.22167,E,201416.00,A,A*6E
$GPRMC,201417.00,A,3730.47982,N,02327.22196,E,0.361,,270424,,,A*7F
$GPGGA,201417.00,3730.47982,N,02327.22196,E,1,06,1.66,67.3,M,32.4,M,,*60
$GPGLL,3730.47982,N,02327.22196,E,201417.00,A,A*65
$GPRMC,201418.00,A,3730.47959,N,02327.22235,E,0.511,,270424,,,A*7D
$GPGGA,201418.00,3730.47959,N,02327.22235,E,1,07,1.66,67.1,M,32.4,M,,*60
$GPGLL,3730.47959,N,02327.22235,E,201418.00,A,A*66
$GPRMC,201419.00,A,3730.47979,N,02327.22205,E,0.193,,270424,,,A*73
$GPGGA,201419.00,3730.47979,N,02327.22205,E,1,07,1.66,67.0,M,32.4,M,,*61
$GPGLL,3730.47979,N,02327.22205,E,201419.00,A,A*66
