$GPRMC,000001.00,A,3730.48632,N,02327.23001,E,0.274,,280424,,,A*70
$GPGGA,000001.00,3730.48632,N,02327.23001,E,1,05,1.70,34.5,M,32.4,M,,*61
$GPGLL,3730.48632,N,02327.23001,E,000001.00,A,A*60
$GPRMC,000002.00,A,3730.48634,N,02327.22973,E,0.278,,280424,,,A*74
$GPGGA,000002.00,3730.48634,N,02327.22973,E,1,06,1.62,33.9,M,32.4,M,,*62
$GPGLL,3730.48634,N,02327.22973,E,000002.00,A,A*68
$GPRMC,000003.00,A,3730.48639,N,02327.22953,E,0.315,,280424,,,A*70
$GPGGA,000003.00,3730.48639,N,02327.22953,E,1,06,1.62,33.5,M,32.4,M,,*60
$GPGLL,3730.48639,N,02327.22953,E,000003.00,A,A*66
$GPRMC,000004.00,A,3730.48638,N,02327.22931,E,0.398,,280424,,,A*77
$GPGGA,000004.00,3730.48638,N,02327.22931,E,1,06,1.70,33.1,M,32.4,M,,*65
$GPGLL,3730.48638,N,02327.22931,E,000004.00,A,A*64
$GPRMC,000005.00,A,3730.48663,N,02327.22908,E,0.093,,280424,,,A*7A
$GPGGA,000005.00,3730.48663,N,02327.22908,E,1,07,1.70,32.6,M,32.4,M,,*67
$GPGLL,3730.48663,N,02327.22908,E,000005.00,A,A*61
$GPRMC,000006.00,A,3730.48676,N,02327.22876,E,0.241,,280424,,,A*78
$GPGGA,000006.00,3730.48676,N,02327.22876,E,1,07,1.70,32.0,M,32.4,M,,*6E
$GPGLL,3730.48676,N,02327.22876,E,000006.00,A,A*6E
$GPRMC,000007.00,A,3730.48696,N,02327.22847,E,0.165,,280424,,,A*70
$GPGGA,000007.00,3730.48696,N,02327.22847,E,1,07,1.70,31.6,M,32.4,M,,*66
$GPGLL,3730.48696,N,02327.22847,E,000007.00,A,A*63
$GPRMC,000008.00,A,3730.48711,N,02327.22824,E,0.215,,280424,,,A*70
$GPGGA,000008.00,3730.48711,N,02327.22824,E,1,07,1.42,31.4,M,32.4,M,,*61
$GPGLL,3730.48711,N,02327.22824,E,000008.00,A,A*67
$GPRMC,000009.00,A,3730.48713,N,02327.22819,E,0.170,,280424,,,A*7D
$GPGGA,000009.00,3730.48713,N,02327.22819,E,1,07,1.42,31.5,M,32.4,M,,*6D
$GPGLL,3730.48713,N,02327.22819,E,000009.00,A,A*6A
$GPRMC,000010.00,A,3730.48741,N,02327.22800,E,0.094,,280424,,,A*71
$GPGGA,000010.00,3730.48741,N,02327.22800,E,1,07,1.33,31.3,M,32.4,M,,*6A
$GPGLL,3730.48741,N,02327.22800,E,000010.00,A,A*6D
$GPRMC,000011.00,A,3730.48774,N,02327.22765,E,0.180,,280424,,,A*7E
$GPGGA,000011.00,3730.48774,N,02327.22765,E,1,07,1.33,30.9,M,32.4,M,,*6A
$GPGLL,3730.48774,N,02327.22765,E,000011.00,A,A*66
$GPRMC,000012.00,A,3730.48821,N,02327.22755,E,0.442,,280424,,,A*7A
$GPGGA,000012.00,3730.48821,N,02327.22755,E,1,07,1.33,30.7,M,32.4,M,,*6B
$GPGLL,3730.48821,N,02327.22755,E,000012.00,A,A*69
$GPRMC,000013.00,A,3730.48842,N,02327.22727,E,0.281,,280424,,,A*72
$GPGGA,000013.00,3730.48842,N,02327.22727,E,1,07,1.33,30.4,M,32.4,M,,*69
$GPGLL,3730.48842,N,02327.22727,E,000013.00,A,A*68
$GPRMC,000014.00,A,3730.48877,N,02327.22717,E,0.343,,280424,,,A*7F
$GPGGA,000014.00,3730.48877,N,02327.22717,E,1,07,1.33,30.0,M,32.4,M,,*6F
$GPGLL,3730.48877,N,02327.22717,E,000014.00,A,A*6A
$GPRMC,000015.00,A,3730.48894,N,02327.22685,E,0.230,,280424,,,A*7C
$GPGGA,000015.00,3730.48894,N,02327.22685,E,1,07,1.33,29.5,M,32.4,M,,*64
$GPGLL,3730.48894,N,02327.22685,E,000015.00,A,A*6C
$GPRMC,000016.00,A,3730.48917,N,02327.22659,E,0.223,,280424,,,A*76
$GPGGA,000016.00,3730.48917,N,02327.22659,E,1,07,1.33,29.0,M,32.4,M,,*69
$GPGLL,3730.48917,N,02327.22659,E,000016.00,A,A*64
$GPRMC,000017.00,A,3730.48934,N,02327.22649,E,0.210,,280424,,,A*77
$GPGGA,000017.00,3730.48934,N,02327.22649,E,1,07,1.33,29.0,M,32.4,M,,*68
$GPGLL,3730.48934,N,02327.22649,E,000017.00,A,A*65
$GPRMC,000018.00,A,3730.48969,N,02327.22633,E,0.369,,280424,,,A*72
$GPGGA,000018.00,3730.48969,N,02327.22633,E,1,07,1.33,28.6,M,32.4,M,,*65
$GPGLL,3730.48969,N,02327.22633,E,000018.00,A,A*6F
$GPRMC,000019.00,A,3730.48976,N,02327.22620,E,0.126,,280424,,,A*76
$GPGGA,000019.00,3730.48976,N,02327.22620,E,1,07,1.33,28.7,M,32.4,M,,*69
$GPGLL,3730.48976,N,02327.22620,E,000019.00,A,A*62
$GPRMC,000020.00,A,3730.49009,N,02327.22626,E,0.397,,280424,,,A*72
$GPGGA,000020.00,3730.49009,N,02327.22626,E,1,07,1.33,28.7,M,32.4,M,,*65
$GPGLL,3730.49009,N,02327.22626,E,000020.00,A,A*6E
$GPRMC,000021.00,A,3730.49011,N,02327.22617,E,0.088,,280424,,,A*75
$GPGGA,000021.00,3730.49011,N,02327.22617,E,1,07,1.33,28.8,M,32.4,M,,*60
$GPGLL,3730.49011,N,02327.22617,E,000021.00,A,A*64
$GPRMC,000022.00,A,3730.49051,N,02327.22625,E,0.510,,280424,,,A*77
$GPGGA,000022.00,3730.49051,N,02327.22625,E,1,07,1.33,28.8,M,32.4,M,,*66
$GPGLL,3730.49051,N,02327.22625,E,000022.00,A,A*62
$GPRMC,000023.00,A,3730.49073,N,02327.22635,E,0.568,,280424,,,A*78
$GPGGA,000023.00,3730.49073,N,02327.22635,E,1,07,1.33,28.9,M,32.4,M,,*67
$GPGLL,3730.49073,N,02327.22635,E,000023.00,A,A*62
$GPRMC,000024.00,A,3730.49084,N,02327.22636,E,0.450,,280424,,,A*7E
$GPGGA,000024.00,3730.49084,N,02327.22636,E,1,07,1.33,29.1,M,32.4,M,,*62
$GPGLL,3730.49084,N,02327.22636,E,000024.00,A,A*6E
$GPRMC,000025.00,A,3730.49073,N,02327.22630,E,0.147,,280424,,,A*72
$GPGGA,000025.00,3730.49073,N,02327.22630,E,1,07,1.33,29.6,M,32.4,M,,*6A
$GPGLL,3730.49073,N,02327.22630,E,000025.00,A,A*61
$GPRMC,000026.00,A,3730.49069,N,02327.22623,E,0.091,,280424,,,A*72
$GPGGA,000026.00,3730.49069,N,02327.22623,E,1,07,1.33,30.0,M,32.4,M,,*6E
$GPGLL,3730.49069,N,02327.22623,E,000026.00,A,A*6B
$GPRMC,000027.00,A,3730.49054,N,02327.22598,E,0.285,,280424,,,A*79
$GPGGA,000027.00,3730.49054,N,02327.22598,E,1,07,1.33,30.1,M,32.4,M,,*63
$GPGLL,3730.49054,N,02327.22598,E,000027.00,A,A*67
$GPRMC,000028.00,A,3730.49060,N,02327.22603,E,0.055,,280424,,,A*7F
$GPGGA,000028.00,3730.49060,N,02327.22603,E,1,07,1.33,30.6,M,32.4,M,,*6D
$GPGLL,3730.49060,N,02327.22603,E,000028.00,A,A*6E
$GPRMC,000029.00,A,3730.49052,N,02327.22598,E,0.095,,280424,,,A*72
$GPGGA,000029.00,3730.49052,N,02327.22598,E,1,07,1.33,30.9,M,32.4,M,,*63
$GPGLL,3730.49052,N,02327.22598,E,000029.00,A,A*6F
$GPRMC,000030.00,A,3730.49058,N,02327.22609,E,0.206,,280424,,,A*73
$GPGGA,000030.00,3730.49058,N,02327.22609,E,1,07,1.33,31.2,M,32.4,M,,*60
$GPGLL,3730.49058,N,02327.22609,E,000030.00,A,A*66
$GPRMC,000031.00,A,3730.49064,N,02327.22626,E,0.365,,280424,,,A*74
$GPGGA,000031.00,3730.49064,N,02327.22626,E,1,07,1.33,31.6,M,32.4,M,,*67
$GPGLL,3730.49064,N,02327.22626,E,000031.00,A,A*65
$GPRMC,000032.00,A,3730.49059,N,02327.22627,E,0.264,,280424,,,A*78
$GPGGA,000032.00,3730.49059,N,02327.22627,E,1,07,1.33,31.8,M,32.4,M,,*65
$GPGLL,3730.49059,N,02327.22627,E,000032.00,A,A*69
$GPRMC,000033.00,A,3730.49048,N,02327.22615,E,0.121,,280424,,,A*7A
$GPGGA,000033.00,3730.49048,N,02327.22615,E,1,06,1.89,31.8,M,32.4,M,,*65
$GPGLL,3730.49048,N,02327.22615,E,000033.00,A,A*69
$GPRMC,000034.00,A,3730.49046,N,02327.22606,E,0.084,,280424,,,A*7F
$GPGGA,000034.00,3730.49046,N,02327.22606,E,1,06,1.89,31.8,M,32.4,M,,*6E
$GPGLL,3730.49046,N,02327.22606,E,000034.00,A,A*62
$GPRMC,000035.00,A,3730.49041,N,02327.22597,E,0.086,,280424,,,A*70
$GPGGA,000035.00,3730.49041,N,02327.22597,E,1,06,1.89,31.9,M,32.4,M,,*62
$GPGLL,3730.49041,N,02327.22597,E,000035.00,A,A*6F
$GPRMC,000036.00,A,3730.49047,N,02327.22598,E,0.215,,280424,,,A*72
$GPGGA,000036.00,3730.49047,N,02327.22598,E,1,06,1.89,31.9,M,32.4,M,,*68
$GPGLL,3730.49047,N,02327.22598,E,000036.00,A,A*65
$GPRMC,000037.00,A,3730.49044,N,02327.22582,E,0.070,,280424,,,A*7A
$GPGGA,000037.00,3730.49044,N,02327.22582,E,1,06,1.89,31.9,M,32.4,M,,*61
$GPGLL,3730.49044,N,02327.22582,E,000037.00,A,A*6C
$GPRMC,000038.00,A,3730.49036,N,02327.22572,E,0.057,,280424,,,A*7A
$GPGGA,000038.00,3730.49036,N,02327.22572,E,1,07,1.33,32.0,M,32.4,M,,*6E
$GPGLL,3730.49036,N,02327.22572,E,000038.00,A,A*69
$GPRMC,000039.00,A,3730.49025,N,02327.22562,E,0.276,,280424,,,A*79
$GPGGA,000039.00,3730.49025,N,02327.22562,E,1,07,1.32,32.0,M,32.4,M,,*6D
$GPGLL,3730.49025,N,02327.22562,E,000039.00,A,A*6B
$GPRMC,000040.00,A,3730.49022,N,02327.22567,E,0.149,,280424,,,A*7A
$GPGGA,000040.00,3730.49022,N,02327.22567,E,1,07,1.32,32.3,M,32.4,M,,*62
$GPGLL,3730.49022,N,02327.22567,E,000040.00,A,A*67
$GPRMC,000041.00,A,3730.49018,N,02327.22571,E,0.120,,280424,,,A*7A
$GPGGA,000041.00,3730.49018,N,02327.22571,E,1,07,1.32,32.6,M,32.4,M,,*68
$GPGLL,3730.49018,N,02327.22571,E,000041.00,A,A*68
$GPRMC,000042.00,A,3730.49007,N,02327.22569,E,0.250,,280424,,,A*7A
$GPGGA,000042.00,3730.49007,N,02327.22569,E,1,07,1.32,32.9,M,32.4,M,,*63
$GPGLL,3730.49007,N,02327.22569,E,000042.00,A,A*6C
$GPRMC,000043.00,A,3730.48997,N,02327.22554,E,0.316,,280424,,,A*77
$GPGGA,000043.00,3730.48997,N,02327.22554,E,1,07,1.32,33.0,M,32.4,M,,*65
$GPGLL,3730.48997,N,02327.22554,E,000043.00,A,A*62
$GPRMC,000044.00,A,3730.49001,N,02327.22559,E,0.126,,280424,,,A*7B
$GPGGA,000044.00,3730.49001,N,02327.22559,E,1,06,1.89,33.1,M,32.4,M,,*68
$GPGLL,3730.49001,N,02327.22559,E,000044.00,A,A*6F
$GPRMC,000045.00,A,3730.49003,N,02327.22555,E,0.191,,280424,,,A*78
$GPGGA,000045.00,3730.49003,N,02327.22555,E,1,06,1.89,33.2,M,32.4,M,,*64
$GPGLL,3730.49003,N,02327.22555,E,000045.00,A,A*60
$GPRMC,000046.00,A,3730.49005,N,02327.22552,E,0.169,,280424,,,A*7D
$GPGGA,000046.00,3730.49005,N,02327.22552,E,1,06,1.89,33.4,M,32.4,M,,*60
$GPGLL,3730.49005,N,02327.22552,E,000046.00,A,A*62
$GPRMC,000047.00,A,3730.49001,N,02327.22541,E,0.070,,280424,,,A*73
$GPGGA,000047.00,3730.49001,N,02327.22541,E,1,06,1.89,33.4,M,32.4,M,,*67
$GPGLL,3730.49001,N,02327.22541,E,000047.00,A,A*65
$GPRMC,000048.00,A,3730.48997,N,02327.22532,E,0.192,,280424,,,A*72
$GPGGA,000048.00,3730.48997,N,02327.22532,E,1,06,1.89,33.5,M,32.4,M,,*6A
$GPGLL,3730.48997,N,02327.22532,E,000048.00,A,A*69
$GPRMC,000049.00,A,3730.48995,N,02327.22533,E,0.231,,280424,,,A*7A
$GPGGA,000049.00,3730.48995,N,02327.22533,E,1,06,1.89,33.7,M,32.4,M,,*6A
$GPGLL,3730.48995,N,02327.22533,E,000049.00,A,A*6B
$GPRMC,000050.00,A,3730.48989,N,02327.22539,E,0.164,,280424,,,A*76
$GPGGA,000050.00,3730.48989,N,02327.22539,E,1,06,1.89,33.9,M,32.4,M,,*6B
$GPGLL,3730.48989,N,02327.22539,E,000050.00,A,A*64
$GPRMC,000051.00,A,3730.48984,N,02327.22545,E,0.130,,280424,,,A*70
$GPGGA,000051.00,3730.48984,N,02327.22545,E,1,06,1.89,34.1,M,32.4,M,,*63
$GPGLL,3730.48984,N,02327.22545,E,000051.00,A,A*63
$GPRMC,000052.00,A,3730.48978,N,02327.22531,E,0.070,,280424,,,A*76
$GPGGA,000052.00,3730.48978,N,02327.22531,E,1,06,1.89,34.0,M,32.4,M,,*61
$GPGLL,3730.48978,N,02327.22531,E,000052.00,A,A*60
$GPRMC,000053.00,A,3730.48977,N,02327.22516,E,0.147,,280424,,,A*78
$GPGGA,000053.00,3730.48977,N,02327.22516,E,1,06,1.89,33.9,M,32.4,M,,*64
$GPGLL,3730.48977,N,02327.22516,E,000053.00,A,A*6B
$GPRMC,000054.00,A,3730.48980,N,02327.22508,E,0.165,,280424,,,A*78
$GPGGA,000054.00,3730.48980,N,02327.22508,E,1,06,1.89,33.8,M,32.4,M,,*65
$GPGLL,3730.48980,N,02327.22508,E,000054.00,A,A*6B
$GPRMC,000055.00,A,3730.48972,N,02327.22507,E,0.095,,280424,,,A*75
$GPGGA,000055.00,3730.48972,N,02327.22507,E,1,06,1.89,33.7,M,32.4,M,,*69
$GPGLL,3730.48972,N,02327.22507,E,000055.00,A,A*68
$GPRMC,000056.00,A,3730.48972,N,02327.22535,E,0.269,,280424,,,A*76
$GPGGA,000056.00,3730.48972,N,02327.22535,E,1,06,1.89,34.0,M,32.4,M,,*6B
$GPGLL,3730.48972,N,02327.22535,E,000056.00,A,A*6A
$GPRMC,000057.00,A,3730.48974,N,02327.22537,E,0.139,,280424,,,A*75
$GPGGA,000057.00,3730.48974,N,02327.22537,E,1,06,1.89,33.9,M,32.4,M,,*60
$GPGLL,3730.48974,N,02327.22537,E,000057.00,A,A*6F
$GPRMC,000058.00,A,3730.48970,N,02327.22539,E,0.041,,280424,,,A*7E
$GPGGA,000058.00,3730.48970,N,02327.22539,E,1,06,1.89,33.9,M,32.4,M,,*65
$GPGLL,3730.48970,N,02327.22539,E,000058.00,A,A*6A
$GPRMC,000059.00,A,3730.48974,N,02327.22540,E,0.061,,280424,,,A*77
$GPGGA,000059.00,3730.48974,N,02327.22540,E,1,07,1.89,33.8,M,32.4,M,,*6E
$GPGLL,3730.48974,N,02327.22540,E,000059.00,A,A*61
$GPRMC,000100.00,A,3730.48972,N,02327.22541,E,0.054,,280424,,,A*7B
$GPGGA,000100.00,3730.48972,N,02327.22541,E,1,07,1.89,33.8,M,32.4,M,,*64
$GPGLL,3730.48972,N,02327.22541,E,000100.00,A,A*6B
$GPRMC,000101.00,A,3730.48973,N,02327.22543,E,0.052,,280424,,,A*7F
$GPGGA,000101.00,3730.48973,N,02327.22543,E,1,07,1.89,33.8,M,32.4,M,,*66
$GPGLL,3730.48973,N,02327.22543,E,000101.00,A,A*69
$GPRMC,000102.00,A,3730.48971,N,02327.22553,E,0.065,,280424,,,A*7B
$GPGGA,000102.00,3730.48971,N,02327.22553,E,1,07,1.89,33.9,M,32.4,M,,*67
$GPGLL,3730.48971,N,02327.22553,E,000102.00,A,A*69
$GPRMC,000103.00,A,3730.48967,N,02327.22550,E,0.147,,280424,,,A*7F
$GPGGA,000103.00,3730.48967,N,02327.22550,E,1,07,1.32,34.0,M,32.4,M,,*6C
$GPGLL,3730.48967,N,02327.22550,E,000103.00,A,A*6C
$GPRMC,000104.00,A,3730.48965,N,02327.22554,E,0.034,,280424,,,A*7B
$GPGGA,000104.00,3730.48965,N,02327.22554,E,1,07,1.32,34.1,M,32.4,M,,*6C
$GPGLL,3730.48965,N,02327.22554,E,000104.00,A,A*6D
$GPRMC,000105.00,A,3730.48962,N,02327.22570,E,0.134,,280424,,,A*7A
$GPGGA,000105.00,3730.48962,N,02327.22570,E,1,07,1.32,34.4,M,32.4,M,,*69
$GPGLL,3730.48962,N,02327.22570,E,000105.00,A,A*6D
$GPRMC,000106.00,A,3730.48963,N,02327.22551,E,0.122,,280424,,,A*7C
$GPGGA,000106.00,3730.48963,N,02327.22551,E,1,07,1.32,33.9,M,32.4,M,,*62
$GPGLL,3730.48963,N,02327.22551,E,000106.00,A,A*6C
$GPRMC,000107.00,A,3730.48961,N,02327.22547,E,0.124,,280424,,,A*7E
$GPGGA,000107.00,3730.48961,N,02327.22547,E,1,07,1.32,33.8,M,32.4,M,,*67
$GPGLL,3730.48961,N,02327.22547,E,000107.00,A,A*68
$GPRMC,000108.00,A,3730.48966,N,02327.22553,E,0.166,,280424,,,A*75
$GPGGA,000108.00,3730.48966,N,02327.22553,E,1,07,1.32,34.0,M,32.4,M,,*65
$GPGLL,3730.48966,N,02327.22553,E,000108.00,A,A*65
$GPRMC,000109.00,A,3730.48964,N,02327.22551,E,0.050,,280424,,,A*70
$GPGGA,000109.00,3730.48964,N,02327.22551,E,1,07,1.32,34.0,M,32.4,M,,*64
$GPGLL,3730.48964,N,02327.22551,E,000109.00,A,A*64
$GPRMC,000110.00,A,3730.48965,N,02327.22545,E,0.127,,280424,,,A*7D
$GPGGA,000110.00,3730.48965,N,02327.22545,E,1,07,1.32,33.9,M,32.4,M,,*66
$GPGLL,3730.48965,N,02327.22545,E,000110.00,A,A*68
$GPRMC,000111.00,A,3730.48967,N,02327.22564,E,0.157,,280424,,,A*7A
$GPGGA,000111.00,3730.48967,N,02327.22564,E,1,07,1.32,34.2,M,32.4,M,,*6A
$GPGLL,3730.48967,N,02327.22564,E,000111.00,A,A*68
$GPRMC,000112.00,A,3730.48972,N,02327.22577,E,0.270,,280424,,,A*79
$GPGGA,000112.00,3730.48972,N,02327.22577,E,1,07,1.32,34.5,M,32.4,M,,*68
$GPGLL,3730.48972,N,02327.22577,E,000112.00,A,A*6D
$GPRMC,000113.00,A,3730.48975,N,02327.22586,E,0.240,,280424,,,A*72
$GPGGA,000113.00,3730.48975,N,02327.22586,E,1,07,1.32,34.7,M,32.4,M,,*62
$GPGLL,3730.48975,N,02327.22586,E,000113.00,A,A*65
$GPRMC,000114.00,A,3730.48979,N,02327.22600,E,0.277,,280424,,,A*70
$GPGGA,000114.00,3730.48979,N,02327.22600,E,1,07,1.32,34.8,M,32.4,M,,*6B
$GPGLL,3730.48979,N,02327.22600,E,000114.00,A,A*63
$GPRMC,000115.00,A,3730.48978,N,02327.22588,E,0.027,,280424,,,A*74
$GPGGA,000115.00,3730.48978,N,02327.22588,E,1,07,1.32,34.5,M,32.4,M,,*65
$GPGLL,3730.48978,N,02327.22588,E,000115.00,A,A*60
$GPRMC,000116.00,A,3730.48977,N,02327.22600,E,0.079,,280424,,,A*70
$GPGGA,000116.00,3730.48977,N,02327.22600,E,1,07,1.32,34.7,M,32.4,M,,*68
$GPGLL,3730.48977,N,02327.22600,E,000116.00,A,A*6F
$GPRMC,000117.00,A,3730.48982,N,02327.22599,E,0.133,,280424,,,A*77
$GPGGA,000117.00,3730.48982,N,02327.22599,E,1,06,1.42,34.5,M,32.4,M,,*64
$GPGLL,3730.48982,N,02327.22599,E,000117.00,A,A*67
$GPRMC,000118.00,A,3730.48978,N,02327.22578,E,0.148,,280424,,,A*7E
$GPGGA,000118.00,3730.48978,N,02327.22578,E,1,06,1.42,34.0,M,32.4,M,,*64
$GPGLL,3730.48978,N,02327.22578,E,000118.00,A,A*62
$GPRMC,000119.00,A,3730.48976,N,02327.22568,E,0.213,,280424,,,A*7D
$GPGGA,000119.00,3730.48976,N,02327.22568,E,1,06,1.42,33.8,M,32.4,M,,*65
$GPGLL,3730.48976,N,02327.22568,E,000119.00,A,A*6C
$GPRMC,000120.00,A,3730.48979,N,02327.22551,E,0.223,,280424,,,A*71
$GPGGA,000120.00,3730.48979,N,02327.22551,E,1,07,1.32,33.6,M,32.4,M,,*62
$GPGLL,3730.48979,N,02327.22551,E,000120.00,A,A*63
$GPRMC,000121.00,A,3730.48988,N,02327.22544,E,0.145,,280424,,,A*79
$GPGGA,000121.00,3730.48988,N,02327.22544,E,1,07,1.32,33.4,M,32.4,M,,*6B
$GPGLL,3730.48988,N,02327.22544,E,000121.00,A,A*68
$GPRMC,000122.00,A,3730.48996,N,02327.22539,E,0.184,,280424,,,A*72
$GPGGA,000122.00,3730.48996,N,02327.22539,E,1,07,1.32,33.3,M,32.4,M,,*6A
$GPGLL,3730.48996,N,02327.22539,E,000122.00,A,A*6E
$GPRMC,000123.00,A,3730.49014,N,02327.22535,E,0.370,,280424,,,A*74
$GPGGA,000123.00,3730.49014,N,02327.22535,E,1,07,1.32,33.0,M,32.4,M,,*66
$GPGLL,3730.49014,N,02327.22535,E,000123.00,A,A*61
$GPRMC,000124.00,A,3730.49021,N,02327.22531,E,0.265,,280424,,,A*74
$GPGGA,000124.00,3730.49021,N,02327.22531,E,1,07,1.32,32.9,M,32.4,M,,*6B
$GPGLL,3730.49021,N,02327.22531,E,000124.00,A,A*64
$GPRMC,000125.00,A,3730.49036,N,02327.22538,E,0.416,,280424,,,A*78
$GPGGA,000125.00,3730.49036,N,02327.22538,E,1,07,1.32,32.8,M,32.4,M,,*64
$GPGLL,3730.49036,N,02327.22538,E,000125.00,A,A*6A
$GPRMC,000126.00,A,3730.49037,N,02327.22527,E,0.118,,280424,,,A*7F
$GPGGA,000126.00,3730.49037,N,02327.22527,E,1,07,1.32,32.5,M,32.4,M,,*65
$GPGLL,3730.49037,N,02327.22527,E,000126.00,A,A*66
$GPRMC,000127.00,A,3730.49042,N,02327.22524,E,0.091,,280424,,,A*7F
$GPGGA,000127.00,3730.49042,N,02327.22524,E,1,07,1.32,32.2,M,32.4,M,,*62
$GPGLL,3730.49042,N,02327.22524,E,000127.00,A,A*66
$GPRMC,000128.00,A,3730.49048,N,02327.22505,E,0.136,,280424,,,A*75
$GPGGA,000128.00,3730.49048,N,02327.22505,E,1,07,1.32,31.7,M,32.4,M,,*62
$GPGLL,3730.49048,N,02327.22505,E,000128.00,A,A*60
$GPRMC,000129.00,A,3730.49046,N,02327.22498,E,0.171,,280424,,,A*7C
$GPGGA,000129.00,3730.49046,N,02327.22498,E,1,07,1.32,31.5,M,32.4,M,,*6A
$GPGLL,3730.49046,N,02327.22498,E,000129.00,A,A*6A
$GPRMC,000130.00,A,3730.49048,N,02327.22489,E,0.149,,280424,,,A*71
$GPGGA,000130.00,3730.49048,N,02327.22489,E,1,07,1.32,31.2,M,32.4,M,,*6B
$GPGLL,3730.49048,N,02327.22489,E,000130.00,A,A*6C
$GPRMC,000131.00,A,3730.49047,N,02327.22469,E,0.239,,280424,,,A*75
$GPGGA,000131.00,3730.49047,N,02327.22469,E,1,07,1.32,30.8,M,32.4,M,,*60
$GPGLL,3730.49047,N,02327.22469,E,000131.00,A,A*6C
$GPRMC,000132.00,A,3730.49044,N,02327.22473,E,0.111,,280424,,,A*77
$GPGGA,000132.00,3730.49044,N,02327.22473,E,1,07,1.32,30.9,M,32.4,M,,*6A
$GPGLL,3730.49044,N,02327.22473,E,000132.00,A,A*67
$GPRMC,000133.00,A,3730.49046,N,02327.22472,E,0.107,,280424,,,A*72
$GPGGA,000133.00,3730.49046,N,02327.22472,E,1,07,1.32,30.7,M,32.4,M,,*66
$GPGLL,3730.49046,N,02327.22472,E,000133.00,A,A*65
$GPRMC,000134.00,A,3730.49041,N,02327.22458,E,0.196,,280424,,,A*72
$GPGGA,000134.00,3730.49041,N,02327.22458,E,1,07,1.42,30.4,M,32.4,M,,*6A
$GPGLL,3730.49041,N,02327.22458,E,000134.00,A,A*6D
$GPRMC,000135.00,A,3730.49044,N,02327.22452,E,0.157,,280424,,,A*71
$GPGGA,000135.00,3730.49044,N,02327.22452,E,1,07,1.42,30.1,M,32.4,M,,*61
$GPGLL,3730.49044,N,02327.22452,E,000135.00,A,A*63
$GPRMC,000136.00,A,3730.49040,N,02327.22451,E,0.077,,280424,,,A*76
$GPGGA,000136.00,3730.49040,N,02327.22451,E,1,07,1.42,30.1,M,32.4,M,,*65
$GPGLL,3730.49040,N,02327.22451,E,000136.00,A,A*67
$GPRMC,000137.00,A,3730.49044,N,02327.22448,E,0.213,,280424,,,A*7B
$GPGGA,000137.00,3730.49044,N,02327.22448,E,1,07,1.42,30.0,M,32.4,M,,*69
$GPGLL,3730.49044,N,02327.22448,E,000137.00,A,A*6A
$GPRMC,000138.00,A,3730.49041,N,02327.22437,E,0.159,,280424,,,A*74
$GPGGA,000138.00,3730.49041,N,02327.22437,E,1,06,1.42,29.8,M,32.4,M,,*6A
$GPGLL,3730.49041,N,02327.22437,E,000138.00,A,A*68
$GPRMC,000139.00,A,3730.49046,N,02327.22445,E,0.140,,280424,,,A*7F
$GPGGA,000139.00,3730.49046,N,02327.22445,E,1,06,1.42,29.7,M,32.4,M,,*66
$GPGLL,3730.49046,N,02327.22445,E,000139.00,A,A*6B
$GPRMC,000140.00,A,3730.49049,N,02327.22449,E,0.177,,280424,,,A*76
$GPGGA,000140.00,3730.49049,N,02327.22449,E,1,06,1.42,29.6,M,32.4,M,,*6A
$GPGLL,3730.49049,N,02327.22449,E,000140.00,A,A*66
$GPRMC,000141.00,A,3730.49051,N,02327.22443,E,0.074,,280424,,,A*76
$GPGGA,000141.00,3730.49051,N,02327.22443,E,1,06,1.42,29.3,M,32.4,M,,*6D
$GPGLL,3730.49051,N,02327.22443,E,000141.00,A,A*64
$GPRMC,000142.00,A,3730.49050,N,02327.22445,E,0.085,,280424,,,A*7C
$GPGGA,000142.00,3730.49050,N,02327.22445,E,1,06,1.42,29.3,M,32.4,M,,*69
$GPGLL,3730.49050,N,02327.22445,E,000142.00,A,A*60
$GPRMC,000143.00,A,3730.49048,N,02327.22438,E,0.138,,280424,,,A*79
$GPGGA,000143.00,3730.49048,N,02327.22438,E,1,06,1.42,29.1,M,32.4,M,,*69
$GPGLL,3730.49048,N,02327.22438,E,000143.00,A,A*62
$GPRMC,000144.00,A,3730.49043,N,02327.22419,E,0.205,,280424,,,A*7B
$GPGGA,000144.00,3730.49043,N,02327.22419,E,1,07,1.42,28.8,M,32.4,M,,*6F
$GPGLL,3730.49043,N,02327.22419,E,000144.00,A,A*6D
$GPRMC,000145.00,A,3730.49041,N,02327.22431,E,0.074,,280424,,,A*76
$GPGGA,000145.00,3730.49041,N,02327.22431,E,1,07,1.42,28.8,M,32.4,M,,*66
$GPGLL,3730.49041,N,02327.22431,E,000145.00,A,A*64
$GPRMC,000146.00,A,3730.49045,N,02327.22437,E,0.113,,280424,,,A*77
$GPGGA,000146.00,3730.49045,N,02327.22437,E,1,07,1.32,28.7,M,32.4,M,,*6F
$GPGLL,3730.49045,N,02327.22437,E,000146.00,A,A*65
$GPRMC,000147.00,A,3730.49035,N,02327.22402,E,0.371,,280424,,,A*71
$GPGGA,000147.00,3730.49035,N,02327.22402,E,1,07,1.32,28.1,M,32.4,M,,*69
$GPGLL,3730.49035,N,02327.22402,E,000147.00,A,A*65
$GPRMC,000148.00,A,3730.49037,N,02327.22412,E,0.085,,280424,,,A*75
$GPGGA,000148.00,3730.49037,N,02327.22412,E,1,06,1.88,28.1,M,32.4,M,,*65
$GPGLL,3730.49037,N,02327.22412,E,000148.00,A,A*69
$GPRMC,000149.00,A,3730.49036,N,02327.22421,E,0.100,,280424,,,A*79
$GPGGA,000149.00,3730.49036,N,02327.22421,E,1,06,1.88,28.2,M,32.4,M,,*66
$GPGLL,3730.49036,N,02327.22421,E,000149.00,A,A*69
$GPRMC,000150.00,A,3730.49028,N,02327.22415,E,0.110,,280424,,,A*78
$GPGGA,000150.00,3730.49028,N,02327.22415,E,1,06,1.88,28.1,M,32.4,M,,*65
$GPGLL,3730.49028,N,02327.22415,E,000150.00,A,A*69
$GPRMC,000151.00,A,3730.49024,N,02327.22414,E,0.153,,280424,,,A*73
$GPGGA,000151.00,3730.49024,N,02327.22414,E,1,06,1.88,28.0,M,32.4,M,,*68
$GPGLL,3730.49024,N,02327.22414,E,000151.00,A,A*65
$GPRMC,000152.00,A,3730.49013,N,02327.22406,E,0.357,,280424,,,A*71
$GPGGA,000152.00,3730.49013,N,02327.22406,E,1,06,1.88,27.9,M,32.4,M,,*6A
$GPGLL,3730.49013,N,02327.22406,E,000152.00,A,A*61
$GPRMC,000153.00,A,3730.49011,N,02327.22407,E,0.258,,280424,,,A*7D
$GPGGA,000153.00,3730.49011,N,02327.22407,E,1,06,1.88,27.8,M,32.4,M,,*69
$GPGLL,3730.49011,N,02327.22407,E,000153.00,A,A*63
$GPRMC,000154.00,A,3730.49011,N,02327.22412,E,0.135,,280424,,,A*76
$GPGGA,000154.00,3730.49011,N,02327.22412,E,1,06,1.88,27.7,M,32.4,M,,*65
$GPGLL,3730.49011,N,02327.22412,E,000154.00,A,A*60
$GPRMC,000155.00,A,3730.49007,N,02327.22429,E,0.121,,280424,,,A*7D
$GPGGA,000155.00,3730.49007,N,02327.22429,E,1,06,1.88,27.8,M,32.4,M,,*64
$GPGLL,3730.49007,N,02327.22429,E,000155.00,A,A*6E
$GPRMC,000156.00,A,3730.49000,N,02327.22432,E,0.121,,280424,,,A*73
$GPGGA,000156.00,3730.49000,N,02327.22432,E,1,06,1.88,27.8,M,32.4,M,,*6A
$GPGLL,3730.49000,N,02327.22432,E,000156.00,A,A*60
$GPRMC,000157.00,A,3730.48994,N,02327.22434,E,0.053,,280424,,,A*75
$GPGGA,000157.00,3730.48994,N,02327.22434,E,1,06,1.88,27.8,M,32.4,M,,*68
$GPGLL,3730.48994,N,02327.22434,E,000157.00,A,A*62
$GPRMC,000158.00,A,3730.48981,N,02327.22427,E,0.238,,280424,,,A*73
$GPGGA,000158.00,3730.48981,N,02327.22427,E,1,06,1.88,27.7,M,32.4,M,,*6E
$GPGLL,3730.48981,N,02327.22427,E,000158.00,A,A*6B
$GPRMC,000159.00,A,3730.48986,N,02327.22448,E,0.100,,280424,,,A*74
$GPGGA,000159.00,3730.48986,N,02327.22448,E,1,06,1.88,27.8,M,32.4,M,,*6E
$GPGLL,3730.48986,N,02327.22448,E,000159.00,A,A*64
$GPRMC,000200.00,A,3730.48984,N,02327.22457,E,0.089,,280424,,,A*77
$GPGGA,000200.00,3730.48984,N,02327.22457,E,1,06,1.88,27.8,M,32.4,M,,*6D
$GPGLL,3730.48984,N,02327.22457,E,000200.00,A,A*67
$GPRMC,000201.00,A,3730.48977,N,02327.22456,E,0.044,,280424,,,A*7A
$GPGGA,000201.00,3730.48977,N,02327.22456,E,1,06,1.88,27.7,M,32.4,M,,*6E
$GPGLL,3730.48977,N,02327.22456,E,000201.00,A,A*6B
$GPRMC,000202.00,A,3730.48984,N,02327.22478,E,0.258,,280424,,,A*76
$GPGGA,000202.00,3730.48984,N,02327.22478,E,1,06,1.88,27.8,M,32.4,M,,*62
$GPGLL,3730.48984,N,02327.22478,E,000202.00,A,A*68
$GPRMC,000203.00,A,3730.48983,N,02327.22484,E,0.157,,280424,,,A*7F
$GPGGA,000203.00,3730.48983,N,02327.22484,E,1,07,1.88,27.7,M,32.4,M,,*69
$GPGLL,3730.48983,N,02327.22484,E,000203.00,A,A*6D
$GPRMC,000204.00,A,3730.48978,N,02327.22484,E,0.066,,280424,,,A*7F
$GPGGA,000204.00,3730.48978,N,02327.22484,E,1,07,1.88,27.7,M,32.4,M,,*6A
$GPGLL,3730.48978,N,02327.22484,E,000204.00,A,A*6E
$GPRMC,000205.00,A,3730.48979,N,02327.22519,E,0.286,,280424,,,A*76
$GPGGA,000205.00,3730.48979,N,02327.22519,E,1,07,1.32,28.2,M,32.4,M,,*64
$GPGLL,3730.48979,N,02327.22519,E,000205.00,A,A*6B
$GPRMC,000206.00,A,3730.48976,N,02327.22527,E,0.223,,280424,,,A*78
$GPGGA,000206.00,3730.48976,N,02327.22527,E,1,07,1.32,28.3,M,32.4,M,,*64
$GPGLL,3730.48976,N,02327.22527,E,000206.00,A,A*6A
$GPRMC,000207.00,A,3730.48963,N,02327.22522,E,0.062,,280424,,,A*7F
$GPGGA,000207.00,3730.48963,N,02327.22522,E,1,07,1.32,28.2,M,32.4,M,,*65
$GPGLL,3730.48963,N,02327.22522,E,000207.00,A,A*6A
$GPRMC,000208.00,A,3730.48961,N,02327.22527,E,0.055,,280424,,,A*73
$GPGGA,000208.00,3730.48961,N,02327.22527,E,1,07,1.32,28.1,M,32.4,M,,*6E
$GPGLL,3730.48961,N,02327.22527,E,000208.00,A,A*62
$GPRMC,000209.00,A,3730.48960,N,02327.22542,E,0.098,,280424,,,A*71
$GPGGA,000209.00,3730.48960,N,02327.22542,E,1,07,1.32,28.3,M,32.4,M,,*6F
$GPGLL,3730.48960,N,02327.22542,E,000209.00,A,A*61
$GPRMC,000210.00,A,3730.48953,N,02327.22542,E,0.051,,280424,,,A*7C
$GPGGA,000210.00,3730.48953,N,02327.22542,E,1,07,1.32,28.2,M,32.4,M,,*66
$GPGLL,3730.48953,N,02327.22542,E,000210.00,A,A*69
$GPRMC,000211.00,A,3730.48947,N,02327.22537,E,0.213,,280424,,,A*7E
$GPGGA,000211.00,3730.48947,N,02327.22537,E,1,07,1.32,28.1,M,32.4,M,,*63
$GPGLL,3730.48947,N,02327.22537,E,000211.00,A,A*6F
$GPRMC,000212.00,A,3730.48954,N,02327.22545,E,0.049,,280424,,,A*77
$GPGGA,000212.00,3730.48954,N,02327.22545,E,1,07,1.32,28.0,M,32.4,M,,*66
$GPGLL,3730.48954,N,02327.22545,E,000212.00,A,A*6B
$GPRMC,000213.00,A,3730.48945,N,02327.22542,E,0.202,,280424,,,A*7C
$GPGGA,000213.00,3730.48945,N,02327.22542,E,1,07,1.32,27.9,M,32.4,M,,*66
$GPGLL,3730.48945,N,02327.22542,E,000213.00,A,A*6D
$GPRMC,000214.00,A,3730.48945,N,02327.22547,E,0.135,,280424,,,A*79
$GPGGA,000214.00,3730.48945,N,02327.22547,E,1,07,1.32,27.9,M,32.4,M,,*64
$GPGLL,3730.48945,N,02327.22547,E,000214.00,A,A*6F
$GPRMC,000215.00,A,3730.48943,N,02327.22530,E,0.291,,280424,,,A*73
$GPGGA,000215.00,3730.48943,N,02327.22530,E,1,07,1.32,27.5,M,32.4,M,,*6F
$GPGLL,3730.48943,N,02327.22530,E,000215.00,A,A*68
$GPRMC,000216.00,A,3730.48935,N,02327.22503,E,0.520,,280424,,,A*7C
$GPGGA,000216.00,3730.48935,N,02327.22503,E,1,07,1.32,27.0,M,32.4,M,,*68
$GPGLL,3730.48935,N,02327.22503,E,000216.00,A,A*6A
$GPRMC,000217.00,A,3730.48942,N,02327.22499,E,0.313,,280424,,,A*79
$GPGGA,000217.00,3730.48942,N,02327.22499,E,1,07,1.32,26.7,M,32.4,M,,*6D
$GPGLL,3730.48942,N,02327.22499,E,000217.00,A,A*69
$GPRMC,000218.00,A,3730.48943,N,02327.22519,E,0.052,,280424,,,A*78
$GPGGA,000218.00,3730.48943,N,02327.22519,E,1,07,1.32,26.9,M,32.4,M,,*64
$GPGLL,3730.48943,N,02327.22519,E,000218.00,A,A*6E
$GPRMC,000219.00,A,3730.48950,N,02327.22521,E,0.084,,280424,,,A*7B
$GPGGA,000219.00,3730.48950,N,02327.22521,E,1,07,1.32,26.8,M,32.4,M,,*6D
$GPGLL,3730.48950,N,02327.22521,E,000219.00,A,A*66
$GPRMC,000220.00,A,3730.48948,N,02327.22535,E,0.044,,280424,,,A*71
$GPGGA,000220.00,3730.48948,N,02327.22535,E,1,07,1.32,26.9,M,32.4,M,,*6A
$GPGLL,3730.48948,N,02327.22535,E,000220.00,A,A*60
$GPRMC,000221.00,A,3730.48942,N,02327.22553,E,0.069,,280424,,,A*75
$GPGGA,000221.00,3730.48942,N,02327.22553,E,1,07,1.32,27.0,M,32.4,M,,*69
$GPGLL,3730.48942,N,02327.22553,E,000221.00,A,A*6B
$GPRMC,000222.00,A,3730.48854,N,02327.22508,E,1.531,212.16,280424,,,A*6F
$GPGGA,000222.00,3730.48854,N,02327.22508,E,1,07,1.32,27.6,M,32.4,M,,*64
$GPGLL,3730.48854,N,02327.22508,E,000222.00,A,A*60
$GPRMC,000223.00,A,3730.48848,N,02327.22534,E,0.804,,280424,,,A*7E
$GPGGA,000223.00,3730.48848,N,02327.22534,E,1,07,1.32,27.8,M,32.4,M,,*69
$GPGLL,3730.48848,N,02327.22534,E,000223.00,A,A*63
$GPRMC,000224.00,A,3730.48836,N,02327.22527,E,0.784,,280424,,,A*75
$GPGGA,000224.00,3730.48836,N,02327.22527,E,1,07,1.32,27.8,M,32.4,M,,*65
$GPGLL,3730.48836,N,02327.22527,E,000224.00,A,A*6F
$GPRMC,000225.00,A,3730.48837,N,02327.22537,E,0.459,,280424,,,A*77
$GPGGA,000225.00,3730.48837,N,02327.22537,E,1,07,1.32,27.7,M,32.4,M,,*6B
$GPGLL,3730.48837,N,02327.22537,E,000225.00,A,A*6E
$GPRMC,000226.00,A,3730.48853,N,02327.22590,E,0.280,,280424,,,A*79
$GPGGA,000226.00,3730.48853,N,02327.22590,E,1,07,1.32,28.2,M,32.4,M,,*6D
$GPGLL,3730.48853,N,02327.22590,E,000226.00,A,A*62
$GPRMC,000227.00,A,3730.48870,N,02327.22626,E,0.452,,280424,,,A*7E
$GPGGA,000227.00,3730.48870,N,02327.22626,E,1,07,1.32,28.5,M,32.4,M,,*64
$GPGLL,3730.48870,N,02327.22626,E,000227.00,A,A*6C
$GPRMC,000228.00,A,3730.48881,N,02327.22639,E,0.363,,280424,,,A*74
$GPGGA,000228.00,3730.48881,N,02327.22639,E,1,07,1.32,28.4,M,32.4,M,,*6A
$GPGLL,3730.48881,N,02327.22639,E,000228.00,A,A*63
$GPRMC,000229.00,A,3730.48882,N,02327.22643,E,0.147,,280424,,,A*7F
$GPGGA,000229.00,3730.48882,N,02327.22643,E,1,07,1.32,28.3,M,32.4,M,,*62
$GPGLL,3730.48882,N,02327.22643,E,000229.00,A,A*6C
$GPRMC,000230.00,A,3730.48886,N,02327.22643,E,0.032,,280424,,,A*70
$GPGGA,000230.00,3730.48886,N,02327.22643,E,1,07,1.32,28.1,M,32.4,M,,*6C
$GPGLL,3730.48886,N,02327.22643,E,000230.00,A,A*60
$GPRMC,000231.00,A,3730.48904,N,02327.22657,E,0.246,,280424,,,A*7E
$GPGGA,000231.00,3730.48904,N,02327.22657,E,1,07,1.32,28.1,M,32.4,M,,*63
$GPGLL,3730.48904,N,02327.22657,E,000231.00,A,A*6F
$GPRMC,000232.00,A,3730.48904,N,02327.22651,E,0.074,,280424,,,A*78
$GPGGA,000232.00,3730.48904,N,02327.22651,E,1,07,1.32,27.8,M,32.4,M,,*60
$GPGLL,3730.48904,N,02327.22651,E,000232.00,A,A*6A
$GPRMC,000233.00,A,3730.48895,N,02327.22641,E,0.302,,280424,,,A*73
$GPGGA,000233.00,3730.48895,N,02327.22641,E,1,07,1.32,27.4,M,32.4,M,,*65
$GPGLL,3730.48895,N,02327.22641,E,000233.00,A,A*63
$GPRMC,000234.00,A,3730.48897,N,02327.22624,E,0.402,,280424,,,A*72
$GPGGA,000234.00,3730.48897,N,02327.22624,E,1,07,1.32,27.0,M,32.4,M,,*67
$GPGLL,3730.48897,N,02327.22624,E,000234.00,A,A*65
$GPRMC,000235.00,A,3730.48901,N,02327.22625,E,0.170,,280424,,,A*7C
$GPGGA,000235.00,3730.48901,N,02327.22625,E,1,07,1.32,26.5,M,32.4,M,,*6D
$GPGLL,3730.48901,N,02327.22625,E,000235.00,A,A*6B
$GPRMC,000236.00,A,3730.48894,N,02327.22598,E,0.442,,280424,,,A*73
$GPGGA,000236.00,3730.48894,N,02327.22598,E,1,07,1.32,26.0,M,32.4,M,,*63
$GPGLL,3730.48894,N,02327.22598,E,000236.00,A,A*60
$GPRMC,000237.00,A,3730.48894,N,02327.22599,E,0.180,,280424,,,A*78
$GPGGA,000237.00,3730.48894,N,02327.22599,E,1,07,1.32,25.8,M,32.4,M,,*68
$GPGLL,3730.48894,N,02327.22599,E,000237.00,A,A*60
$GPRMC,000238.00,A,3730.48898,N,02327.22602,E,0.006,,280424,,,A*75
$GPGGA,000238.00,3730.48898,N,02327.22602,E,1,07,1.32,25.4,M,32.4,M,,*66
$GPGLL,3730.48898,N,02327.22602,E,000238.00,A,A*62
$GPRMC,000239.00,A,3730.48889,N,02327.22627,E,0.210,,280424,,,A*76
$GPGGA,000239.00,3730.48889,N,02327.22627,E,1,07,1.32,25.2,M,32.4,M,,*66
$GPGLL,3730.48889,N,02327.22627,E,000239.00,A,A*64
$GPRMC,000240.00,A,3730.48899,N,02327.22631,E,0.169,,280424,,,A*73
$GPGGA,000240.00,3730.48899,N,02327.22631,E,1,07,1.32,24.9,M,32.4,M,,*64
$GPGLL,3730.48899,N,02327.22631,E,000240.00,A,A*6C
$GPRMC,000241.00,A,3730.48893,N,02327.22605,E,0.204,,280424,,,A*77
$GPGGA,000241.00,3730.48893,N,02327.22605,E,1,07,1.32,24.5,M,32.4,M,,*64
$GPGLL,3730.48893,N,02327.22605,E,000241.00,A,A*60
$GPRMC,000242.00,A,3730.48880,N,02327.22573,E,0.544,,280424,,,A*77
$GPGGA,000242.00,3730.48880,N,02327.22573,E,1,07,1.32,24.0,M,32.4,M,,*62
$GPGLL,3730.48880,N,02327.22573,E,000242.00,A,A*63
$GPRMC,000243.00,A,3730.48872,N,02327.22555,E,0.548,,280424,,,A*73
$GPGGA,000243.00,3730.48872,N,02327.22555,E,1,07,1.32,23.6,M,32.4,M,,*6B
$GPGLL,3730.48872,N,02327.22555,E,000243.00,A,A*6B
$GPRMC,000244.00,A,3730.48861,N,02327.22550,E,0.516,,280424,,,A*78
$GPGGA,000244.00,3730.48861,N,02327.22550,E,1,07,1.32,23.3,M,32.4,M,,*6E
$GPGLL,3730.48861,N,02327.22550,E,000244.00,A,A*6B
$GPRMC,000245.00,A,3730.48862,N,02327.22540,E,0.363,,280424,,,A*7F
$GPGGA,000245.00,3730.48862,N,02327.22540,E,1,07,1.32,23.1,M,32.4,M,,*6F
$GPGLL,3730.48862,N,02327.22540,E,000245.00,A,A*68
$GPRMC,000246.00,A,3730.48866,N,02327.22556,E,0.087,,280424,,,A*76
$GPGGA,000246.00,3730.48866,N,02327.22556,E,1,07,1.32,23.2,M,32.4,M,,*6C
$GPGLL,3730.48866,N,02327.22556,E,000246.00,A,A*68
$GPRMC,000247.00,A,3730.48847,N,02327.22549,E,0.317,,280424,,,A*70
$GPGGA,000247.00,3730.48847,N,02327.22549,E,1,07,1.32,22.8,M,32.4,M,,*6B
$GPGLL,3730.48847,N,02327.22549,E,000247.00,A,A*64
$GPRMC,000248.00,A,3730.48840,N,02327.22518,E,0.496,,280424,,,A*72
$GPGGA,000248.00,3730.48840,N,02327.22518,E,1,07,1.32,22.4,M,32.4,M,,*6B
$GPGLL,3730.48840,N,02327.22518,E,000248.00,A,A*68
$GPRMC,000249.00,A,3730.48840,N,02327.22512,E,0.353,,280424,,,A*77
$GPGGA,000249.00,3730.48840,N,02327.22512,E,1,07,1.32,22.1,M,32.4,M,,*65
$GPGLL,3730.48840,N,02327.22512,E,000249.00,A,A*63
$GPRMC,000250.00,A,3730.48848,N,02327.22488,E,0.319,,280424,,,A*7B
$GPGGA,000250.00,3730.48848,N,02327.22488,E,1,07,1.32,21.5,M,32.4,M,,*60
$GPGLL,3730.48848,N,02327.22488,E,000250.00,A,A*61
$GPRMC,000251.00,A,3730.48860,N,02327.22470,E,0.135,,280424,,,A*7B
$GPGGA,000251.00,3730.48860,N,02327.22470,E,1,07,1.32,21.2,M,32.4,M,,*6B
$GPGLL,3730.48860,N,02327.22470,E,000251.00,A,A*6D
$GPRMC,000252.00,A,3730.48881,N,02327.22460,E,0.232,,280424,,,A*72
$GPGGA,000252.00,3730.48881,N,02327.22460,E,1,07,1.32,20.9,M,32.4,M,,*6C
$GPGLL,3730.48881,N,02327.22460,E,000252.00,A,A*60
$GPRMC,000253.00,A,3730.48887,N,02327.22444,E,0.228,,280424,,,A*78
$GPGGA,000253.00,3730.48887,N,02327.22444,E,1,07,1.32,20.5,M,32.4,M,,*61
$GPGLL,3730.48887,N,02327.22444,E,000253.00,A,A*61
$GPRMC,000254.00,A,3730.48902,N,02327.22439,E,0.335,,280424,,,A*74
$GPGGA,000254.00,3730.48902,N,02327.22439,E,1,07,1.32,20.3,M,32.4,M,,*66
$GPGLL,3730.48902,N,02327.22439,E,000254.00,A,A*60
$GPRMC,000255.00,A,3730.48899,N,02327.22441,E,0.040,,280424,,,A*78
$GPGGA,000255.00,3730.48899,N,02327.22441,E,1,07,1.32,19.8,M,32.4,M,,*6A
$GPGLL,3730.48899,N,02327.22441,E,000255.00,A,A*6D
$GPRMC,000256.00,A,3730.48901,N,02327.22441,E,0.040,,280424,,,A*7B
$GPGGA,000256.00,3730.48901,N,02327.22441,E,1,07,1.32,19.6,M,32.4,M,,*67
$GPGLL,3730.48901,N,02327.22441,E,000256.00,A,A*6E
$GPRMC,000257.00,A,3730.48911,N,02327.22465,E,0.398,,280424,,,A*7B
$GPGGA,000257.00,3730.48911,N,02327.22465,E,1,07,1.32,19.6,M,32.4,M,,*61
$GPGLL,3730.48911,N,02327.22465,E,000257.00,A,A*68
$GPRMC,000258.00,A,3730.48921,N,02327.22426,E,0.201,,280424,,,A*71
$GPGGA,000258.00,3730.48921,N,02327.22426,E,1,07,1.32,19.3,M,32.4,M,,*6F
$GPGLL,3730.48921,N,02327.22426,E,000258.00,A,A*63
$GPRMC,000259.00,A,3730.48944,N,02327.22411,E,0.353,,280424,,,A*71
$GPGGA,000259.00,3730.48944,N,02327.22411,E,1,07,1.32,19.2,M,32.4,M,,*68
$GPGLL,3730.48944,N,02327.22411,E,000259.00,A,A*65
$GPRMC,000300.00,A,3730.48943,N,02327.22382,E,0.280,,280424,,,A*79
$GPGGA,000300.00,3730.48943,N,02327.22382,E,1,07,1.32,19.0,M,32.4,M,,*6D
$GPGLL,3730.48943,N,02327.22382,E,000300.00,A,A*62
$GPRMC,000301.00,A,3730.48929,N,02327.22384,E,0.257,,280424,,,A*78
$GPGGA,000301.00,3730.48929,N,02327.22384,E,1,07,1.32,18.8,M,32.4,M,,*6F
$GPGLL,3730.48929,N,02327.22384,E,000301.00,A,A*69
$GPRMC,000302.00,A,3730.48922,N,02327.22384,E,0.287,,280424,,,A*7D
$GPGGA,000302.00,3730.48922,N,02327.22384,E,1,07,1.32,18.6,M,32.4,M,,*69
$GPGLL,3730.48922,N,02327.22384,E,000302.00,A,A*61
$GPRMC,000303.00,A,3730.48922,N,02327.22377,E,0.276,,280424,,,A*7E
$GPGGA,000303.00,3730.48922,N,02327.22377,E,1,07,1.32,18.2,M,32.4,M,,*60
$GPGLL,3730.48922,N,02327.22377,E,000303.00,A,A*6C
$GPRMC,000304.00,A,3730.48921,N,02327.22385,E,0.173,,280424,,,A*71
$GPGGA,000304.00,3730.48921,N,02327.22385,E,1,07,1.32,18.2,M,32.4,M,,*69
$GPGLL,3730.48921,N,02327.22385,E,000304.00,A,A*65
$GPRMC,000305.00,A,3730.48935,N,02327.22372,E,0.188,,280424,,,A*79
$GPGGA,000305.00,3730.48935,N,02327.22372,E,1,07,1.32,18.1,M,32.4,M,,*66
$GPGLL,3730.48935,N,02327.22372,E,000305.00,A,A*69
$GPRMC,000306.00,A,3730.48941,N,02327.22379,E,0.111,,280424,,,A*72
$GPGGA,000306.00,3730.48941,N,02327.22379,E,1,07,1.32,18.2,M,32.4,M,,*6E
$GPGLL,3730.48941,N,02327.22379,E,000306.00,A,A*62
$GPRMC,000307.00,A,3730.48952,N,02327.22375,E,0.210,,280424,,,A*7F
$GPGGA,000307.00,3730.48952,N,02327.22375,E,1,07,1.32,18.3,M,32.4,M,,*60
$GPGLL,3730.48952,N,02327.22375,E,000307.00,A,A*6D
$GPRMC,000308.00,A,3730.48949,N,02327.22347,E,0.257,,280424,,,A*78
$GPGGA,000308.00,3730.48949,N,02327.22347,E,1,07,1.32,18.1,M,32.4,M,,*66
$GPGLL,3730.48949,N,02327.22347,E,000308.00,A,A*69
$GPRMC,000309.00,A,3730.48956,N,02327.22368,E,0.191,,280424,,,A*73
$GPGGA,000309.00,3730.48956,N,02327.22368,E,1,07,1.32,18.3,M,32.4,M,,*66
$GPGLL,3730.48956,N,02327.22368,E,000309.00,A,A*6B
$GPRMC,000310.00,A,3730.48954,N,02327.22370,E,0.241,,280424,,,A*7E
$GPGGA,000310.00,3730.48954,N,02327.22370,E,1,07,1.32,18.5,M,32.4,M,,*63
$GPGLL,3730.48954,N,02327.22370,E,000310.00,A,A*68
$GPRMC,000311.00,A,3730.48965,N,02327.22381,E,0.416,,280424,,,A*77
$GPGGA,000311.00,3730.48965,N,02327.22381,E,1,07,1.32,18.8,M,32.4,M,,*63
$GPGLL,3730.48965,N,02327.22381,E,000311.00,A,A*65
$GPRMC,000312.00,A,3730.48967,N,02327.22408,E,0.405,,280424,,,A*72
$GPGGA,000312.00,3730.48967,N,02327.22408,E,1,07,1.32,19.1,M,32.4,M,,*6C
$GPGLL,3730.48967,N,02327.22408,E,000312.00,A,A*62
$GPRMC,000313.00,A,3730.48964,N,02327.22403,E,0.182,,280424,,,A*71
$GPGGA,000313.00,3730.48964,N,02327.22403,E,1,07,1.32,18.9,M,32.4,M,,*6C
$GPGLL,3730.48964,N,02327.22403,E,000313.00,A,A*6B
$GPRMC,000314.00,A,3730.48958,N,02327.22401,E,0.113,,280424,,,A*73
$GPGGA,000314.00,3730.48958,N,02327.22401,E,1,07,1.32,18.9,M,32.4,M,,*66
$GPGLL,3730.48958,N,02327.22401,E,000314.00,A,A*61
$GPRMC,000315.00,A,3730.48968,N,02327.22433,E,0.291,,280424,,,A*79
$GPGGA,000315.00,3730.48968,N,02327.22433,E,1,07,1.32,19.0,M,32.4,M,,*6D
$GPGLL,3730.48968,N,02327.22433,E,000315.00,A,A*62
$GPRMC,000316.00,A,3730.48984,N,02327.22449,E,0.445,,280424,,,A*7A
$GPGGA,000316.00,3730.48984,N,02327.22449,E,1,07,1.32,19.1,M,32.4,M,,*60
$GPGLL,3730.48984,N,02327.22449,E,000316.00,A,A*6E
$GPRMC,000317.00,A,3730.48977,N,02327.22439,E,0.090,,280424,,,A*7C
$GPGGA,000317.00,3730.48977,N,02327.22439,E,1,07,1.32,19.0,M,32.4,M,,*6B
$GPGLL,3730.48977,N,02327.22439,E,000317.00,A,A*64
$GPRMC,000318.00,A,3730.48973,N,02327.22467,E,0.318,,280424,,,A*7F
$GPGGA,000318.00,3730.48973,N,02327.22467,E,1,07,1.32,19.3,M,32.4,M,,*68
$GPGLL,3730.48973,N,02327.22467,E,000318.00,A,A*64
$GPRMC,000319.00,A,3730.48956,N,02327.22446,E,0.218,,280424,,,A*7B
$GPGGA,000319.00,3730.48956,N,02327.22446,E,1,07,1.32,19.2,M,32.4,M,,*6C
$GPGLL,3730.48956,N,02327.22446,E,000319.00,A,A*61
$GPRMC,000320.00,A,3730.48928,N,02327.22441,E,0.370,,280424,,,A*70
$GPGGA,000320.00,3730.48928,N,02327.22441,E,1,07,1.32,19.3,M,32.4,M,,*69
$GPGLL,3730.48928,N,02327.22441,E,000320.00,A,A*65
$GPRMC,000321.00,A,3730.48908,N,02327.22446,E,0.321,,280424,,,A*70
$GPGGA,000321.00,3730.48908,N,02327.22446,E,1,07,1.32,19.3,M,32.4,M,,*6D
$GPGLL,3730.48908,N,02327.22446,E,000321.00,A,A*61
$GPRMC,000322.00,A,3730.48893,N,02327.22430,E,0.359,,280424,,,A*7E
$GPGGA,000322.00,3730.48893,N,02327.22430,E,1,07,1.32,19.4,M,32.4,M,,*6B
$GPGLL,3730.48893,N,02327.22430,E,000322.00,A,A*60
$GPRMC,000323.00,A,3730.48869,N,02327.22445,E,0.397,,280424,,,A*7A
$GPGGA,000323.00,3730.48869,N,02327.22445,E,1,07,1.32,19.5,M,32.4,M,,*6C
$GPGLL,3730.48869,N,02327.22445,E,000323.00,A,A*66
$GPRMC,000324.00,A,3730.48849,N,02327.22472,E,0.331,,280424,,,A*77
$GPGGA,000324.00,3730.48849,N,02327.22472,E,1,07,1.32,19.9,M,32.4,M,,*61
$GPGLL,3730.48849,N,02327.22472,E,000324.00,A,A*67
$GPRMC,000325.00,A,3730.48842,N,02327.22459,E,0.197,,280424,,,A*7A
$GPGGA,000325.00,3730.48842,N,02327.22459,E,1,07,1.32,20.0,M,32.4,M,,*61
$GPGLL,3730.48842,N,02327.22459,E,000325.00,A,A*64
$GPRMC,000326.00,A,3730.48821,N,02327.22448,E,0.301,,280424,,,A*71
$GPGGA,000326.00,3730.48821,N,02327.22448,E,1,07,1.32,20.1,M,32.4,M,,*66
$GPGLL,3730.48821,N,02327.22448,E,000326.00,A,A*62
$GPRMC,000327.00,A,3730.48812,N,02327.22444,E,0.253,,280424,,,A*7A
$GPGGA,000327.00,3730.48812,N,02327.22444,E,1,07,1.32,20.2,M,32.4,M,,*68
$GPGLL,3730.48812,N,02327.22444,E,000327.00,A,A*6F
$GPRMC,000328.00,A,3730.48820,N,02327.22460,E,0.026,,280424,,,A*72
$GPGGA,000328.00,3730.48820,N,02327.22460,E,1,07,1.87,20.1,M,32.4,M,,*6D
$GPGLL,3730.48820,N,02327.22460,E,000328.00,A,A*67
$GPRMC,000329.00,A,3730.48806,N,02327.22439,E,0.245,,280424,,,A*7C
$GPGGA,000329.00,3730.48806,N,02327.22439,E,1,07,1.87,20.0,M,32.4,M,,*65
$GPGLL,3730.48806,N,02327.22439,E,000329.00,A,A*6E
$GPRMC,000330.00,A,3730.48793,N,02327.22415,E,0.366,,280424,,,A*79
$GPGGA,000330.00,3730.48793,N,02327.22415,E,1,07,1.87,19.9,M,32.4,M,,*63
$GPGLL,3730.48793,N,02327.22415,E,000330.00,A,A*6B
$GPRMC,000331.00,A,3730.48799,N,02327.22411,E,0.185,,280424,,,A*79
$GPGGA,000331.00,3730.48799,N,02327.22411,E,1,07,1.87,19.7,M,32.4,M,,*62
$GPGLL,3730.48799,N,02327.22411,E,000331.00,A,A*64
$GPRMC,000332.00,A,3730.48781,N,02327.22390,E,0.459,,280424,,,A*79
$GPGGA,000332.00,3730.48781,N,02327.22390,E,1,07,1.87,19.4,M,32.4,M,,*65
$GPGLL,3730.48781,N,02327.22390,E,000332.00,A,A*60
$GPRMC,000333.00,A,3730.48784,N,02327.22364,E,0.548,,280424,,,A*77
$GPGGA,000333.00,3730.48784,N,02327.22364,E,1,07,1.87,19.3,M,32.4,M,,*6D
$GPGLL,3730.48784,N,02327.22364,E,000333.00,A,A*6F
$GPRMC,000334.00,A,3730.48786,N,02327.22368,E,0.514,,280424,,,A*77
$GPGGA,000334.00,3730.48786,N,02327.22368,E,1,07,1.32,19.5,M,32.4,M,,*6C
$GPGLL,3730.48786,N,02327.22368,E,000334.00,A,A*66
$GPRMC,000335.00,A,3730.48798,N,02327.22374,E,0.552,,280424,,,A*76
$GPGGA,000335.00,3730.48798,N,02327.22374,E,1,07,1.32,19.7,M,32.4,M,,*6D
$GPGLL,3730.48798,N,02327.22374,E,000335.00,A,A*65
$GPRMC,000336.00,A,3730.48802,N,02327.22383,E,0.462,,280424,,,A*73
$GPGGA,000336.00,3730.48802,N,02327.22383,E,1,07,1.31,20.0,M,32.4,M,,*64
$GPGLL,3730.48802,N,02327.22383,E,000336.00,A,A*62
$GPRMC,000337.00,A,3730.48788,N,02327.22364,E,0.582,,280424,,,A*79
$GPGGA,000337.00,3730.48788,N,02327.22364,E,1,07,1.31,19.9,M,32.4,M,,*62
$GPGLL,3730.48788,N,02327.22364,E,000337.00,A,A*67
$GPRMC,000338.00,A,3730.48780,N,02327.22354,E,0.639,,280424,,,A*7E
$GPGGA,000338.00,3730.48780,N,02327.22354,E,1,07,1.31,19.6,M,32.4,M,,*69
$GPGLL,3730.48780,N,02327.22354,E,000338.00,A,A*63
$GPRMC,000339.00,A,3730.48793,N,02327.22329,E,0.768,,280424,,,A*72
$GPGGA,000339.00,3730.48793,N,02327.22329,E,1,07,1.31,19.4,M,32.4,M,,*62
$GPGLL,3730.48793,N,02327.22329,E,000339.00,A,A*6A
$GPRMC,000340.00,A,3730.48779,N,02327.22329,E,0.507,,280424,,,A*73
$GPGGA,000340.00,3730.48779,N,02327.22329,E,1,07,1.31,19.2,M,32.4,M,,*6E
$GPGLL,3730.48779,N,02327.22329,E,000340.00,A,A*60
$GPRMC,000341.00,A,3730.48770,N,02327.22320,E,0.594,,280424,,,A*78
$GPGGA,000341.00,3730.48770,N,02327.22320,E,1,07,1.31,19.0,M,32.4,M,,*6D
$GPGLL,3730.48770,N,02327.22320,E,000341.00,A,A*61
$GPRMC,000342.00,A,3730.48752,N,02327.22307,E,0.718,,280424,,,A*78
$GPGGA,000342.00,3730.48752,N,02327.22307,E,1,07,1.31,18.8,M,32.4,M,,*62
$GPGLL,3730.48752,N,02327.22307,E,000342.00,A,A*67
$GPRMC,000343.00,A,3730.48752,N,02327.22319,E,0.483,,280424,,,A*77
$GPGGA,000343.00,3730.48752,N,02327.22319,E,1,07,1.31,18.9,M,32.4,M,,*6D
$GPGLL,3730.48752,N,02327.22319,E,000343.00,A,A*69
$GPRMC,000344.00,A,3730.48779,N,02327.22363,E,0.575,,280424,,,A*7C
$GPGGA,000344.00,3730.48779,N,02327.22363,E,1,07,1.31,19.2,M,32.4,M,,*64
$GPGLL,3730.48779,N,02327.22363,E,000344.00,A,A*6A
$GPRMC,000345.00,A,3730.48788,N,02327.22401,E,0.642,,280424,,,A*77
$GPGGA,000345.00,3730.48788,N,02327.22401,E,1,07,1.31,19.8,M,32.4,M,,*62
$GPGLL,3730.48788,N,02327.22401,E,000345.00,A,A*66
$GPRMC,000346.00,A,3730.48789,N,02327.22445,E,0.592,,280424,,,A*7B
$GPGGA,000346.00,3730.48789,N,02327.22445,E,1,07,1.31,20.3,M,32.4,M,,*61
$GPGLL,3730.48789,N,02327.22445,E,000346.00,A,A*64
$GPRMC,000347.00,A,3730.48775,N,02327.22480,E,0.364,,280424,,,A*7F
$GPGGA,000347.00,3730.48775,N,02327.22480,E,1,07,1.31,20.8,M,32.4,M,,*61
$GPGLL,3730.48775,N,02327.22480,E,000347.00,A,A*6F
$GPRMC,000348.00,A,3730.48778,N,02327.22532,E,0.624,,280424,,,A*74
$GPGGA,000348.00,3730.48778,N,02327.22532,E,1,07,1.31,21.4,M,32.4,M,,*66
$GPGLL,3730.48778,N,02327.22532,E,000348.00,A,A*65
$GPRMC,000349.00,A,3730.48767,N,02327.22564,E,0.464,,280424,,,A*7E
$GPGGA,000349.00,3730.48767,N,02327.22564,E,1,07,1.31,21.8,M,32.4,M,,*66
$GPGLL,3730.48767,N,02327.22564,E,000349.00,A,A*69
$GPRMC,000350.00,A,3730.48768,N,02327.22604,E,0.549,,280424,,,A*72
$GPGGA,000350.00,3730.48768,N,02327.22604,E,1,07,1.31,22.3,M,32.4,M,,*6C
$GPGLL,3730.48768,N,02327.22604,E,000350.00,A,A*6B
$GPRMC,000351.00,A,3730.48763,N,02327.22620,E,0.379,,280424,,,A*7B
$GPGGA,000351.00,3730.48763,N,02327.22620,E,1,07,1.31,22.6,M,32.4,M,,*65
$GPGLL,3730.48763,N,02327.22620,E,000351.00,A,A*67
$GPRMC,000352.00,A,3730.48758,N,02327.22635,E,0.255,,280424,,,A*7B
$GPGGA,000352.00,3730.48758,N,02327.22635,E,1,07,1.31,23.1,M,32.4,M,,*6C
$GPGLL,3730.48758,N,02327.22635,E,000352.00,A,A*68
$GPRMC,000353.00,A,3730.48751,N,02327.22665,E,0.253,,280424,,,A*70
$GPGGA,000353.00,3730.48751,N,02327.22665,E,1,07,1.31,23.5,M,32.4,M,,*65
$GPGLL,3730.48751,N,02327.22665,E,000353.00,A,A*65
$GPRMC,000354.00,A,3730.48741,N,02327.22674,E,0.057,,280424,,,A*70
$GPGGA,000354.00,3730.48741,N,02327.22674,E,1,07,1.31,24.0,M,32.4,M,,*61
$GPGLL,3730.48741,N,02327.22674,E,000354.00,A,A*63
$GPRMC,000355.00,A,3730.48742,N,02327.22719,E,0.313,,280424,,,A*7B
$GPGGA,000355.00,3730.48742,N,02327.22719,E,1,07,1.31,24.5,M,32.4,M,,*6C
$GPGLL,3730.48742,N,02327.22719,E,000355.00,A,A*6B
$GPRMC,000356.00,A,3730.48752,N,02327.22754,E,0.458,,280424,,,A*78
$GPGGA,000356.00,3730.48752,N,02327.22754,E,1,07,1.31,25.1,M,32.4,M,,*62
$GPGLL,3730.48752,N,02327.22754,E,000356.00,A,A*60
$GPRMC,000357.00,A,3730.48730,N,02327.22772,E,0.173,,280424,,,A*75
$GPGGA,000357.00,3730.48730,N,02327.22772,E,1,07,1.31,25.7,M,32.4,M,,*65
$GPGLL,3730.48730,N,02327.22772,E,000357.00,A,A*61
$GPRMC,000358.00,A,3730.48711,N,02327.22803,E,0.300,,280424,,,A*76
$GPGGA,000358.00,3730.48711,N,02327.22803,E,1,07,1.31,26.3,M,32.4,M,,*67
$GPGLL,3730.48711,N,02327.22803,E,000358.00,A,A*64
$GPRMC,000359.00,A,3730.48711,N,02327.22838,E,0.317,,280424,,,A*79
$GPGGA,000359.00,3730.48711,N,02327.22838,E,1,07,1.31,26.9,M,32.4,M,,*64
$GPGLL,3730.48711,N,02327.22838,E,000359.00,A,A*6D
$GPRMC,000400.00,A,3730.48705,N,02327.22863,E,0.254,,280424,,,A*7F
$GPGGA,000400.00,3730.48705,N,02327.22863,E,1,07,1.31,27.5,M,32.4,M,,*69
$GPGLL,3730.48705,N,02327.22863,E,000400.00,A,A*6D
$GPRMC,000401.00,A,3730.48693,N,02327.22878,E,0.215,,280424,,,A*7F
$GPGGA,000401.00,3730.48693,N,02327.22878,E,1,07,1.31,27.9,M,32.4,M,,*60
$GPGLL,3730.48693,N,02327.22878,E,000401.00,A,A*68
$GPRMC,000402.00,A,3730.48705,N,02327.22880,E,0.156,,280424,,,A*71
$GPGGA,000402.00,3730.48705,N,02327.22880,E,1,07,1.31,28.2,M,32.4,M,,*6E
$GPGLL,3730.48705,N,02327.22880,E,000402.00,A,A*62
$GPRMC,000403.00,A,3730.48701,N,02327.22897,E,0.194,,280424,,,A*7C
$GPGGA,000403.00,3730.48701,N,02327.22897,E,1,07,1.31,28.5,M,32.4,M,,*6A
$GPGLL,3730.48701,N,02327.22897,E,000403.00,A,A*61
$GPRMC,000404.00,A,3730.48687,N,02327.22907,E,0.071,,280424,,,A*76
$GPGGA,000404.00,3730.48687,N,02327.22907,E,1,07,1.31,28.8,M,32.4,M,,*67
$GPGLL,3730.48687,N,02327.22907,E,000404.00,A,A*61
$GPRMC,000405.00,A,3730.48616,N,02327.22901,E,0.944,,280424,,,A*76
$GPGGA,000405.00,3730.48616,N,02327.22901,E,1,07,1.31,29.1,M,32.4,M,,*60
$GPGLL,3730.48616,N,02327.22901,E,000405.00,A,A*6E
$GPRMC,000406.00,A,3730.48611,N,02327.22909,E,0.624,,280424,,,A*73
$GPGGA,000406.00,3730.48611,N,02327.22909,E,1,07,1.31,29.2,M,32.4,M,,*6F
$GPGLL,3730.48611,N,02327.22909,E,000406.00,A,A*62
$GPRMC,000407.00,A,3730.48602,N,02327.22904,E,0.561,,280424,,,A*7F
$GPGGA,000407.00,3730.48602,N,02327.22904,E,1,07,1.31,29.2,M,32.4,M,,*61
$GPGLL,3730.48602,N,02327.22904,E,000407.00,A,A*6C
$GPRMC,000408.00,A,3730.48595,N,02327.22868,E,0.717,,280424,,,A*75
$GPGGA,000408.00,3730.48595,N,02327.22868,E,1,07,1.31,28.9,M,32.4,M,,*62
$GPGLL,3730.48595,N,02327.22868,E,000408.00,A,A*65
$GPRMC,000409.00,A,3730.48571,N,02327.22846,E,0.907,,280424,,,A*7D
$GPGGA,000409.00,3730.48571,N,02327.22846,E,1,07,1.31,28.6,M,32.4,M,,*6A
$GPGLL,3730.48571,N,02327.22846,E,000409.00,A,A*62
$GPRMC,000410.00,A,3730.48563,N,02327.22840,E,0.670,,280424,,,A*7F
$GPGGA,000410.00,3730.48563,N,02327.22840,E,1,07,1.31,28.4,M,32.4,M,,*65
$GPGLL,3730.48563,N,02327.22840,E,000410.00,A,A*6F
$GPRMC,000411.00,A,3730.48550,N,02327.22833,E,0.665,,280424,,,A*7E
$GPGGA,000411.00,3730.48550,N,02327.22833,E,1,07,1.31,28.2,M,32.4,M,,*66
$GPGLL,3730.48550,N,02327.22833,E,000411.00,A,A*6A
$GPRMC,000412.00,A,3730.48551,N,02327.22830,E,0.519,,280424,,,A*77
$GPGGA,000412.00,3730.48551,N,02327.22830,E,1,07,1.31,28.0,M,32.4,M,,*65
$GPGLL,3730.48551,N,02327.22830,E,000412.00,A,A*6B
$GPRMC,000413.00,A,3730.48537,N,02327.22827,E,0.596,,280424,,,A*77
$GPGGA,000413.00,3730.48537,N,02327.22827,E,1,07,1.31,27.8,M,32.4,M,,*65
$GPGLL,3730.48537,N,02327.22827,E,000413.00,A,A*6C
$GPRMC,000414.00,A,3730.48527,N,02327.22832,E,0.595,,280424,,,A*76
$GPGGA,000414.00,3730.48527,N,02327.22832,E,1,07,1.31,27.6,M,32.4,M,,*69
$GPGLL,3730.48527,N,02327.22832,E,000414.00,A,A*6E
$GPRMC,000415.00,A,3730.48548,N,02327.22842,E,0.190,,280424,,,A*78
$GPGGA,000415.00,3730.48548,N,02327.22842,E,1,07,1.31,27.5,M,32.4,M,,*65
$GPGLL,3730.48548,N,02327.22842,E,000415.00,A,A*61
$GPRMC,000416.00,A,3730.48566,N,02327.22847,E,0.117,,280424,,,A*7D
$GPGGA,000416.00,3730.48566,N,02327.22847,E,1,07,1.31,27.2,M,32.4,M,,*68
$GPGLL,3730.48566,N,02327.22847,E,000416.00,A,A*6B
$GPRMC,000417.00,A,3730.48582,N,02327.22849,E,0.051,,280424,,,A*7B
$GPGGA,000417.00,3730.48582,N,02327.22849,E,1,07,1.31,27.0,M,32.4,M,,*6F
$GPGLL,3730.48582,N,02327.22849,E,000417.00,A,A*6E
$GPRMC,000418.00,A,3730.48610,N,02327.22846,E,0.122,,280424,,,A*76
$GPGGA,000418.00,3730.48610,N,02327.22846,E,1,07,1.31,26.9,M,32.4,M,,*6F
$GPGLL,3730.48610,N,02327.22846,E,000418.00,A,A*66
$GPRMC,000419.00,A,3730.48632,N,02327.22857,E,0.259,,280424,,,A*78
$GPGGA,000419.00,3730.48632,N,02327.22857,E,1,07,1.31,26.9,M,32.4,M,,*6E
$GPGLL,3730.48632,N,02327.22857,E,000419.00,A,A*67
$GPRMC,000420.00,A,3730.48639,N,02327.22878,E,0.337,,280424,,,A*7D
$GPGGA,000420.00,3730.48639,N,02327.22878,E,1,07,1.31,26.9,M,32.4,M,,*62
$GPGLL,3730.48639,N,02327.22878,E,000420.00,A,A*6B
$GPRMC,000421.00,A,3730.48652,N,02327.22878,E,0.250,,280424,,,A*71
$GPGGA,000421.00,3730.48652,N,02327.22878,E,1,06,1.41,27.0,M,32.4,M,,*60
$GPGLL,3730.48652,N,02327.22878,E,000421.00,A,A*67
$GPRMC,000422.00,A,3730.48666,N,02327.22873,E,0.172,,280424,,,A*7D
$GPGGA,000422.00,3730.48666,N,02327.22873,E,1,06,1.41,27.0,M,32.4,M,,*6F
$GPGLL,3730.48666,N,02327.22873,E,000422.00,A,A*68
$GPRMC,000423.00,A,3730.48675,N,02327.22872,E,0.192,,280424,,,A*71
$GPGGA,000423.00,3730.48675,N,02327.22872,E,1,06,1.41,27.0,M,32.4,M,,*6D
$GPGLL,3730.48675,N,02327.22872,E,000423.00,A,A*6A
$GPRMC,000424.00,A,3730.48681,N,02327.22873,E,0.298,,280424,,,A*75
$GPGGA,000424.00,3730.48681,N,02327.22873,E,1,06,1.41,27.1,M,32.4,M,,*61
$GPGLL,3730.48681,N,02327.22873,E,000424.00,A,A*67
$GPRMC,000425.00,A,3730.48702,N,02327.22855,E,0.076,,280424,,,A*78
$GPGGA,000425.00,3730.48702,N,02327.22855,E,1,06,1.41,26.9,M,32.4,M,,*67
$GPGLL,3730.48702,N,02327.22855,E,000425.00,A,A*68
$GPRMC,000426.00,A,3730.48721,N,02327.22839,E,0.067,,280424,,,A*70
$GPGGA,000426.00,3730.48721,N,02327.22839,E,1,07,1.41,26.7,M,32.4,M,,*60
$GPGLL,3730.48721,N,02327.22839,E,000426.00,A,A*60
$GPRMC,000427.00,A,3730.48741,N,02327.22815,E,0.189,,280424,,,A*78
$GPGGA,000427.00,3730.48741,N,02327.22815,E,1,07,1.41,26.4,M,32.4,M,,*6A
$GPGLL,3730.48741,N,02327.22815,E,000427.00,A,A*69
$GPRMC,000428.00,A,3730.48761,N,02327.22796,E,0.139,,280424,,,A*7A
$GPGGA,000428.00,3730.48761,N,02327.22796,E,1,07,1.41,26.3,M,32.4,M,,*64
$GPGLL,3730.48761,N,02327.22796,E,000428.00,A,A*60
$GPRMC,000429.00,A,3730.48786,N,02327.22774,E,0.172,,280424,,,A*71
$GPGGA,000429.00,3730.48786,N,02327.22774,E,1,07,1.41,26.1,M,32.4,M,,*62
$GPGLL,3730.48786,N,02327.22774,E,000429.00,A,A*64
$GPRMC,000430.00,A,3730.48814,N,02327.22749,E,0.251,,280424,,,A*71
$GPGGA,000430.00,3730.48814,N,02327.22749,E,1,07,1.41,25.9,M,32.4,M,,*6B
$GPGLL,3730.48814,N,02327.22749,E,000430.00,A,A*66
$GPRMC,000431.00,A,3730.48833,N,02327.22726,E,0.280,,280424,,,A*70
$GPGGA,000431.00,3730.48833,N,02327.22726,E,1,07,1.41,25.6,M,32.4,M,,*69
$GPGLL,3730.48833,N,02327.22726,E,000431.00,A,A*6B
$GPRMC,000432.00,A,3730.48849,N,02327.22709,E,0.172,,280424,,,A*7D
$GPGGA,000432.00,3730.48849,N,02327.22709,E,1,07,1.41,25.3,M,32.4,M,,*6F
$GPGLL,3730.48849,N,02327.22709,E,000432.00,A,A*68
$GPRMC,000433.00,A,3730.48872,N,02327.22692,E,0.185,,280424,,,A*7F
$GPGGA,000433.00,3730.48872,N,02327.22692,E,1,07,1.41,25.1,M,32.4,M,,*67
$GPGLL,3730.48872,N,02327.22692,E,000433.00,A,A*62
$GPRMC,000434.00,A,3730.48874,N,02327.22700,E,0.180,,280424,,,A*71
$GPGGA,000434.00,3730.48874,N,02327.22700,E,1,07,1.31,25.0,M,32.4,M,,*6A
$GPGLL,3730.48874,N,02327.22700,E,000434.00,A,A*69
$GPRMC,000435.00,A,3730.48883,N,02327.22701,E,0.175,,280424,,,A*73
$GPGGA,000435.00,3730.48883,N,02327.22701,E,1,07,1.31,24.9,M,32.4,M,,*6A
$GPGLL,3730.48883,N,02327.22701,E,000435.00,A,A*61
$GPRMC,000436.00,A,3730.48884,N,02327.22705,E,0.195,,280424,,,A*7D
$GPGGA,000436.00,3730.48884,N,02327.22705,E,1,07,1.31,24.7,M,32.4,M,,*64
$GPGLL,3730.48884,N,02327.22705,E,000436.00,A,A*61
$GPRMC,000437.00,A,3730.48885,N,02327.22694,E,0.345,,280424,,,A*7B
$GPGGA,000437.00,3730.48885,N,02327.22694,E,1,07,1.31,24.4,M,32.4,M,,*6E
$GPGLL,3730.48885,N,02327.22694,E,000437.00,A,A*68
$GPRMC,000438.00,A,3730.48904,N,02327.22657,E,0.346,,280424,,,A*70
$GPGGA,000438.00,3730.48904,N,02327.22657,E,1,06,1.41,24.1,M,32.4,M,,*65
$GPGLL,3730.48904,N,02327.22657,E,000438.00,A,A*60
$GPRMC,000439.00,A,3730.48916,N,02327.22624,E,0.354,,280424,,,A*75
$GPGGA,000439.00,3730.48916,N,02327.22624,E,1,06,1.41,23.6,M,32.4,M,,*63
$GPGLL,3730.48916,N,02327.22624,E,000439.00,A,A*66
$GPRMC,000440.00,A,3730.48934,N,02327.22596,E,0.498,,280424,,,A*76
$GPGGA,000440.00,3730.48934,N,02327.22596,E,1,06,1.41,23.4,M,32.4,M,,*65
$GPGLL,3730.48934,N,02327.22596,E,000440.00,A,A*62
$GPRMC,000441.00,A,3730.48961,N,02327.22563,E,0.460,,280424,,,A*7A
$GPGGA,000441.00,3730.48961,N,02327.22563,E,1,06,1.41,23.1,M,32.4,M,,*6B
$GPGLL,3730.48961,N,02327.22563,E,000441.00,A,A*69
$GPRMC,000442.00,A,3730.48980,N,02327.22539,E,0.401,,280424,,,A*7E
$GPGGA,000442.00,3730.48980,N,02327.22539,E,1,06,1.41,22.8,M,32.4,M,,*60
$GPGLL,3730.48980,N,02327.22539,E,000442.00,A,A*6A
$GPRMC,000443.00,A,3730.48991,N,02327.22530,E,0.392,,280424,,,A*7B
$GPGGA,000443.00,3730.48991,N,02327.22530,E,1,06,1.41,22.7,M,32.4,M,,*67
$GPGLL,3730.48991,N,02327.22530,E,000443.00,A,A*62
$GPRMC,000444.00,A,3730.49013,N,02327.22524,E,0.584,,280424,,,A*7A
$GPGGA,000444.00,3730.49013,N,02327.22524,E,1,07,1.31,22.8,M,32.4,M,,*6E
$GPGLL,3730.49013,N,02327.22524,E,000444.00,A,A*62
$GPRMC,000445.00,A,3730.49033,N,02327.22523,E,0.656,,280424,,,A*72
$GPGGA,000445.00,3730.49033,N,02327.22523,E,1,07,1.31,22.9,M,32.4,M,,*6B
$GPGLL,3730.49033,N,02327.22523,E,000445.00,A,A*66
$GPRMC,000446.00,A,3730.49013,N,02327.22540,E,0.318,,280424,,,A*79
$GPGGA,000446.00,3730.49013,N,02327.22540,E,1,07,1.31,23.0,M,32.4,M,,*67
$GPGLL,3730.49013,N,02327.22540,E,000446.00,A,A*62
$GPRMC,000447.00,A,3730.49009,N,02327.22550,E,0.174,,280424,,,A*7A
$GPGGA,000447.00,3730.49009,N,02327.22550,E,1,07,1.31,23.0,M,32.4,M,,*6C
$GPGLL,3730.49009,N,02327.22550,E,000447.00,A,A*69
$GPRMC,000448.00,A,3730.49017,N,02327.22554,E,0.187,,280424,,,A*72
$GPGGA,000448.00,3730.49017,N,02327.22554,E,1,07,1.31,23.1,M,32.4,M,,*69
$GPGLL,3730.49017,N,02327.22554,E,000448.00,A,A*6D
$GPRMC,000449.00,A,3730.49032,N,02327.22547,E,0.165,,280424,,,A*7A
$GPGGA,000449.00,3730.49032,N,02327.22547,E,1,07,1.31,22.9,M,32.4,M,,*64
$GPGLL,3730.49032,N,02327.22547,E,000449.00,A,A*69
$GPRMC,000450.00,A,3730.49033,N,02327.22536,E,0.116,,280424,,,A*71
$GPGGA,000450.00,3730.49033,N,02327.22536,E,1,07,1.31,22.7,M,32.4,M,,*65
$GPGLL,3730.49033,N,02327.22536,E,000450.00,A,A*66
$GPRMC,000451.00,A,3730.49002,N,02327.22558,E,0.413,,280424,,,A*7A
$GPGGA,000451.00,3730.49002,N,02327.22558,E,1,07,1.31,22.6,M,32.4,M,,*6F
$GPGLL,3730.49002,N,02327.22558,E,000451.00,A,A*6D
$GPRMC,000452.00,A,3730.49006,N,02327.22566,E,0.158,,280424,,,A*7A
$GPGGA,000452.00,3730.49006,N,02327.22566,E,1,07,1.31,22.7,M,32.4,M,,*64
$GPGLL,3730.49006,N,02327.22566,E,000452.00,A,A*67
$GPRMC,000453.00,A,3730.49003,N,02327.22583,E,0.130,,280424,,,A*7B
$GPGGA,000453.00,3730.49003,N,02327.22583,E,1,07,1.31,22.5,M,32.4,M,,*69
$GPGLL,3730.49003,N,02327.22583,E,000453.00,A,A*68
$GPRMC,000454.00,A,3730.48993,N,02327.22594,E,0.264,,280424,,,A*79
$GPGGA,000454.00,3730.48993,N,02327.22594,E,1,07,1.31,22.4,M,32.4,M,,*68
$GPGLL,3730.48993,N,02327.22594,E,000454.00,A,A*68
$GPRMC,000455.00,A,3730.49001,N,02327.22592,E,0.192,,280424,,,A*77
$GPGGA,000455.00,3730.49001,N,02327.22592,E,1,07,1.31,22.3,M,32.4,M,,*6B
$GPGLL,3730.49001,N,02327.22592,E,000455.00,A,A*6C
$GPRMC,000456.00,A,3730.49004,N,02327.22587,E,0.203,,280424,,,A*7E
$GPGGA,000456.00,3730.49004,N,02327.22587,E,1,07,1.31,22.1,M,32.4,M,,*6B
$GPGLL,3730.49004,N,02327.22587,E,000456.00,A,A*6E
$GPRMC,000457.00,A,3730.49009,N,02327.22579,E,0.217,,280424,,,A*76
$GPGGA,000457.00,3730.49009,N,02327.22579,E,1,07,1.31,21.9,M,32.4,M,,*6D
$GPGLL,3730.49009,N,02327.22579,E,000457.00,A,A*63
$GPRMC,000458.00,A,3730.48997,N,02327.22584,E,0.238,,280424,,,A*79
$GPGGA,000458.00,3730.48997,N,02327.22584,E,1,07,1.31,21.8,M,32.4,M,,*6E
$GPGLL,3730.48997,N,02327.22584,E,000458.00,A,A*61
$GPRMC,000459.00,A,3730.49010,N,02327.22570,E,0.221,,280424,,,A*7C
$GPGGA,000459.00,3730.49010,N,02327.22570,E,1,07,1.31,21.6,M,32.4,M,,*6D
$GPGLL,3730.49010,N,02327.22570,E,000459.00,A,A*6C
$GPRMC,000500.00,A,3730.49015,N,02327.22559,E,0.078,,280424,,,A*71
$GPGGA,000500.00,3730.49015,N,02327.22559,E,1,07,1.31,21.5,M,32.4,M,,*6D
$GPGLL,3730.49015,N,02327.22559,E,000500.00,A,A*6F
$GPRMC,000501.00,A,3730.49007,N,02327.22547,E,0.210,,280424,,,A*70
$GPGGA,000501.00,3730.49007,N,02327.22547,E,1,07,1.31,21.2,M,32.4,M,,*67
$GPGLL,3730.49007,N,02327.22547,E,000501.00,A,A*62
$GPRMC,000502.00,A,3730.49049,N,02327.22495,E,0.470,,280424,,,A*77
$GPGGA,000502.00,3730.49049,N,02327.22495,E,1,07,1.31,20.9,M,32.4,M,,*6A
$GPGLL,3730.49049,N,02327.22495,E,000502.00,A,A*65
$GPRMC,000503.00,A,3730.49073,N,02327.22461,E,0.422,,280424,,,A*73
$GPGGA,000503.00,3730.49073,N,02327.22461,E,1,07,1.31,20.5,M,32.4,M,,*65
$GPGLL,3730.49073,N,02327.22461,E,000503.00,A,A*66
$GPRMC,000504.00,A,3730.49075,N,02327.22445,E,0.359,,280424,,,A*7F
$GPGGA,000504.00,3730.49075,N,02327.22445,E,1,07,1.31,20.2,M,32.4,M,,*65
$GPGLL,3730.49075,N,02327.22445,E,000504.00,A,A*61
$GPRMC,000505.00,A,3730.49104,N,02327.22415,E,0.600,,280424,,,A*75
$GPGGA,000505.00,3730.49104,N,02327.22415,E,1,07,1.31,20.1,M,32.4,M,,*65
$GPGLL,3730.49104,N,02327.22415,E,000505.00,A,A*62
$GPRMC,000506.00,A,3730.49138,N,02327.22373,E,0.812,,280424,,,A*73
$GPGGA,000506.00,3730.49138,N,02327.22373,E,1,07,1.31,19.8,M,32.4,M,,*6D
$GPGLL,3730.49138,N,02327.22373,E,000506.00,A,A*69
$GPRMC,000507.00,A,3730.49127,N,02327.22386,E,0.562,,280424,,,A*7C
$GPGGA,000507.00,3730.49127,N,02327.22386,E,1,07,1.31,19.7,M,32.4,M,,*67
$GPGLL,3730.49127,N,02327.22386,E,000507.00,A,A*6C
$GPRMC,000508.00,A,3730.49145,N,02327.22369,E,0.642,,280424,,,A*77
$GPGGA,000508.00,3730.49145,N,02327.22369,E,1,07,1.31,19.6,M,32.4,M,,*6C
$GPGLL,3730.49145,N,02327.22369,E,000508.00,A,A*66
$GPRMC,000509.00,A,3730.49143,N,02327.22366,E,0.408,,280424,,,A*73
$GPGGA,000509.00,3730.49143,N,02327.22366,E,1,07,1.31,19.5,M,32.4,M,,*67
$GPGLL,3730.49143,N,02327.22366,E,000509.00,A,A*6E
