$GPRMC,162428.00,A,3729.86108,N,02327.46657,E,0.012,,300424,,,A*73
$GPGGA,162428.00,3729.86108,N,02327.46657,E,1,09,1.32,6.6,M,32.4,M,,*51
$GPGLL,3729.86108,N,02327.46657,E,162428.00,A,A*68
$GPRMC,162429.00,A,3729.86109,N,02327.46655,E,0.029,,300424,,,A*79
$GPGGA,162429.00,3729.86109,N,02327.46655,E,1,09,1.24,6.5,M,32.4,M,,*57
$GPGLL,3729.86109,N,02327.46655,E,162429.00,A,A*6A
$GPRMC,162430.00,A,3729.86109,N,02327.46651,E,0.022,,300424,,,A*7E
$GPGGA,162430.00,3729.86109,N,02327.46651,E,1,09,1.24,6.3,M,32.4,M,,*5D
$GPGLL,3729.86109,N,02327.46651,E,162430.00,A,A*66
$GPRMC,162431.00,A,3729.86108,N,02327.46648,E,0.032,,300424,,,A*77
$GPGGA,162431.00,3729.86108,N,02327.46648,E,1,09,1.32,6.1,M,32.4,M,,*50
$GPGLL,3729.86108,N,02327.46648,E,162431.00,A,A*6E
$GPRMC,162432.00,A,3729.86107,N,02327.46646,E,0.018,,300424,,,A*7D
$GPGGA,162432.00,3729.86107,N,02327.46646,E,1,09,1.24,6.0,M,32.4,M,,*54
$GPGLL,3729.86107,N,02327.46646,E,162432.00,A,A*6C
$GPRMC,162433.00,A,3729.86108,N,02327.46645,E,0.048,,300424,,,A*75
$GPGGA,162433.00,3729.86108,N,02327.46645,E,1,09,1.24,5.9,M,32.4,M,,*53
$GPGLL,3729.86108,N,02327.46645,E,162433.00,A,A*61
$GPRMC,162434.00,A,3729.86107,N,02327.46643,E,0.057,,300424,,,A*75
$GPGGA,162434.00,3729.86107,N,02327.46643,E,1,09,1.24,5.7,M,32.4,M,,*53
$GPGLL,3729.86107,N,02327.46643,E,162434.00,A,A*6F
$GPRMC,162435.00,A,3729.86106,N,02327.46640,E,0.079,,300424,,,A*7A
$GPGGA,162435.00,3729.86106,N,02327.46640,E,1,09,1.24,5.6,M,32.4,M,,*51
$GPGLL,3729.86106,N,02327.46640,E,162435.00,A,A*6C
$GPRMC,162436.00,A,3729.86102,N,02327.46639,E,0.069,,300424,,,A*72
$GPGGA,162436.00,3729.86102,N,02327.46639,E,1,10,1.24,5.6,M,32.4,M,,*50
$GPGLL,3729.86102,N,02327.46639,E,162436.00,A,A*65
$GPRMC,162437.00,A,3729.86099,N,02327.46637,E,0.068,,300424,,,A*7F
$GPGGA,162437.00,3729.86099,N,02327.46637,E,1,10,1.24,5.4,M,32.4,M,,*5E
$GPGLL,3729.86099,N,02327.46637,E,162437.00,A,A*69
$GPRMC,162438.00,A,3729.86097,N,02327.46635,E,0.065,,300424,,,A*71
$GPGGA,162438.00,3729.86097,N,02327.46635,E,1,10,1.24,5.4,M,32.4,M,,*5D
$GPGLL,3729.86097,N,02327.46635,E,162438.00,A,A*6A
$GPRMC,162439.00,A,3729.86094,N,02327.46635,E,0.016,,300424,,,A*77
$GPGGA,162439.00,3729.86094,N,02327.46635,E,1,10,1.24,5.4,M,32.4,M,,*5F
$GPGLL,3729.86094,N,02327.46635,E,162439.00,A,A*68
$GPRMC,162440.00,A,3729.86093,N,02327.46633,E,0.048,,300424,,,A*73
$GPGGA,162440.00,3729.86093,N,02327.46633,E,1,10,1.24,5.3,M,32.4,M,,*57
$GPGLL,3729.86093,N,02327.46633,E,162440.00,A,A*67
$GPRMC,162441.00,A,3729.86091,N,02327.46634,E,0.016,,300424,,,A*7C
$GPGGA,162441.00,3729.86091,N,02327.46634,E,1,10,1.24,5.3,M,32.4,M,,*53
$GPGLL,3729.86091,N,02327.46634,E,162441.00,A,A*63
$GPRMC,162442.00,A,3729.86087,N,02327.46634,E,0.086,,300424,,,A*71
$GPGGA,162442.00,3729.86087,N,02327.46634,E,1,10,1.24,5.6,M,32.4,M,,*52
$GPGLL,3729.86087,N,02327.46634,E,162442.00,A,A*67
$GPRMC,162443.00,A,3729.86085,N,02327.46633,E,0.086,,300424,,,A*75
$GPGGA,162443.00,3729.86085,N,02327.46633,E,1,09,1.24,5.5,M,32.4,M,,*5D
$GPGLL,3729.86085,N,02327.46633,E,162443.00,A,A*63
$GPRMC,162444.00,A,3729.86081,N,02327.46634,E,0.043,,300424,,,A*78
$GPGGA,162444.00,3729.86081,N,02327.46634,E,1,09,1.24,5.5,M,32.4,M,,*59
$GPGLL,3729.86081,N,02327.46634,E,162444.00,A,A*67
$GPRMC,162445.00,A,3729.86077,N,02327.46635,E,0.055,,300424,,,A*76
$GPGGA,162445.00,3729.86077,N,02327.46635,E,1,09,1.32,5.7,M,32.4,M,,*55
$GPGLL,3729.86077,N,02327.46635,E,162445.00,A,A*6E
$GPRMC,162446.00,A,3729.86075,N,02327.46635,E,0.074,,300424,,,A*74
$GPGGA,162446.00,3729.86075,N,02327.46635,E,1,09,1.24,5.8,M,32.4,M,,*5C
$GPGLL,3729.86075,N,02327.46635,E,162446.00,A,A*6F
$GPRMC,162447.00,A,3729.86070,N,02327.46636,E,0.005,,300424,,,A*75
$GPGGA,162447.00,3729.86070,N,02327.46636,E,1,09,1.24,6.0,M,32.4,M,,*50
$GPGLL,3729.86070,N,02327.46636,E,162447.00,A,A*68
$GPRMC,162448.00,A,3729.86068,N,02327.46637,E,0.064,,300424,,,A*75
$GPGGA,162448.00,3729.86068,N,02327.46637,E,1,09,1.24,6.2,M,32.4,M,,*55
$GPGLL,3729.86068,N,02327.46637,E,162448.00,A,A*6F
$GPRMC,162449.00,A,3729.86065,N,02327.46636,E,0.064,,300424,,,A*78
$GPGGA,162449.00,3729.86065,N,02327.46636,E,1,09,1.24,6.2,M,32.4,M,,*58
$GPGLL,3729.86065,N,02327.46636,E,162449.00,A,A*62
$GPRMC,162450.00,A,3729.86062,N,02327.46634,E,0.046,,300424,,,A*75
$GPGGA,162450.00,3729.86062,N,02327.46634,E,1,09,1.24,6.3,M,32.4,M,,*54
$GPGLL,3729.86062,N,02327.46634,E,162450.00,A,A*6F
$GPRMC,162451.00,A,3729.86059,N,02327.46634,E,0.067,,300424,,,A*7F
$GPGGA,162451.00,3729.86059,N,02327.46634,E,1,09,1.24,6.5,M,32.4,M,,*5B
$GPGLL,3729.86059,N,02327.46634,E,162451.00,A,A*66
$GPRMC,162452.00,A,3729.86058,N,02327.46633,E,0.025,,300424,,,A*7C
$GPGGA,162452.00,3729.86058,N,02327.46633,E,1,09,1.24,6.5,M,32.4,M,,*5E
$GPGLL,3729.86058,N,02327.46633,E,162452.00,A,A*63
$GPRMC,162453.00,A,3729.86054,N,02327.46633,E,0.019,,300424,,,A*7E
$GPGGA,162453.00,3729.86054,N,02327.46633,E,1,09,1.24,6.7,M,32.4,M,,*51
$GPGLL,3729.86054,N,02327.46633,E,162453.00,A,A*6E
$GPRMC,162454.00,A,3729.86051,N,02327.46632,E,0.035,,300424,,,A*73
$GPGGA,162454.00,3729.86051,N,02327.46632,E,1,09,1.24,6.8,M,32.4,M,,*5D
$GPGLL,3729.86051,N,02327.46632,E,162454.00,A,A*6D
$GPRMC,162455.00,A,3729.86046,N,02327.46631,E,0.067,,300424,,,A*70
$GPGGA,162455.00,3729.86046,N,02327.46631,E,1,09,1.32,6.8,M,32.4,M,,*5E
$GPGLL,3729.86046,N,02327.46631,E,162455.00,A,A*69
$GPRMC,162456.00,A,3729.86043,N,02327.46630,E,0.027,,300424,,,A*73
$GPGGA,162456.00,3729.86043,N,02327.46630,E,1,09,1.24,6.8,M,32.4,M,,*5E
$GPGLL,3729.86043,N,02327.46630,E,162456.00,A,A*6E
$GPRMC,162457.00,A,3729.86042,N,02327.46628,E,0.041,,300424,,,A*7A
$GPGGA,162457.00,3729.86042,N,02327.46628,E,1,09,1.24,6.8,M,32.4,M,,*57
$GPGLL,3729.86042,N,02327.46628,E,162457.00,A,A*67
$GPRMC,162458.00,A,3729.86042,N,02327.46625,E,0.029,,300424,,,A*76
$GPGGA,162458.00,3729.86042,N,02327.46625,E,1,09,1.24,6.8,M,32.4,M,,*55
$GPGLL,3729.86042,N,02327.46625,E,162458.00,A,A*65
$GPRMC,162459.00,A,3729.86040,N,02327.46624,E,0.045,,300424,,,A*7E
$GPGGA,162459.00,3729.86040,N,02327.46624,E,1,09,1.24,6.8,M,32.4,M,,*57
$GPGLL,3729.86040,N,02327.46624,E,162459.00,A,A*67
$GPRMC,162500.00,A,3729.86038,N,02327.46621,E,0.049,,300424,,,A*75
$GPGGA,162500.00,3729.86038,N,02327.46621,E,1,09,1.24,6.6,M,32.4,M,,*5E
$GPGLL,3729.86038,N,02327.46621,E,162500.00,A,A*60
$GPRMC,162501.00,A,3729.86036,N,02327.46617,E,0.040,,300424,,,A*76
$GPGGA,162501.00,3729.86036,N,02327.46617,E,1,09,1.32,6.5,M,32.4,M,,*50
$GPGLL,3729.86036,N,02327.46617,E,162501.00,A,A*6A
$GPRMC,162502.00,A,3729.86035,N,02327.46613,E,0.028,,300424,,,A*7C
$GPGGA,162502.00,3729.86035,N,02327.46613,E,1,09,1.32,6.3,M,32.4,M,,*52
$GPGLL,3729.86035,N,02327.46613,E,162502.00,A,A*6E
$GPRMC,162503.00,A,3729.86035,N,02327.46610,E,0.042,,300424,,,A*72
$GPGGA,162503.00,3729.86035,N,02327.46610,E,1,09,1.32,6.2,M,32.4,M,,*51
$GPGLL,3729.86035,N,02327.46610,E,162503.00,A,A*6C
$GPRMC,162504.00,A,3729.86035,N,02327.46608,E,0.008,,300424,,,A*72
$GPGGA,162504.00,3729.86035,N,02327.46608,E,1,09,1.32,6.1,M,32.4,M,,*5C
$GPGLL,3729.86035,N,02327.46608,E,162504.00,A,A*62
$GPRMC,162505.00,A,3729.86034,N,02327.46606,E,0.024,,300424,,,A*72
$GPGGA,162505.00,3729.86034,N,02327.46606,E,1,09,1.32,6.0,M,32.4,M,,*53
$GPGLL,3729.86034,N,02327.46606,E,162505.00,A,A*6C
$GPRMC,162506.00,A,3729.86032,N,02327.46604,E,0.040,,300424,,,A*77
$GPGGA,162506.00,3729.86032,N,02327.46604,E,1,09,1.32,5.9,M,32.4,M,,*5E
$GPGLL,3729.86032,N,02327.46604,E,162506.00,A,A*6B
$GPRMC,162507.00,A,3729.86030,N,02327.46602,E,0.015,,300424,,,A*72
$GPGGA,162507.00,3729.86030,N,02327.46602,E,1,09,1.32,5.9,M,32.4,M,,*5B
$GPGLL,3729.86030,N,02327.46602,E,162507.00,A,A*6E
$GPRMC,162508.00,A,3729.86029,N,02327.46601,E,0.036,,300424,,,A*77
$GPGGA,162508.00,3729.86029,N,02327.46601,E,1,09,1.24,5.8,M,32.4,M,,*59
$GPGLL,3729.86029,N,02327.46601,E,162508.00,A,A*6A
$GPRMC,162509.00,A,3729.86029,N,02327.46600,E,0.014,,300424,,,A*77
$GPGGA,162509.00,3729.86029,N,02327.46600,E,1,09,1.24,5.8,M,32.4,M,,*59
$GPGLL,3729.86029,N,02327.46600,E,162509.00,A,A*6A
$GPRMC,162510.00,A,3729.86028,N,02327.46599,E,0.018,,300424,,,A*71
$GPGGA,162510.00,3729.86028,N,02327.46599,E,1,09,1.24,5.8,M,32.4,M,,*53
$GPGLL,3729.86028,N,02327.46599,E,162510.00,A,A*60
$GPRMC,162511.00,A,3729.86027,N,02327.46599,E,0.028,,300424,,,A*7C
$GPGGA,162511.00,3729.86027,N,02327.46599,E,1,09,1.24,5.9,M,32.4,M,,*5C
$GPGLL,3729.86027,N,02327.46599,E,162511.00,A,A*6E
$GPRMC,162512.00,A,3729.86027,N,02327.46598,E,0.056,,300424,,,A*77
$GPGGA,162512.00,3729.86027,N,02327.46598,E,1,09,1.24,6.0,M,32.4,M,,*54
$GPGLL,3729.86027,N,02327.46598,E,162512.00,A,A*6C
$GPRMC,162513.00,A,3729.86026,N,02327.46600,E,0.054,,300424,,,A*77
$GPGGA,162513.00,3729.86026,N,02327.46600,E,1,09,1.24,6.0,M,32.4,M,,*56
$GPGLL,3729.86026,N,02327.46600,E,162513.00,A,A*6E
$GPRMC,162514.00,A,3729.86027,N,02327.46602,E,0.033,,300424,,,A*72
$GPGGA,162514.00,3729.86027,N,02327.46602,E,1,09,1.24,6.1,M,32.4,M,,*53
$GPGLL,3729.86027,N,02327.46602,E,162514.00,A,A*6A
$GPRMC,162515.00,A,3729.86026,N,02327.46603,E,0.039,,300424,,,A*79
$GPGGA,162515.00,3729.86026,N,02327.46603,E,1,09,1.24,6.1,M,32.4,M,,*52
$GPGLL,3729.86026,N,02327.46603,E,162515.00,A,A*6B
$GPRMC,162516.00,A,3729.86024,N,02327.46605,E,0.036,,300424,,,A*71
$GPGGA,162516.00,3729.86024,N,02327.46605,E,1,09,1.24,6.2,M,32.4,M,,*56
$GPGLL,3729.86024,N,02327.46605,E,162516.00,A,A*6C
$GPRMC,162517.00,A,3729.86024,N,02327.46606,E,0.075,,300424,,,A*74
$GPGGA,162517.00,3729.86024,N,02327.46606,E,1,09,1.24,6.4,M,32.4,M,,*52
$GPGLL,3729.86024,N,02327.46606,E,162517.00,A,A*6E
$GPRMC,162518.00,A,3729.86023,N,02327.46607,E,0.043,,300424,,,A*78
$GPGGA,162518.00,3729.86023,N,02327.46607,E,1,09,1.24,6.4,M,32.4,M,,*5B
$GPGLL,3729.86023,N,02327.46607,E,162518.00,A,A*67
$GPRMC,162519.00,A,3729.86023,N,02327.46610,E,0.041,,300424,,,A*7D
$GPGGA,162519.00,3729.86023,N,02327.46610,E,1,09,1.24,6.6,M,32.4,M,,*5E
$GPGLL,3729.86023,N,02327.46610,E,162519.00,A,A*60
$GPRMC,162520.00,A,3729.86023,N,02327.46611,E,0.014,,300424,,,A*76
$GPGGA,162520.00,3729.86023,N,02327.46611,E,1,09,1.24,6.7,M,32.4,M,,*54
$GPGLL,3729.86023,N,02327.46611,E,162520.00,A,A*6B
$GPRMC,162521.00,A,3729.86022,N,02327.46613,E,0.045,,300424,,,A*70
$GPGGA,162521.00,3729.86022,N,02327.46613,E,1,09,1.24,6.8,M,32.4,M,,*59
$GPGLL,3729.86022,N,02327.46613,E,162521.00,A,A*69
$GPRMC,162522.00,A,3729.86020,N,02327.46614,E,0.015,,300424,,,A*73
$GPGGA,162522.00,3729.86020,N,02327.46614,E,1,09,1.24,6.9,M,32.4,M,,*5E
$GPGLL,3729.86020,N,02327.46614,E,162522.00,A,A*6F
$GPRMC,162523.00,A,3729.86020,N,02327.46615,E,0.034,,300424,,,A*70
$GPGGA,162523.00,3729.86020,N,02327.46615,E,1,09,1.24,6.9,M,32.4,M,,*5E
$GPGLL,3729.86020,N,02327.46615,E,162523.00,A,A*6F
$GPRMC,162524.00,A,3729.86020,N,02327.46616,E,0.028,,300424,,,A*79
$GPGGA,162524.00,3729.86020,N,02327.46616,E,1,09,1.24,7.0,M,32.4,M,,*52
$GPGLL,3729.86020,N,02327.46616,E,162524.00,A,A*6B
$GPRMC,162525.00,A,3729.86018,N,02327.46617,E,0.026,,300424,,,A*7C
$GPGGA,162525.00,3729.86018,N,02327.46617,E,1,09,1.24,7.1,M,32.4,M,,*58
$GPGLL,3729.86018,N,02327.46617,E,162525.00,A,A*60
$GPRMC,162526.00,A,3729.86018,N,02327.46618,E,0.086,,300424,,,A*7A
$GPGGA,162526.00,3729.86018,N,02327.46618,E,1,09,1.24,7.2,M,32.4,M,,*57
$GPGLL,3729.86018,N,02327.46618,E,162526.00,A,A*6C
$GPRMC,162527.00,A,3729.86015,N,02327.46617,E,0.074,,300424,,,A*74
$GPGGA,162527.00,3729.86015,N,02327.46617,E,1,09,1.32,7.1,M,32.4,M,,*50
$GPGLL,3729.86015,N,02327.46617,E,162527.00,A,A*6F
$GPRMC,162528.00,A,3729.86012,N,02327.46616,E,0.064,,300424,,,A*7C
$GPGGA,162528.00,3729.86012,N,02327.46616,E,1,09,1.32,7.2,M,32.4,M,,*5A
$GPGLL,3729.86012,N,02327.46616,E,162528.00,A,A*66
$GPRMC,162529.00,A,3729.86011,N,02327.46615,E,0.028,,300424,,,A*75
$GPGGA,162529.00,3729.86011,N,02327.46615,E,1,09,1.32,7.2,M,32.4,M,,*5B
$GPGLL,3729.86011,N,02327.46615,E,162529.00,A,A*67
$GPRMC,162530.00,A,3729.86010,N,02327.46614,E,0.028,,300424,,,A*7D
$GPGGA,162530.00,3729.86010,N,02327.46614,E,1,09,1.32,7.2,M,32.4,M,,*53
$GPGLL,3729.86010,N,02327.46614,E,162530.00,A,A*6F
$GPRMC,162531.00,A,3729.86010,N,02327.46612,E,0.067,,300424,,,A*71
$GPGGA,162531.00,3729.86010,N,02327.46612,E,1,09,1.24,7.3,M,32.4,M,,*52
$GPGLL,3729.86010,N,02327.46612,E,162531.00,A,A*68
$GPRMC,162532.00,A,3729.86010,N,02327.46612,E,0.052,,300424,,,A*74
$GPGGA,162532.00,3729.86010,N,02327.46612,E,1,09,1.32,7.3,M,32.4,M,,*56
$GPGLL,3729.86010,N,02327.46612,E,162532.00,A,A*6B
$GPRMC,162533.00,A,3729.86009,N,02327.46611,E,0.039,,300424,,,A*73
$GPGGA,162533.00,3729.86009,N,02327.46611,E,1,09,1.32,7.4,M,32.4,M,,*5B
$GPGLL,3729.86009,N,02327.46611,E,162533.00,A,A*61
$GPRMC,162534.00,A,3729.86009,N,02327.46610,E,0.063,,300424,,,A*7A
$GPGGA,162534.00,3729.86009,N,02327.46610,E,1,09,1.32,7.4,M,32.4,M,,*5D
$GPGLL,3729.86009,N,02327.46610,E,162534.00,A,A*67
$GPRMC,162535.00,A,3729.86010,N,02327.46609,E,0.026,,300424,,,A*7A
$GPGGA,162535.00,3729.86010,N,02327.46609,E,1,09,1.32,7.4,M,32.4,M,,*5C
$GPGLL,3729.86010,N,02327.46609,E,162535.00,A,A*66
$GPRMC,162536.00,A,3729.86009,N,02327.46609,E,0.013,,300424,,,A*77
$GPGGA,162536.00,3729.86009,N,02327.46609,E,1,09,1.32,7.4,M,32.4,M,,*57
$GPGLL,3729.86009,N,02327.46609,E,162536.00,A,A*6D
$GPRMC,162537.00,A,3729.86007,N,02327.46609,E,0.028,,300424,,,A*70
$GPGGA,162537.00,3729.86007,N,02327.46609,E,1,09,1.32,7.5,M,32.4,M,,*59
$GPGLL,3729.86007,N,02327.46609,E,162537.00,A,A*62
$GPRMC,162538.00,A,3729.86004,N,02327.46609,E,0.021,,300424,,,A*75
$GPGGA,162538.00,3729.86004,N,02327.46609,E,1,09,1.32,7.6,M,32.4,M,,*56
$GPGLL,3729.86004,N,02327.46609,E,162538.00,A,A*6E
$GPRMC,162539.00,A,3729.86001,N,02327.46609,E,0.045,,300424,,,A*73
$GPGGA,162539.00,3729.86001,N,02327.46609,E,1,09,1.32,7.5,M,32.4,M,,*51
$GPGLL,3729.86001,N,02327.46609,E,162539.00,A,A*6A
$GPRMC,162540.00,A,3729.85998,N,02327.46608,E,0.057,,300424,,,A*75
$GPGGA,162540.00,3729.85998,N,02327.46608,E,1,09,1.32,7.5,M,32.4,M,,*54
$GPGLL,3729.85998,N,02327.46608,E,162540.00,A,A*6F
$GPRMC,162541.00,A,3729.85995,N,02327.46605,E,0.065,,300424,,,A*75
$GPGGA,162541.00,3729.85995,N,02327.46605,E,1,09,1.24,7.4,M,32.4,M,,*53
$GPGLL,3729.85995,N,02327.46605,E,162541.00,A,A*6E
$GPRMC,162542.00,A,3729.85993,N,02327.46604,E,0.044,,300424,,,A*72
$GPGGA,162542.00,3729.85993,N,02327.46604,E,1,09,1.30,7.3,M,32.4,M,,*55
$GPGLL,3729.85993,N,02327.46604,E,162542.00,A,A*6A
$GPRMC,162543.00,A,3729.85992,N,02327.46602,E,0.078,,300424,,,A*7B
$GPGGA,162543.00,3729.85992,N,02327.46602,E,1,09,1.24,7.3,M,32.4,M,,*56
$GPGLL,3729.85992,N,02327.46602,E,162543.00,A,A*6C
$GPRMC,162544.00,A,3729.85992,N,02327.46602,E,0.090,,300424,,,A*7A
$GPGGA,162544.00,3729.85992,N,02327.46602,E,1,09,1.24,7.3,M,32.4,M,,*51
$GPGLL,3729.85992,N,02327.46602,E,162544.00,A,A*6B
$GPRMC,162545.00,A,3729.85991,N,02327.46600,E,0.075,,300424,,,A*71
$GPGGA,162545.00,3729.85991,N,02327.46600,E,1,09,1.30,7.2,M,32.4,M,,*55
$GPGLL,3729.85991,N,02327.46600,E,162545.00,A,A*6B
$GPRMC,162546.00,A,3729.85992,N,02327.46597,E,0.079,,300424,,,A*70
$GPGGA,162546.00,3729.85992,N,02327.46597,E,1,09,1.24,7.2,M,32.4,M,,*5D
$GPGLL,3729.85992,N,02327.46597,E,162546.00,A,A*66
$GPRMC,162547.00,A,3729.85993,N,02327.46597,E,0.060,,300424,,,A*78
$GPGGA,162547.00,3729.85993,N,02327.46597,E,1,09,1.24,7.2,M,32.4,M,,*5D
$GPGLL,3729.85993,N,02327.46597,E,162547.00,A,A*66
$GPRMC,162548.00,A,3729.85994,N,02327.46597,E,0.020,,300424,,,A*74
$GPGGA,162548.00,3729.85994,N,02327.46597,E,1,09,1.24,7.2,M,32.4,M,,*55
$GPGLL,3729.85994,N,02327.46597,E,162548.00,A,A*6E
$GPRMC,162549.00,A,3729.85995,N,02327.46596,E,0.028,,300424,,,A*7D
$GPGGA,162549.00,3729.85995,N,02327.46596,E,1,09,1.30,7.2,M,32.4,M,,*51
$GPGLL,3729.85995,N,02327.46596,E,162549.00,A,A*6F
$GPRMC,162550.00,A,3729.85997,N,02327.46593,E,0.070,,300424,,,A*7F
$GPGGA,162550.00,3729.85997,N,02327.46593,E,1,09,1.24,7.1,M,32.4,M,,*58
$GPGLL,3729.85997,N,02327.46593,E,162550.00,A,A*60
$GPRMC,162551.00,A,3729.85999,N,02327.46590,E,0.019,,300424,,,A*7C
$GPGGA,162551.00,3729.85999,N,02327.46590,E,1,09,1.24,7.0,M,32.4,M,,*55
$GPGLL,3729.85999,N,02327.46590,E,162551.00,A,A*6C
$GPRMC,162552.00,A,3729.86003,N,02327.46589,E,0.034,,300424,,,A*71
$GPGGA,162552.00,3729.86003,N,02327.46589,E,1,09,1.24,7.0,M,32.4,M,,*57
$GPGLL,3729.86003,N,02327.46589,E,162552.00,A,A*6E
$GPRMC,162553.00,A,3729.86005,N,02327.46588,E,0.027,,300424,,,A*75
$GPGGA,162553.00,3729.86005,N,02327.46588,E,1,09,1.24,6.8,M,32.4,M,,*58
$GPGLL,3729.86005,N,02327.46588,E,162553.00,A,A*68
$GPRMC,162554.00,A,3729.86010,N,02327.46585,E,0.087,,300424,,,A*71
$GPGGA,162554.00,3729.86010,N,02327.46585,E,1,09,1.24,6.7,M,32.4,M,,*59
$GPGLL,3729.86010,N,02327.46585,E,162554.00,A,A*66
$GPRMC,162555.00,A,3729.86014,N,02327.46581,E,0.113,,300424,,,A*7C
$GPGGA,162555.00,3729.86014,N,02327.46581,E,1,09,1.24,6.6,M,32.4,M,,*59
$GPGLL,3729.86014,N,02327.46581,E,162555.00,A,A*67
$GPRMC,162556.00,A,3729.86016,N,02327.46578,E,0.044,,300424,,,A*78
$GPGGA,162556.00,3729.86016,N,02327.46578,E,1,09,1.32,6.4,M,32.4,M,,*5B
$GPGLL,3729.86016,N,02327.46578,E,162556.00,A,A*60
$GPRMC,162557.00,A,3729.86015,N,02327.46578,E,0.070,,300424,,,A*7D
$GPGGA,162557.00,3729.86015,N,02327.46578,E,1,09,1.32,6.3,M,32.4,M,,*5E
$GPGLL,3729.86015,N,02327.46578,E,162557.00,A,A*62
$GPRMC,162558.00,A,3729.86016,N,02327.46577,E,0.092,,300424,,,A*72
$GPGGA,162558.00,3729.86016,N,02327.46577,E,1,09,1.32,6.4,M,32.4,M,,*5A
$GPGLL,3729.86016,N,02327.46577,E,162558.00,A,A*61
$GPRMC,162559.00,A,3729.86017,N,02327.46573,E,0.043,,300424,,,A*7A
$GPGGA,162559.00,3729.86017,N,02327.46573,E,1,09,1.32,6.3,M,32.4,M,,*59
$GPGLL,3729.86017,N,02327.46573,E,162559.00,A,A*65
$GPRMC,162600.00,A,3729.86016,N,02327.46570,E,0.061,,300424,,,A*77
$GPGGA,162600.00,3729.86016,N,02327.46570,E,1,09,1.32,6.3,M,32.4,M,,*54
$GPGLL,3729.86016,N,02327.46570,E,162600.00,A,A*68
$GPRMC,162601.00,A,3729.86016,N,02327.46570,E,0.101,,300424,,,A*71
$GPGGA,162601.00,3729.86016,N,02327.46570,E,1,09,1.32,6.3,M,32.4,M,,*55
$GPGLL,3729.86016,N,02327.46570,E,162601.00,A,A*69
$GPRMC,162602.00,A,3729.86015,N,02327.46569,E,0.057,,300424,,,A*7B
$GPGGA,162602.00,3729.86015,N,02327.46569,E,1,09,1.32,6.3,M,32.4,M,,*5D
$GPGLL,3729.86015,N,02327.46569,E,162602.00,A,A*61
$GPRMC,162603.00,A,3729.86012,N,02327.46567,E,0.029,,300424,,,A*7A
$GPGGA,162603.00,3729.86012,N,02327.46567,E,1,09,1.32,6.3,M,32.4,M,,*55
$GPGLL,3729.86012,N,02327.46567,E,162603.00,A,A*69
$GPRMC,162604.00,A,3729.86013,N,02327.46568,E,0.025,,300424,,,A*7F
$GPGGA,162604.00,3729.86013,N,02327.46568,E,1,09,1.32,6.3,M,32.4,M,,*5C
$GPGLL,3729.86013,N,02327.46568,E,162604.00,A,A*60
$GPRMC,162605.00,A,3729.86011,N,02327.46567,E,0.067,,300424,,,A*75
$GPGGA,162605.00,3729.86011,N,02327.46567,E,1,09,1.32,6.2,M,32.4,M,,*51
$GPGLL,3729.86011,N,02327.46567,E,162605.00,A,A*6C
$GPRMC,162606.00,A,3729.86010,N,02327.46566,E,0.062,,300424,,,A*73
$GPGGA,162606.00,3729.86010,N,02327.46566,E,1,09,1.32,6.2,M,32.4,M,,*52
$GPGLL,3729.86010,N,02327.46566,E,162606.00,A,A*6F
$GPRMC,162607.00,A,3729.86009,N,02327.46565,E,0.014,,300424,,,A*78
$GPGGA,162607.00,3729.86009,N,02327.46565,E,1,09,1.32,6.3,M,32.4,M,,*59
$GPGLL,3729.86009,N,02327.46565,E,162607.00,A,A*65
$GPRMC,162608.00,A,3729.86008,N,02327.46563,E,0.043,,300424,,,A*72
$GPGGA,162608.00,3729.86008,N,02327.46563,E,1,09,1.32,6.2,M,32.4,M,,*50
$GPGLL,3729.86008,N,02327.46563,E,162608.00,A,A*6D
$GPRMC,162609.00,A,3729.86005,N,02327.46563,E,0.016,,300424,,,A*7E
$GPGGA,162609.00,3729.86005,N,02327.46563,E,1,09,1.32,6.2,M,32.4,M,,*5C
$GPGLL,3729.86005,N,02327.46563,E,162609.00,A,A*61
$GPRMC,162610.00,A,3729.86005,N,02327.46564,E,0.046,,300424,,,A*74
$GPGGA,162610.00,3729.86005,N,02327.46564,E,1,09,1.24,6.2,M,32.4,M,,*54
$GPGLL,3729.86005,N,02327.46564,E,162610.00,A,A*6E
$GPRMC,162611.00,A,3729.86003,N,02327.46566,E,0.069,,300424,,,A*7C
$GPGGA,162611.00,3729.86003,N,02327.46566,E,1,09,1.24,6.2,M,32.4,M,,*51
$GPGLL,3729.86003,N,02327.46566,E,162611.00,A,A*6B
$GPRMC,162612.00,A,3729.86004,N,02327.46566,E,0.026,,300424,,,A*73
$GPGGA,162612.00,3729.86004,N,02327.46566,E,1,09,1.24,6.2,M,32.4,M,,*55
$GPGLL,3729.86004,N,02327.46566,E,162612.00,A,A*6F
$GPRMC,162613.00,A,3729.86006,N,02327.46566,E,0.122,,300424,,,A*75
$GPGGA,162613.00,3729.86006,N,02327.46566,E,1,09,1.24,6.3,M,32.4,M,,*57
$GPGLL,3729.86006,N,02327.46566,E,162613.00,A,A*6C
$GPRMC,162614.00,A,3729.86011,N,02327.46567,E,0.047,,300424,,,A*77
$GPGGA,162614.00,3729.86011,N,02327.46567,E,1,09,1.24,6.4,M,32.4,M,,*50
$GPGLL,3729.86011,N,02327.46567,E,162614.00,A,A*6C
$GPRMC,162615.00,A,3729.86013,N,02327.46568,E,0.020,,300424,,,A*7A
$GPGGA,162615.00,3729.86013,N,02327.46568,E,1,09,1.24,6.3,M,32.4,M,,*5B
$GPGLL,3729.86013,N,02327.46568,E,162615.00,A,A*60
$GPRMC,162616.00,A,3729.86017,N,02327.46568,E,0.031,,300424,,,A*7D
$GPGGA,162616.00,3729.86017,N,02327.46568,E,1,09,1.24,6.3,M,32.4,M,,*5C
$GPGLL,3729.86017,N,02327.46568,E,162616.00,A,A*67
$GPRMC,162617.00,A,3729.86022,N,02327.46568,E,0.050,,300424,,,A*7D
$GPGGA,162617.00,3729.86022,N,02327.46568,E,1,09,1.24,6.3,M,32.4,M,,*5B
$GPGLL,3729.86022,N,02327.46568,E,162617.00,A,A*60
$GPRMC,162618.00,A,3729.86024,N,02327.46569,E,0.050,,300424,,,A*75
$GPGGA,162618.00,3729.86024,N,02327.46569,E,1,09,1.24,6.2,M,32.4,M,,*52
$GPGLL,3729.86024,N,02327.46569,E,162618.00,A,A*68
$GPRMC,162619.00,A,3729.86026,N,02327.46570,E,0.016,,300424,,,A*7C
$GPGGA,162619.00,3729.86026,N,02327.46570,E,1,09,1.24,6.2,M,32.4,M,,*59
$GPGLL,3729.86026,N,02327.46570,E,162619.00,A,A*63
$GPRMC,162620.00,A,3729.86028,N,02327.46571,E,0.015,,300424,,,A*7A
$GPGGA,162620.00,3729.86028,N,02327.46571,E,1,09,1.24,6.2,M,32.4,M,,*5C
$GPGLL,3729.86028,N,02327.46571,E,162620.00,A,A*66
$GPRMC,162621.00,A,3729.86031,N,02327.46571,E,0.017,,300424,,,A*71
$GPGGA,162621.00,3729.86031,N,02327.46571,E,1,09,1.24,6.3,M,32.4,M,,*54
$GPGLL,3729.86031,N,02327.46571,E,162621.00,A,A*6F
$GPRMC,162622.00,A,3729.86031,N,02327.46573,E,0.028,,300424,,,A*7C
$GPGGA,162622.00,3729.86031,N,02327.46573,E,1,09,1.24,6.3,M,32.4,M,,*55
$GPGLL,3729.86031,N,02327.46573,E,162622.00,A,A*6E
$GPRMC,162623.00,A,3729.86030,N,02327.46574,E,0.072,,300424,,,A*74
$GPGGA,162623.00,3729.86030,N,02327.46574,E,1,09,1.24,6.3,M,32.4,M,,*52
$GPGLL,3729.86030,N,02327.46574,E,162623.00,A,A*69
$GPRMC,162624.00,A,3729.86030,N,02327.46576,E,0.056,,300424,,,A*77
$GPGGA,162624.00,3729.86030,N,02327.46576,E,1,09,1.24,6.3,M,32.4,M,,*57
$GPGLL,3729.86030,N,02327.46576,E,162624.00,A,A*6C
$GPRMC,162625.00,A,3729.86030,N,02327.46577,E,0.035,,300424,,,A*72
$GPGGA,162625.00,3729.86030,N,02327.46577,E,1,09,1.24,6.4,M,32.4,M,,*50
$GPGLL,3729.86030,N,02327.46577,E,162625.00,A,A*6C
$GPRMC,162626.00,A,3729.86029,N,02327.46577,E,0.005,,300424,,,A*7A
$GPGGA,162626.00,3729.86029,N,02327.46577,E,1,09,1.24,6.5,M,32.4,M,,*5A
$GPGLL,3729.86029,N,02327.46577,E,162626.00,A,A*67
$GPRMC,162627.00,A,3729.86027,N,02327.46576,E,0.024,,300424,,,A*77
$GPGGA,162627.00,3729.86027,N,02327.46576,E,1,09,1.24,6.5,M,32.4,M,,*54
$GPGLL,3729.86027,N,02327.46576,E,162627.00,A,A*69
$GPRMC,162628.00,A,3729.86027,N,02327.46577,E,0.116,,300424,,,A*79
$GPGGA,162628.00,3729.86027,N,02327.46577,E,1,09,1.24,6.6,M,32.4,M,,*59
$GPGLL,3729.86027,N,02327.46577,E,162628.00,A,A*67
$GPRMC,162629.00,A,3729.86027,N,02327.46577,E,0.061,,300424,,,A*79
$GPGGA,162629.00,3729.86027,N,02327.46577,E,1,09,1.48,6.6,M,32.4,M,,*52
$GPGLL,3729.86027,N,02327.46577,E,162629.00,A,A*66
$GPRMC,162630.00,A,3729.86025,N,02327.46575,E,0.030,,300424,,,A*75
$GPGGA,162630.00,3729.86025,N,02327.46575,E,1,09,1.24,6.7,M,32.4,M,,*51
$GPGLL,3729.86025,N,02327.46575,E,162630.00,A,A*6E
$GPRMC,162631.00,A,3729.86026,N,02327.46576,E,0.090,,300424,,,A*7E
$GPGGA,162631.00,3729.86026,N,02327.46576,E,1,09,1.24,6.7,M,32.4,M,,*50
$GPGLL,3729.86026,N,02327.46576,E,162631.00,A,A*6F
$GPRMC,162632.00,A,3729.86024,N,02327.46574,E,0.116,,300424,,,A*72
$GPGGA,162632.00,3729.86024,N,02327.46574,E,1,09,1.24,6.7,M,32.4,M,,*53
$GPGLL,3729.86024,N,02327.46574,E,162632.00,A,A*6C
$GPRMC,162633.00,A,3729.86021,N,02327.46573,E,0.028,,300424,,,A*7D
$GPGGA,162633.00,3729.86021,N,02327.46573,E,1,09,1.24,6.8,M,32.4,M,,*5F
$GPGLL,3729.86021,N,02327.46573,E,162633.00,A,A*6F
$GPRMC,162634.00,A,3729.86021,N,02327.46574,E,0.030,,300424,,,A*74
$GPGGA,162634.00,3729.86021,N,02327.46574,E,1,09,1.24,6.8,M,32.4,M,,*5F
$GPGLL,3729.86021,N,02327.46574,E,162634.00,A,A*6F
$GPRMC,162635.00,A,3729.86019,N,02327.46574,E,0.033,,300424,,,A*7D
$GPGGA,162635.00,3729.86019,N,02327.46574,E,1,09,1.24,6.9,M,32.4,M,,*54
$GPGLL,3729.86019,N,02327.46574,E,162635.00,A,A*65
$GPRMC,162636.00,A,3729.86017,N,02327.46575,E,0.037,,300424,,,A*75
$GPGGA,162636.00,3729.86017,N,02327.46575,E,1,09,1.24,7.0,M,32.4,M,,*50
$GPGLL,3729.86017,N,02327.46575,E,162636.00,A,A*69
$GPRMC,162637.00,A,3729.86015,N,02327.46578,E,0.062,,300424,,,A*7B
$GPGGA,162637.00,3729.86015,N,02327.46578,E,1,09,1.24,7.1,M,32.4,M,,*5F
$GPGLL,3729.86015,N,02327.46578,E,162637.00,A,A*67
$GPRMC,162638.00,A,3729.86013,N,02327.46580,E,0.041,,300424,,,A*74
$GPGGA,162638.00,3729.86013,N,02327.46580,E,1,09,1.24,7.1,M,32.4,M,,*51
$GPGLL,3729.86013,N,02327.46580,E,162638.00,A,A*69
$GPRMC,162639.00,A,3729.86009,N,02327.46582,E,0.018,,300424,,,A*70
$GPGGA,162639.00,3729.86009,N,02327.46582,E,1,09,1.24,7.2,M,32.4,M,,*5A
$GPGLL,3729.86009,N,02327.46582,E,162639.00,A,A*61
$GPRMC,162640.00,A,3729.86006,N,02327.46583,E,0.072,,300424,,,A*7C
$GPGGA,162640.00,3729.86006,N,02327.46583,E,1,09,1.24,7.3,M,32.4,M,,*5B
$GPGLL,3729.86006,N,02327.46583,E,162640.00,A,A*61
$GPRMC,162641.00,A,3729.86001,N,02327.46585,E,0.106,,300424,,,A*7E
$GPGGA,162641.00,3729.86001,N,02327.46585,E,1,09,1.24,7.4,M,32.4,M,,*5C
$GPGLL,3729.86001,N,02327.46585,E,162641.00,A,A*61
$GPRMC,162642.00,A,3729.85999,N,02327.46584,E,0.004,,300424,,,A*74
$GPGGA,162642.00,3729.85999,N,02327.46584,E,1,09,1.24,7.3,M,32.4,M,,*52
$GPGLL,3729.85999,N,02327.46584,E,162642.00,A,A*68
$GPRMC,162643.00,A,3729.85996,N,02327.46584,E,0.014,,300424,,,A*7B
$GPGGA,162643.00,3729.85996,N,02327.46584,E,1,09,1.24,7.3,M,32.4,M,,*5C
$GPGLL,3729.85996,N,02327.46584,E,162643.00,A,A*66
$GPRMC,162644.00,A,3729.85993,N,02327.46583,E,0.015,,300424,,,A*7F
$GPGGA,162644.00,3729.85993,N,02327.46583,E,1,09,1.24,7.3,M,32.4,M,,*59
$GPGLL,3729.85993,N,02327.46583,E,162644.00,A,A*63
$GPRMC,162645.00,A,3729.85990,N,02327.46584,E,0.028,,300424,,,A*74
$GPGGA,162645.00,3729.85990,N,02327.46584,E,1,09,1.24,7.3,M,32.4,M,,*5C
$GPGLL,3729.85990,N,02327.46584,E,162645.00,A,A*66
$GPRMC,162646.00,A,3729.85988,N,02327.46585,E,0.068,,300424,,,A*7B
$GPGGA,162646.00,3729.85988,N,02327.46585,E,1,09,1.24,7.3,M,32.4,M,,*57
$GPGLL,3729.85988,N,02327.46585,E,162646.00,A,A*6D
$GPRMC,162647.00,A,3729.85986,N,02327.46586,E,0.015,,300424,,,A*7D
$GPGGA,162647.00,3729.85986,N,02327.46586,E,1,09,1.24,7.2,M,32.4,M,,*5A
$GPGLL,3729.85986,N,02327.46586,E,162647.00,A,A*61
$GPRMC,162648.00,A,3729.85983,N,02327.46589,E,0.032,,300424,,,A*7D
$GPGGA,162648.00,3729.85983,N,02327.46589,E,1,09,1.24,7.2,M,32.4,M,,*5F
$GPGLL,3729.85983,N,02327.46589,E,162648.00,A,A*64
$GPRMC,162649.00,A,3729.85979,N,02327.46591,E,0.042,,300424,,,A*77
$GPGGA,162649.00,3729.85979,N,02327.46591,E,1,09,1.24,7.3,M,32.4,M,,*53
$GPGLL,3729.85979,N,02327.46591,E,162649.00,A,A*69
$GPRMC,162650.00,A,3729.85976,N,02327.46594,E,0.040,,300424,,,A*77
$GPGGA,162650.00,3729.85976,N,02327.46594,E,1,09,1.24,7.2,M,32.4,M,,*50
$GPGLL,3729.85976,N,02327.46594,E,162650.00,A,A*6B
$GPRMC,162651.00,A,3729.85973,N,02327.46598,E,0.037,,300424,,,A*7F
$GPGGA,162651.00,3729.85973,N,02327.46598,E,1,09,1.24,7.3,M,32.4,M,,*59
$GPGLL,3729.85973,N,02327.46598,E,162651.00,A,A*63
$GPRMC,162652.00,A,3729.85972,N,02327.46602,E,0.075,,300424,,,A*7B
$GPGGA,162652.00,3729.85972,N,02327.46602,E,1,09,1.24,7.3,M,32.4,M,,*5B
$GPGLL,3729.85972,N,02327.46602,E,162652.00,A,A*61
$GPRMC,162653.00,A,3729.85969,N,02327.46604,E,0.043,,300424,,,A*73
$GPGGA,162653.00,3729.85969,N,02327.46604,E,1,09,1.24,7.3,M,32.4,M,,*56
$GPGLL,3729.85969,N,02327.46604,E,162653.00,A,A*6C
$GPRMC,162654.00,A,3729.85967,N,02327.46606,E,0.056,,300424,,,A*7C
$GPGGA,162654.00,3729.85967,N,02327.46606,E,1,09,1.24,7.4,M,32.4,M,,*5A
$GPGLL,3729.85967,N,02327.46606,E,162654.00,A,A*67
$GPRMC,162655.00,A,3729.85967,N,02327.46607,E,0.054,,300424,,,A*7E
$GPGGA,162655.00,3729.85967,N,02327.46607,E,1,09,1.24,7.4,M,32.4,M,,*5A
$GPGLL,3729.85967,N,02327.46607,E,162655.00,A,A*67
$GPRMC,162656.00,A,3729.85968,N,02327.46607,E,0.103,,300424,,,A*71
$GPGGA,162656.00,3729.85968,N,02327.46607,E,1,09,1.24,7.4,M,32.4,M,,*56
$GPGLL,3729.85968,N,02327.46607,E,162656.00,A,A*6B
$GPRMC,162657.00,A,3729.85968,N,02327.46609,E,0.035,,300424,,,A*7A
$GPGGA,162657.00,3729.85968,N,02327.46609,E,1,09,1.24,7.5,M,32.4,M,,*58
$GPGLL,3729.85968,N,02327.46609,E,162657.00,A,A*64
$GPRMC,162658.00,A,3729.85968,N,02327.46610,E,0.005,,300424,,,A*7E
$GPGGA,162658.00,3729.85968,N,02327.46610,E,1,09,1.24,7.5,M,32.4,M,,*5F
$GPGLL,3729.85968,N,02327.46610,E,162658.00,A,A*63
$GPRMC,162659.00,A,3729.85969,N,02327.46609,E,0.014,,300424,,,A*76
$GPGGA,162659.00,3729.85969,N,02327.46609,E,1,09,1.24,7.5,M,32.4,M,,*57
$GPGLL,3729.85969,N,02327.46609,E,162659.00,A,A*6B
$GPRMC,162700.00,A,3729.85971,N,02327.46609,E,0.019,,300424,,,A*7F
$GPGGA,162700.00,3729.85971,N,02327.46609,E,1,09,1.24,7.5,M,32.4,M,,*53
$GPGLL,3729.85971,N,02327.46609,E,162700.00,A,A*6F
$GPRMC,162701.00,A,3729.85972,N,02327.46609,E,0.028,,300424,,,A*7F
$GPGGA,162701.00,3729.85972,N,02327.46609,E,1,09,1.24,7.5,M,32.4,M,,*51
$GPGLL,3729.85972,N,02327.46609,E,162701.00,A,A*6D
$GPRMC,162702.00,A,3729.85974,N,02327.46610,E,0.032,,300424,,,A*79
$GPGGA,162702.00,3729.85974,N,02327.46610,E,1,09,1.24,7.5,M,32.4,M,,*5C
$GPGLL,3729.85974,N,02327.46610,E,162702.00,A,A*60
$GPRMC,162703.00,A,3729.85978,N,02327.46609,E,0.076,,300424,,,A*7C
$GPGGA,162703.00,3729.85978,N,02327.46609,E,1,09,1.24,7.5,M,32.4,M,,*59
$GPGLL,3729.85978,N,02327.46609,E,162703.00,A,A*65
$GPRMC,162704.00,A,3729.85981,N,02327.46608,E,0.033,,300424,,,A*7D
$GPGGA,162704.00,3729.85981,N,02327.46608,E,1,09,1.24,7.5,M,32.4,M,,*59
$GPGLL,3729.85981,N,02327.46608,E,162704.00,A,A*65
$GPRMC,162705.00,A,3729.85985,N,02327.46609,E,0.057,,300424,,,A*7B
$GPGGA,162705.00,3729.85985,N,02327.46609,E,1,09,1.24,7.5,M,32.4,M,,*5D
$GPGLL,3729.85985,N,02327.46609,E,162705.00,A,A*61
$GPRMC,162706.00,A,3729.85989,N,02327.46608,E,0.028,,300424,,,A*7D
$GPGGA,162706.00,3729.85989,N,02327.46608,E,1,09,1.24,7.5,M,32.4,M,,*53
$GPGLL,3729.85989,N,02327.46608,E,162706.00,A,A*6F
$GPRMC,162707.00,A,3729.85992,N,02327.46608,E,0.067,,300424,,,A*7D
$GPGGA,162707.00,3729.85992,N,02327.46608,E,1,09,1.24,7.4,M,32.4,M,,*59
$GPGLL,3729.85992,N,02327.46608,E,162707.00,A,A*64
$GPRMC,162708.00,A,3729.85995,N,02327.46606,E,0.035,,300424,,,A*7C
$GPGGA,162708.00,3729.85995,N,02327.46606,E,1,09,1.24,7.3,M,32.4,M,,*58
$GPGLL,3729.85995,N,02327.46606,E,162708.00,A,A*62
$GPRMC,162709.00,A,3729.86000,N,02327.46605,E,0.042,,300424,,,A*78
$GPGGA,162709.00,3729.86000,N,02327.46605,E,1,09,1.24,7.3,M,32.4,M,,*5C
$GPGLL,3729.86000,N,02327.46605,E,162709.00,A,A*66
$GPRMC,162710.00,A,3729.86003,N,02327.46604,E,0.029,,300424,,,A*7F
$GPGGA,162710.00,3729.86003,N,02327.46604,E,1,09,1.24,7.4,M,32.4,M,,*51
$GPGLL,3729.86003,N,02327.46604,E,162710.00,A,A*6C
$GPRMC,162711.00,A,3729.86003,N,02327.46602,E,0.053,,300424,,,A*75
$GPGGA,162711.00,3729.86003,N,02327.46602,E,1,09,1.24,7.4,M,32.4,M,,*56
$GPGLL,3729.86003,N,02327.46602,E,162711.00,A,A*6B
$GPRMC,162712.00,A,3729.86006,N,02327.46600,E,0.062,,300424,,,A*73
$GPGGA,162712.00,3729.86006,N,02327.46600,E,1,09,1.24,7.3,M,32.4,M,,*55
$GPGLL,3729.86006,N,02327.46600,E,162712.00,A,A*6F
$GPRMC,162713.00,A,3729.86009,N,02327.46599,E,0.084,,300424,,,A*76
$GPGGA,162713.00,3729.86009,N,02327.46599,E,1,09,1.24,7.4,M,32.4,M,,*5F
$GPGLL,3729.86009,N,02327.46599,E,162713.00,A,A*62
$GPRMC,162714.00,A,3729.86009,N,02327.46600,E,0.029,,300424,,,A*75
$GPGGA,162714.00,3729.86009,N,02327.46600,E,1,09,1.24,7.6,M,32.4,M,,*59
$GPGLL,3729.86009,N,02327.46600,E,162714.00,A,A*66
$GPRMC,162715.00,A,3729.86010,N,02327.46601,E,0.010,,300424,,,A*77
$GPGGA,162715.00,3729.86010,N,02327.46601,E,1,09,1.24,7.5,M,32.4,M,,*52
$GPGLL,3729.86010,N,02327.46601,E,162715.00,A,A*6E
$GPRMC,162716.00,A,3729.86011,N,02327.46600,E,0.044,,300424,,,A*75
$GPGGA,162716.00,3729.86011,N,02327.46600,E,1,09,1.24,7.6,M,32.4,M,,*52
$GPGLL,3729.86011,N,02327.46600,E,162716.00,A,A*6D
$GPRMC,162717.00,A,3729.86012,N,02327.46601,E,0.018,,300424,,,A*7F
$GPGGA,162717.00,3729.86012,N,02327.46601,E,1,09,1.24,7.7,M,32.4,M,,*50
$GPGLL,3729.86012,N,02327.46601,E,162717.00,A,A*6E
$GPRMC,162718.00,A,3729.86011,N,02327.46602,E,0.089,,300424,,,A*78
$GPGGA,162718.00,3729.86011,N,02327.46602,E,1,09,1.24,7.6,M,32.4,M,,*5E
$GPGLL,3729.86011,N,02327.46602,E,162718.00,A,A*61
$GPRMC,162719.00,A,3729.86010,N,02327.46604,E,0.026,,300424,,,A*7B
$GPGGA,162719.00,3729.86010,N,02327.46604,E,1,09,1.24,7.8,M,32.4,M,,*56
$GPGLL,3729.86010,N,02327.46604,E,162719.00,A,A*67
$GPRMC,162720.00,A,3729.86012,N,02327.46606,E,0.056,,300424,,,A*76
$GPGGA,162720.00,3729.86012,N,02327.46606,E,1,09,1.24,7.8,M,32.4,M,,*5C
$GPGLL,3729.86012,N,02327.46606,E,162720.00,A,A*6D
$GPRMC,162721.00,A,3729.86014,N,02327.46608,E,0.014,,300424,,,A*79
$GPGGA,162721.00,3729.86014,N,02327.46608,E,1,09,1.24,7.9,M,32.4,M,,*54
$GPGLL,3729.86014,N,02327.46608,E,162721.00,A,A*64
$GPRMC,162722.00,A,3729.86014,N,02327.46610,E,0.082,,300424,,,A*7C
$GPGGA,162722.00,3729.86014,N,02327.46610,E,1,09,1.24,7.9,M,32.4,M,,*5E
$GPGLL,3729.86014,N,02327.46610,E,162722.00,A,A*6E
$GPRMC,162723.00,A,3729.86016,N,02327.46610,E,0.018,,300424,,,A*7C
$GPGGA,162723.00,3729.86016,N,02327.46610,E,1,10,1.24,8.0,M,32.4,M,,*53
$GPGLL,3729.86016,N,02327.46610,E,162723.00,A,A*6D
$GPRMC,162724.00,A,3729.86019,N,02327.46609,E,0.012,,300424,,,A*76
$GPGGA,162724.00,3729.86019,N,02327.46609,E,1,09,1.24,8.0,M,32.4,M,,*5B
$GPGLL,3729.86019,N,02327.46609,E,162724.00,A,A*6D
$GPRMC,162725.00,A,3729.86021,N,02327.46611,E,0.101,,300424,,,A*76
$GPGGA,162725.00,3729.86021,N,02327.46611,E,1,09,1.24,8.1,M,32.4,M,,*59
$GPGLL,3729.86021,N,02327.46611,E,162725.00,A,A*6E
$GPRMC,162726.00,A,3729.86026,N,02327.46610,E,0.084,,300424,,,A*7F
$GPGGA,162726.00,3729.86026,N,02327.46610,E,1,09,1.24,8.0,M,32.4,M,,*5D
$GPGLL,3729.86026,N,02327.46610,E,162726.00,A,A*6B
$GPRMC,162727.00,A,3729.86027,N,02327.46608,E,0.055,,300424,,,A*7A
$GPGGA,162727.00,3729.86027,N,02327.46608,E,1,08,1.48,8.0,M,32.4,M,,*5F
$GPGLL,3729.86027,N,02327.46608,E,162727.00,A,A*62
$GPRMC,162728.00,A,3729.86031,N,02327.46604,E,0.059,,300424,,,A*72
$GPGGA,162728.00,3729.86031,N,02327.46604,E,1,09,1.48,8.0,M,32.4,M,,*5A
$GPGLL,3729.86031,N,02327.46604,E,162728.00,A,A*66
$GPRMC,162729.00,A,3729.86031,N,02327.46602,E,0.064,,300424,,,A*7B
$GPGGA,162729.00,3729.86031,N,02327.46602,E,1,09,1.24,8.0,M,32.4,M,,*57
$GPGLL,3729.86031,N,02327.46602,E,162729.00,A,A*61
$GPRMC,162730.00,A,3729.86033,N,02327.46600,E,0.084,,300424,,,A*7D
$GPGGA,162730.00,3729.86033,N,02327.46600,E,1,09,1.24,8.0,M,32.4,M,,*5F
$GPGLL,3729.86033,N,02327.46600,E,162730.00,A,A*69
$GPRMC,162731.00,A,3729.86033,N,02327.46598,E,0.029,,300424,,,A*79
$GPGGA,162731.00,3729.86033,N,02327.46598,E,1,09,1.48,8.0,M,32.4,M,,*56
$GPGLL,3729.86033,N,02327.46598,E,162731.00,A,A*6A
$GPRMC,162732.00,A,3729.86035,N,02327.46598,E,0.040,,300424,,,A*73
$GPGGA,162732.00,3729.86035,N,02327.46598,E,1,09,1.24,8.0,M,32.4,M,,*59
$GPGLL,3729.86035,N,02327.46598,E,162732.00,A,A*6F
$GPRMC,162733.00,A,3729.86035,N,02327.46597,E,0.053,,300424,,,A*7F
$GPGGA,162733.00,3729.86035,N,02327.46597,E,1,09,1.24,8.1,M,32.4,M,,*56
$GPGLL,3729.86035,N,02327.46597,E,162733.00,A,A*61
$GPRMC,162734.00,A,3729.86037,N,02327.46596,E,0.013,,300424,,,A*7F
$GPGGA,162734.00,3729.86037,N,02327.46596,E,1,09,1.24,8.0,M,32.4,M,,*53
$GPGLL,3729.86037,N,02327.46596,E,162734.00,A,A*65
$GPRMC,162735.00,A,3729.86036,N,02327.46595,E,0.066,,300424,,,A*7E
$GPGGA,162735.00,3729.86036,N,02327.46595,E,1,09,1.24,8.0,M,32.4,M,,*50
$GPGLL,3729.86036,N,02327.46595,E,162735.00,A,A*66
$GPRMC,162736.00,A,3729.86036,N,02327.46592,E,0.049,,300424,,,A*77
$GPGGA,162736.00,3729.86036,N,02327.46592,E,1,09,1.24,8.2,M,32.4,M,,*56
$GPGLL,3729.86036,N,02327.46592,E,162736.00,A,A*62
$GPRMC,162737.00,A,3729.86035,N,02327.46590,E,0.045,,300424,,,A*7B
$GPGGA,162737.00,3729.86035,N,02327.46590,E,1,09,1.24,8.3,M,32.4,M,,*57
$GPGLL,3729.86035,N,02327.46590,E,162737.00,A,A*62
$GPRMC,162738.00,A,3729.86035,N,02327.46589,E,0.016,,300424,,,A*7A
$GPGGA,162738.00,3729.86035,N,02327.46589,E,1,09,1.24,8.3,M,32.4,M,,*50
$GPGLL,3729.86035,N,02327.46589,E,162738.00,A,A*65
$GPRMC,162739.00,A,3729.86036,N,02327.46588,E,0.050,,300424,,,A*7B
$GPGGA,162739.00,3729.86036,N,02327.46588,E,1,09,1.24,8.3,M,32.4,M,,*53
$GPGLL,3729.86036,N,02327.46588,E,162739.00,A,A*66
$GPRMC,162740.00,A,3729.86037,N,02327.46589,E,0.039,,300424,,,A*7A
$GPGGA,162740.00,3729.86037,N,02327.46589,E,1,09,1.24,8.3,M,32.4,M,,*5D
$GPGLL,3729.86037,N,02327.46589,E,162740.00,A,A*68
$GPRMC,162741.00,A,3729.86030,N,02327.46586,E,0.087,,300424,,,A*76
$GPGGA,162741.00,3729.86030,N,02327.46586,E,1,09,1.24,8.4,M,32.4,M,,*53
$GPGLL,3729.86030,N,02327.46586,E,162741.00,A,A*61
$GPRMC,162742.00,A,3729.86030,N,02327.46585,E,0.061,,300424,,,A*7E
$GPGGA,162742.00,3729.86030,N,02327.46585,E,1,09,1.24,8.2,M,32.4,M,,*55
$GPGLL,3729.86030,N,02327.46585,E,162742.00,A,A*61
$GPRMC,162743.00,A,3729.86027,N,02327.46581,E,0.036,,300424,,,A*7F
$GPGGA,162743.00,3729.86027,N,02327.46581,E,1,09,1.31,8.3,M,32.4,M,,*53
$GPGLL,3729.86027,N,02327.46581,E,162743.00,A,A*62
$GPRMC,162744.00,A,3729.86029,N,02327.46580,E,0.050,,300424,,,A*77
$GPGGA,162744.00,3729.86029,N,02327.46580,E,1,09,1.25,8.3,M,32.4,M,,*5E
$GPGLL,3729.86029,N,02327.46580,E,162744.00,A,A*6A
$GPRMC,162745.00,A,3729.86029,N,02327.46581,E,0.078,,300424,,,A*7D
$GPGGA,162745.00,3729.86029,N,02327.46581,E,1,09,1.24,8.2,M,32.4,M,,*5E
$GPGLL,3729.86029,N,02327.46581,E,162745.00,A,A*6A
$GPRMC,162746.00,A,3729.86028,N,02327.46583,E,0.102,,300424,,,A*71
$GPGGA,162746.00,3729.86028,N,02327.46583,E,1,09,1.24,8.4,M,32.4,M,,*58
$GPGLL,3729.86028,N,02327.46583,E,162746.00,A,A*6A
$GPRMC,162747.00,A,3729.86031,N,02327.46581,E,0.091,,300424,,,A*71
$GPGGA,162747.00,3729.86031,N,02327.46581,E,1,09,1.24,8.3,M,32.4,M,,*54
$GPGLL,3729.86031,N,02327.46581,E,162747.00,A,A*61
$GPRMC,162748.00,A,3729.86030,N,02327.46583,E,0.064,,300424,,,A*77
$GPGGA,162748.00,3729.86030,N,02327.46583,E,1,09,1.24,8.4,M,32.4,M,,*5F
$GPGLL,3729.86030,N,02327.46583,E,162748.00,A,A*6D
$GPRMC,162749.00,A,3729.86031,N,02327.46585,E,0.131,,300424,,,A*70
$GPGGA,162749.00,3729.86031,N,02327.46585,E,1,09,1.24,8.5,M,32.4,M,,*58
$GPGLL,3729.86031,N,02327.46585,E,162749.00,A,A*6B
$GPRMC,162750.00,A,3729.86030,N,02327.46585,E,0.041,,300424,,,A*7F
$GPGGA,162750.00,3729.86030,N,02327.46585,E,1,09,1.28,8.6,M,32.4,M,,*5E
$GPGLL,3729.86030,N,02327.46585,E,162750.00,A,A*62
$GPRMC,162751.00,A,3729.86030,N,02327.46584,E,0.017,,300424,,,A*7C
$GPGGA,162751.00,3729.86030,N,02327.46584,E,1,09,1.28,8.7,M,32.4,M,,*5F
$GPGLL,3729.86030,N,02327.46584,E,162751.00,A,A*62
$GPRMC,162752.00,A,3729.86029,N,02327.46586,E,0.060,,300424,,,A*75
$GPGGA,162752.00,3729.86029,N,02327.46586,E,1,09,1.24,8.8,M,32.4,M,,*55
$GPGLL,3729.86029,N,02327.46586,E,162752.00,A,A*6B
$GPRMC,162753.00,A,3729.86029,N,02327.46588,E,0.070,,300424,,,A*7B
$GPGGA,162753.00,3729.86029,N,02327.46588,E,1,09,1.24,8.8,M,32.4,M,,*5A
$GPGLL,3729.86029,N,02327.46588,E,162753.00,A,A*64
$GPRMC,162754.00,A,3729.86027,N,02327.46587,E,0.044,,300424,,,A*7A
$GPGGA,162754.00,3729.86027,N,02327.46587,E,1,09,1.28,8.9,M,32.4,M,,*51
$GPGLL,3729.86027,N,02327.46587,E,162754.00,A,A*62
$GPRMC,162755.00,A,3729.86024,N,02327.46586,E,0.019,,300424,,,A*71
$GPGGA,162755.00,3729.86024,N,02327.46586,E,1,09,1.28,9.0,M,32.4,M,,*5A
$GPGLL,3729.86024,N,02327.46586,E,162755.00,A,A*61
$GPRMC,162756.00,A,3729.86023,N,02327.46584,E,0.055,,300424,,,A*7F
$GPGGA,162756.00,3729.86023,N,02327.46584,E,1,08,1.31,9.0,M,32.4,M,,*55
$GPGLL,3729.86023,N,02327.46584,E,162756.00,A,A*67
$GPRMC,162757.00,A,3729.86021,N,02327.46584,E,0.047,,300424,,,A*7F
$GPGGA,162757.00,3729.86021,N,02327.46584,E,1,09,1.24,9.1,M,32.4,M,,*52
$GPGLL,3729.86021,N,02327.46584,E,162757.00,A,A*64
$GPRMC,162758.00,A,3729.86017,N,02327.46587,E,0.063,,300424,,,A*70
$GPGGA,162758.00,3729.86017,N,02327.46587,E,1,09,1.34,9.3,M,32.4,M,,*58
$GPGLL,3729.86017,N,02327.46587,E,162758.00,A,A*6D
$GPRMC,162759.00,A,3729.86014,N,02327.46587,E,0.036,,300424,,,A*72
$GPGGA,162759.00,3729.86014,N,02327.46587,E,1,09,1.24,9.4,M,32.4,M,,*5C
$GPGLL,3729.86014,N,02327.46587,E,162759.00,A,A*6F
$GPRMC,162800.00,A,3729.86012,N,02327.46585,E,0.015,,300424,,,A*74
$GPGGA,162800.00,3729.86012,N,02327.46585,E,1,09,1.24,9.5,M,32.4,M,,*5A
$GPGLL,3729.86012,N,02327.46585,E,162800.00,A,A*68
$GPRMC,162801.00,A,3729.86009,N,02327.46581,E,0.069,,300424,,,A*70
$GPGGA,162801.00,3729.86009,N,02327.46581,E,1,09,1.31,9.5,M,32.4,M,,*51
$GPGLL,3729.86009,N,02327.46581,E,162801.00,A,A*67
$GPRMC,162802.00,A,3729.86007,N,02327.46578,E,0.031,,300424,,,A*76
$GPGGA,162802.00,3729.86007,N,02327.46578,E,1,09,1.24,9.6,M,32.4,M,,*5D
$GPGLL,3729.86007,N,02327.46578,E,162802.00,A,A*6C
$GPRMC,162803.00,A,3729.86008,N,02327.46576,E,0.008,,300424,,,A*7C
$GPGGA,162803.00,3729.86008,N,02327.46576,E,1,09,1.24,9.6,M,32.4,M,,*5D
$GPGLL,3729.86008,N,02327.46576,E,162803.00,A,A*6C
$GPRMC,162804.00,A,3729.86008,N,02327.46576,E,0.023,,300424,,,A*72
$GPGGA,162804.00,3729.86008,N,02327.46576,E,1,09,1.24,9.5,M,32.4,M,,*59
$GPGLL,3729.86008,N,02327.46576,E,162804.00,A,A*6B
$GPRMC,162805.00,A,3729.86007,N,02327.46576,E,0.037,,300424,,,A*79
$GPGGA,162805.00,3729.86007,N,02327.46576,E,1,09,1.34,9.5,M,32.4,M,,*56
$GPGLL,3729.86007,N,02327.46576,E,162805.00,A,A*65
$GPRMC,162806.00,A,3729.86007,N,02327.46578,E,0.047,,300424,,,A*73
$GPGGA,162806.00,3729.86007,N,02327.46578,E,1,09,1.34,9.4,M,32.4,M,,*5A
$GPGLL,3729.86007,N,02327.46578,E,162806.00,A,A*68
$GPRMC,162807.00,A,3729.86008,N,02327.46579,E,0.033,,300424,,,A*7F
$GPGGA,162807.00,3729.86008,N,02327.46579,E,1,09,1.24,9.2,M,32.4,M,,*52
$GPGLL,3729.86008,N,02327.46579,E,162807.00,A,A*67
$GPRMC,162808.00,A,3729.86005,N,02327.46579,E,0.065,,300424,,,A*7E
$GPGGA,162808.00,3729.86005,N,02327.46579,E,1,09,1.24,9.1,M,32.4,M,,*53
$GPGLL,3729.86005,N,02327.46579,E,162808.00,A,A*65
$GPRMC,162809.00,A,3729.86003,N,02327.46581,E,0.059,,300424,,,A*71
$GPGGA,162809.00,3729.86003,N,02327.46581,E,1,09,1.24,9.1,M,32.4,M,,*53
$GPGLL,3729.86003,N,02327.46581,E,162809.00,A,A*65
$GPRMC,162810.00,A,3729.86006,N,02327.46581,E,0.055,,300424,,,A*70
$GPGGA,162810.00,3729.86006,N,02327.46581,E,1,09,1.24,8.9,M,32.4,M,,*57
$GPGLL,3729.86006,N,02327.46581,E,162810.00,A,A*68
$GPRMC,162811.00,A,3729.86007,N,02327.46580,E,0.028,,300424,,,A*7B
$GPGGA,162811.00,3729.86007,N,02327.46580,E,1,09,1.24,8.8,M,32.4,M,,*57
$GPGLL,3729.86007,N,02327.46580,E,162811.00,A,A*69
$GPRMC,162812.00,A,3729.86005,N,02327.46582,E,0.018,,300424,,,A*7B
$GPGGA,162812.00,3729.86005,N,02327.46582,E,1,09,1.24,8.7,M,32.4,M,,*5B
$GPGLL,3729.86005,N,02327.46582,E,162812.00,A,A*6A
$GPRMC,162813.00,A,3729.86004,N,02327.46582,E,0.016,,300424,,,A*75
$GPGGA,162813.00,3729.86004,N,02327.46582,E,1,09,1.24,8.4,M,32.4,M,,*58
$GPGLL,3729.86004,N,02327.46582,E,162813.00,A,A*6A
$GPRMC,162814.00,A,3729.86003,N,02327.46585,E,0.019,,300424,,,A*7D
$GPGGA,162814.00,3729.86003,N,02327.46585,E,1,09,1.24,8.3,M,32.4,M,,*58
$GPGLL,3729.86003,N,02327.46585,E,162814.00,A,A*6D
$GPRMC,162815.00,A,3729.86002,N,02327.46589,E,0.023,,300424,,,A*78
$GPGGA,162815.00,3729.86002,N,02327.46589,E,1,09,1.24,8.4,M,32.4,M,,*53
$GPGLL,3729.86002,N,02327.46589,E,162815.00,A,A*61
$GPRMC,162816.00,A,3729.86003,N,02327.46589,E,0.059,,300424,,,A*77
$GPGGA,162816.00,3729.86003,N,02327.46589,E,1,09,1.24,8.2,M,32.4,M,,*57
$GPGLL,3729.86003,N,02327.46589,E,162816.00,A,A*63
$GPRMC,162817.00,A,3729.86007,N,02327.46588,E,0.109,,300424,,,A*77
$GPGGA,162817.00,3729.86007,N,02327.46588,E,1,09,1.24,8.0,M,32.4,M,,*51
$GPGLL,3729.86007,N,02327.46588,E,162817.00,A,A*67
$GPRMC,162818.00,A,3729.86009,N,02327.46588,E,0.138,,300424,,,A*74
$GPGGA,162818.00,3729.86009,N,02327.46588,E,1,09,1.24,7.8,M,32.4,M,,*57
$GPGLL,3729.86009,N,02327.46588,E,162818.00,A,A*66
$GPRMC,162819.00,A,3729.86008,N,02327.46587,E,0.150,,300424,,,A*75
$GPGGA,162819.00,3729.86008,N,02327.46587,E,1,09,1.24,7.6,M,32.4,M,,*56
$GPGLL,3729.86008,N,02327.46587,E,162819.00,A,A*69
$GPRMC,162820.00,A,3729.86005,N,02327.46588,E,0.066,,300424,,,A*79
$GPGGA,162820.00,3729.86005,N,02327.46588,E,1,09,1.24,7.6,M,32.4,M,,*5E
$GPGLL,3729.86005,N,02327.46588,E,162820.00,A,A*61
$GPRMC,162821.00,A,3729.86004,N,02327.46591,E,0.104,,300424,,,A*74
$GPGGA,162821.00,3729.86004,N,02327.46591,E,1,09,1.24,7.8,M,32.4,M,,*58
$GPGLL,3729.86004,N,02327.46591,E,162821.00,A,A*69
$GPRMC,162822.00,A,3729.86007,N,02327.46593,E,0.027,,300424,,,A*76
$GPGGA,162822.00,3729.86007,N,02327.46593,E,1,09,1.24,7.8,M,32.4,M,,*5A
$GPGLL,3729.86007,N,02327.46593,E,162822.00,A,A*6B
$GPRMC,162823.00,A,3729.86006,N,02327.46595,E,0.044,,300424,,,A*75
$GPGGA,162823.00,3729.86006,N,02327.46595,E,1,09,1.24,7.9,M,32.4,M,,*5D
$GPGLL,3729.86006,N,02327.46595,E,162823.00,A,A*6D
$GPRMC,162824.00,A,3729.86005,N,02327.46596,E,0.065,,300424,,,A*71
$GPGGA,162824.00,3729.86005,N,02327.46596,E,1,09,1.24,8.0,M,32.4,M,,*5C
$GPGLL,3729.86005,N,02327.46596,E,162824.00,A,A*6A
$GPRMC,162825.00,A,3729.86006,N,02327.46595,E,0.026,,300424,,,A*77
$GPGGA,162825.00,3729.86006,N,02327.46595,E,1,09,1.24,8.1,M,32.4,M,,*5C
$GPGLL,3729.86006,N,02327.46595,E,162825.00,A,A*6B
$GPRMC,162826.00,A,3729.86006,N,02327.46594,E,0.036,,300424,,,A*74
$GPGGA,162826.00,3729.86006,N,02327.46594,E,1,09,1.24,8.1,M,32.4,M,,*5E
$GPGLL,3729.86006,N,02327.46594,E,162826.00,A,A*69
$GPRMC,162827.00,A,3729.86007,N,02327.46592,E,0.041,,300424,,,A*72
$GPGGA,162827.00,3729.86007,N,02327.46592,E,1,09,1.24,8.1,M,32.4,M,,*58
$GPGLL,3729.86007,N,02327.46592,E,162827.00,A,A*6F
$GPRMC,162828.00,A,3729.86007,N,02327.46589,E,0.099,,300424,,,A*72
$GPGGA,162828.00,3729.86007,N,02327.46589,E,1,09,1.24,8.0,M,32.4,M,,*5C
$GPGLL,3729.86007,N,02327.46589,E,162828.00,A,A*6A
$GPRMC,162829.00,A,3729.86010,N,02327.46588,E,0.076,,300424,,,A*75
$GPGGA,162829.00,3729.86010,N,02327.46588,E,1,09,1.24,8.0,M,32.4,M,,*5A
$GPGLL,3729.86010,N,02327.46588,E,162829.00,A,A*6C
$GPRMC,162830.00,A,3729.86013,N,02327.46586,E,0.056,,300424,,,A*72
$GPGGA,162830.00,3729.86013,N,02327.46586,E,1,09,1.24,7.8,M,32.4,M,,*58
$GPGLL,3729.86013,N,02327.46586,E,162830.00,A,A*69
$GPRMC,162831.00,A,3729.86015,N,02327.46584,E,0.068,,300424,,,A*7A
$GPGGA,162831.00,3729.86015,N,02327.46584,E,1,09,1.24,7.7,M,32.4,M,,*52
$GPGLL,3729.86015,N,02327.46584,E,162831.00,A,A*6C
$GPRMC,162832.00,A,3729.86016,N,02327.46583,E,0.027,,300424,,,A*76
$GPGGA,162832.00,3729.86016,N,02327.46583,E,1,09,1.24,7.7,M,32.4,M,,*55
$GPGLL,3729.86016,N,02327.46583,E,162832.00,A,A*6B
$GPRMC,162833.00,A,3729.86013,N,02327.46582,E,0.091,,300424,,,A*7E
$GPGGA,162833.00,3729.86013,N,02327.46582,E,1,09,1.24,7.6,M,32.4,M,,*51
$GPGLL,3729.86013,N,02327.46582,E,162833.00,A,A*6E
$GPRMC,162834.00,A,3729.86011,N,02327.46584,E,0.070,,300424,,,A*72
$GPGGA,162834.00,3729.86011,N,02327.46584,E,1,09,1.24,7.7,M,32.4,M,,*53
$GPGLL,3729.86011,N,02327.46584,E,162834.00,A,A*6D
$GPRMC,162835.00,A,3729.86008,N,02327.46586,E,0.043,,300424,,,A*79
$GPGGA,162835.00,3729.86008,N,02327.46586,E,1,09,1.24,7.7,M,32.4,M,,*58
$GPGLL,3729.86008,N,02327.46586,E,162835.00,A,A*66
$GPRMC,162836.00,A,3729.86005,N,02327.46586,E,0.068,,300424,,,A*7E
$GPGGA,162836.00,3729.86005,N,02327.46586,E,1,09,1.24,7.7,M,32.4,M,,*56
$GPGLL,3729.86005,N,02327.46586,E,162836.00,A,A*68
$GPRMC,162837.00,A,3729.86004,N,02327.46586,E,0.056,,300424,,,A*73
$GPGGA,162837.00,3729.86004,N,02327.46586,E,1,09,1.24,7.8,M,32.4,M,,*59
$GPGLL,3729.86004,N,02327.46586,E,162837.00,A,A*68
$GPRMC,162838.00,A,3729.86003,N,02327.46585,E,0.030,,300424,,,A*78
$GPGGA,162838.00,3729.86003,N,02327.46585,E,1,09,1.24,7.8,M,32.4,M,,*52
$GPGLL,3729.86003,N,02327.46585,E,162838.00,A,A*63
$GPRMC,162839.00,A,3729.85999,N,02327.46586,E,0.047,,300424,,,A*73
$GPGGA,162839.00,3729.85999,N,02327.46586,E,1,09,1.24,7.9,M,32.4,M,,*58
$GPGLL,3729.85999,N,02327.46586,E,162839.00,A,A*68
$GPRMC,162840.00,A,3729.85999,N,02327.46589,E,0.129,,300424,,,A*7B
$GPGGA,162840.00,3729.85999,N,02327.46589,E,1,09,1.24,8.0,M,32.4,M,,*5F
$GPGLL,3729.85999,N,02327.46589,E,162840.00,A,A*69
$GPRMC,162841.00,A,3729.85998,N,02327.46591,E,0.044,,300424,,,A*78
$GPGGA,162841.00,3729.85998,N,02327.46591,E,1,09,1.24,8.1,M,32.4,M,,*57
$GPGLL,3729.85998,N,02327.46591,E,162841.00,A,A*60
$GPRMC,162842.00,A,3729.85994,N,02327.46586,E,0.193,,300424,,,A*7A
$GPGGA,162842.00,3729.85994,N,02327.46586,E,1,09,1.24,7.9,M,32.4,M,,*59
$GPGLL,3729.85994,N,02327.46586,E,162842.00,A,A*69
$GPRMC,162843.00,A,3729.85994,N,02327.46587,E,0.104,,300424,,,A*74
$GPGGA,162843.00,3729.85994,N,02327.46587,E,1,09,1.24,7.8,M,32.4,M,,*58
$GPGLL,3729.85994,N,02327.46587,E,162843.00,A,A*69
$GPRMC,162844.00,A,3729.85993,N,02327.46581,E,0.031,,300424,,,A*75
$GPGGA,162844.00,3729.85993,N,02327.46581,E,1,09,1.24,7.6,M,32.4,M,,*50
$GPGLL,3729.85993,N,02327.46581,E,162844.00,A,A*6F
$GPRMC,162845.00,A,3729.85991,N,02327.46581,E,0.174,,300424,,,A*76
$GPGGA,162845.00,3729.85991,N,02327.46581,E,1,09,1.24,7.4,M,32.4,M,,*51
$GPGLL,3729.85991,N,02327.46581,E,162845.00,A,A*6C
$GPRMC,162846.00,A,3729.85989,N,02327.46581,E,0.026,,300424,,,A*7A
$GPGGA,162846.00,3729.85989,N,02327.46581,E,1,09,1.24,7.4,M,32.4,M,,*5B
$GPGLL,3729.85989,N,02327.46581,E,162846.00,A,A*66
$GPRMC,162847.00,A,3729.85989,N,02327.46584,E,0.036,,300424,,,A*7F
$GPGGA,162847.00,3729.85989,N,02327.46584,E,1,09,1.24,7.3,M,32.4,M,,*58
$GPGLL,3729.85989,N,02327.46584,E,162847.00,A,A*62
$GPRMC,162848.00,A,3729.85989,N,02327.46585,E,0.065,,300424,,,A*77
$GPGGA,162848.00,3729.85989,N,02327.46585,E,1,09,1.24,7.3,M,32.4,M,,*56
$GPGLL,3729.85989,N,02327.46585,E,162848.00,A,A*6C
$GPRMC,162849.00,A,3729.85990,N,02327.46585,E,0.092,,300424,,,A*76
$GPGGA,162849.00,3729.85990,N,02327.46585,E,1,09,1.24,7.2,M,32.4,M,,*5E
$GPGLL,3729.85990,N,02327.46585,E,162849.00,A,A*65
$GPRMC,162850.00,A,3729.85993,N,02327.46585,E,0.052,,300424,,,A*71
$GPGGA,162850.00,3729.85993,N,02327.46585,E,1,09,1.24,7.2,M,32.4,M,,*55
$GPGLL,3729.85993,N,02327.46585,E,162850.00,A,A*6E
$GPRMC,162851.00,A,3729.85992,N,02327.46583,E,0.092,,300424,,,A*7B
$GPGGA,162851.00,3729.85992,N,02327.46583,E,1,09,1.24,7.1,M,32.4,M,,*50
$GPGLL,3729.85992,N,02327.46583,E,162851.00,A,A*68
$GPRMC,162852.00,A,3729.85993,N,02327.46580,E,0.009,,300424,,,A*78
$GPGGA,162852.00,3729.85993,N,02327.46580,E,1,09,1.24,7.1,M,32.4,M,,*51
$GPGLL,3729.85993,N,02327.46580,E,162852.00,A,A*69
$GPRMC,162853.00,A,3729.85995,N,02327.46578,E,0.043,,300424,,,A*76
$GPGGA,162853.00,3729.85995,N,02327.46578,E,1,09,1.24,7.0,M,32.4,M,,*50
$GPGLL,3729.85995,N,02327.46578,E,162853.00,A,A*69
$GPRMC,162854.00,A,3729.85998,N,02327.46578,E,0.044,,300424,,,A*7B
$GPGGA,162854.00,3729.85998,N,02327.46578,E,1,09,1.24,7.1,M,32.4,M,,*5B
$GPGLL,3729.85998,N,02327.46578,E,162854.00,A,A*63
$GPRMC,162855.00,A,3729.85997,N,02327.46579,E,0.045,,300424,,,A*75
$GPGGA,162855.00,3729.85997,N,02327.46579,E,1,09,1.24,7.3,M,32.4,M,,*56
$GPGLL,3729.85997,N,02327.46579,E,162855.00,A,A*6C
$GPRMC,162856.00,A,3729.86002,N,02327.46580,E,0.049,,300424,,,A*7A
$GPGGA,162856.00,3729.86002,N,02327.46580,E,1,09,1.24,7.3,M,32.4,M,,*55
$GPGLL,3729.86002,N,02327.46580,E,162856.00,A,A*6F
$GPRMC,162857.00,A,3729.86005,N,02327.46579,E,0.060,,300424,,,A*71
$GPGGA,162857.00,3729.86005,N,02327.46579,E,1,09,1.24,7.1,M,32.4,M,,*57
$GPGLL,3729.86005,N,02327.46579,E,162857.00,A,A*6F
$GPRMC,162858.00,A,3729.86012,N,02327.46580,E,0.094,,300424,,,A*75
$GPGGA,162858.00,3729.86012,N,02327.46580,E,1,09,1.24,7.0,M,32.4,M,,*59
$GPGLL,3729.86012,N,02327.46580,E,162858.00,A,A*60
$GPRMC,162859.00,A,3729.86013,N,02327.46580,E,0.051,,300424,,,A*7C
$GPGGA,162859.00,3729.86013,N,02327.46580,E,1,09,1.30,7.1,M,32.4,M,,*5D
$GPGLL,3729.86013,N,02327.46580,E,162859.00,A,A*60
$GPRMC,162900.00,A,3729.86017,N,02327.46583,E,0.067,,300424,,,A*73
$GPGGA,162900.00,3729.86017,N,02327.46583,E,1,09,1.24,7.2,M,32.4,M,,*51
$GPGLL,3729.86017,N,02327.46583,E,162900.00,A,A*6A
$GPRMC,162901.00,A,3729.86023,N,02327.46583,E,0.083,,300424,,,A*7F
$GPGGA,162901.00,3729.86023,N,02327.46583,E,1,09,1.24,7.2,M,32.4,M,,*57
$GPGLL,3729.86023,N,02327.46583,E,162901.00,A,A*6C
$GPRMC,162902.00,A,3729.86025,N,02327.46584,E,0.056,,300424,,,A*75
$GPGGA,162902.00,3729.86025,N,02327.46584,E,1,09,1.24,7.0,M,32.4,M,,*57
$GPGLL,3729.86025,N,02327.46584,E,162902.00,A,A*6E
$GPRMC,162903.00,A,3729.86028,N,02327.46588,E,0.139,,300424,,,A*7D
$GPGGA,162903.00,3729.86028,N,02327.46588,E,1,09,1.24,7.2,M,32.4,M,,*55
$GPGLL,3729.86028,N,02327.46588,E,162903.00,A,A*6E
$GPRMC,162904.00,A,3729.86031,N,02327.46591,E,0.074,,300424,,,A*72
$GPGGA,162904.00,3729.86031,N,02327.46591,E,1,09,1.24,7.2,M,32.4,M,,*52
$GPGLL,3729.86031,N,02327.46591,E,162904.00,A,A*69
$GPRMC,162905.00,A,3729.86032,N,02327.46596,E,0.089,,300424,,,A*75
$GPGGA,162905.00,3729.86032,N,02327.46596,E,1,09,1.24,7.3,M,32.4,M,,*56
$GPGLL,3729.86032,N,02327.46596,E,162905.00,A,A*6C
$GPRMC,162906.00,A,3729.86035,N,02327.46600,E,0.055,,300424,,,A*7C
$GPGGA,162906.00,3729.86035,N,02327.46600,E,1,09,1.24,7.3,M,32.4,M,,*5E
$GPGLL,3729.86035,N,02327.46600,E,162906.00,A,A*64
$GPRMC,162907.00,A,3729.86038,N,02327.46602,E,0.061,,300424,,,A*75
$GPGGA,162907.00,3729.86038,N,02327.46602,E,1,09,1.24,7.3,M,32.4,M,,*50
$GPGLL,3729.86038,N,02327.46602,E,162907.00,A,A*6A
$GPRMC,162908.00,A,3729.86038,N,02327.46606,E,0.080,,300424,,,A*71
$GPGGA,162908.00,3729.86038,N,02327.46606,E,1,09,1.24,7.5,M,32.4,M,,*5D
$GPGLL,3729.86038,N,02327.46606,E,162908.00,A,A*61
$GPRMC,162909.00,A,3729.86041,N,02327.46608,E,0.066,,300424,,,A*78
$GPGGA,162909.00,3729.86041,N,02327.46608,E,1,09,1.24,7.5,M,32.4,M,,*5C
$GPGLL,3729.86041,N,02327.46608,E,162909.00,A,A*60
$GPRMC,162910.00,A,3729.86044,N,02327.46612,E,0.022,,300424,,,A*7E
$GPGGA,162910.00,3729.86044,N,02327.46612,E,1,09,1.24,7.7,M,32.4,M,,*58
$GPGLL,3729.86044,N,02327.46612,E,162910.00,A,A*66
$GPRMC,162911.00,A,3729.86047,N,02327.46617,E,0.082,,300424,,,A*73
$GPGGA,162911.00,3729.86047,N,02327.46617,E,1,09,1.34,7.6,M,32.4,M,,*5F
$GPGLL,3729.86047,N,02327.46617,E,162911.00,A,A*61
$GPRMC,162912.00,A,3729.86049,N,02327.46621,E,0.020,,300424,,,A*73
$GPGGA,162912.00,3729.86049,N,02327.46621,E,1,09,1.24,7.6,M,32.4,M,,*56
$GPGLL,3729.86049,N,02327.46621,E,162912.00,A,A*69
$GPRMC,162913.00,A,3729.86052,N,02327.46629,E,0.035,,300424,,,A*74
$GPGGA,162913.00,3729.86052,N,02327.46629,E,1,09,1.24,7.8,M,32.4,M,,*5B
$GPGLL,3729.86052,N,02327.46629,E,162913.00,A,A*6A
$GPRMC,162914.00,A,3729.86054,N,02327.46633,E,0.069,,300424,,,A*77
$GPGGA,162914.00,3729.86054,N,02327.46633,E,1,09,1.24,8.0,M,32.4,M,,*56
$GPGLL,3729.86054,N,02327.46633,E,162914.00,A,A*60
$GPRMC,162915.00,A,3729.86055,N,02327.46636,E,0.064,,300424,,,A*7F
$GPGGA,162915.00,3729.86055,N,02327.46636,E,1,09,1.24,8.2,M,32.4,M,,*51
$GPGLL,3729.86055,N,02327.46636,E,162915.00,A,A*65
$GPRMC,162916.00,A,3729.86056,N,02327.46642,E,0.051,,300424,,,A*7A
$GPGGA,162916.00,3729.86056,N,02327.46642,E,1,09,1.24,8.5,M,32.4,M,,*55
$GPGLL,3729.86056,N,02327.46642,E,162916.00,A,A*66
$GPRMC,162917.00,A,3729.86057,N,02327.46646,E,0.012,,300424,,,A*79
$GPGGA,162917.00,3729.86057,N,02327.46646,E,1,09,1.24,8.7,M,32.4,M,,*53
$GPGLL,3729.86057,N,02327.46646,E,162917.00,A,A*62
$GPRMC,162918.00,A,3729.86059,N,02327.46650,E,0.082,,300424,,,A*76
$GPGGA,162918.00,3729.86059,N,02327.46650,E,1,09,1.24,8.9,M,32.4,M,,*5B
$GPGLL,3729.86059,N,02327.46650,E,162918.00,A,A*64
$GPRMC,162919.00,A,3729.86060,N,02327.46653,E,0.064,,300424,,,A*76
$GPGGA,162919.00,3729.86060,N,02327.46653,E,1,09,1.24,9.0,M,32.4,M,,*5B
$GPGLL,3729.86060,N,02327.46653,E,162919.00,A,A*6C
$GPRMC,162920.00,A,3729.86059,N,02327.46654,E,0.119,,300424,,,A*7A
$GPGGA,162920.00,3729.86059,N,02327.46654,E,1,09,1.24,8.9,M,32.4,M,,*54
$GPGLL,3729.86059,N,02327.46654,E,162920.00,A,A*6B
$GPRMC,162921.00,A,3729.86058,N,02327.46658,E,0.058,,300424,,,A*72
$GPGGA,162921.00,3729.86058,N,02327.46658,E,1,09,1.24,9.1,M,32.4,M,,*51
$GPGLL,3729.86058,N,02327.46658,E,162921.00,A,A*67
$GPRMC,162922.00,A,3729.86058,N,02327.46663,E,0.047,,300424,,,A*77
$GPGGA,162922.00,3729.86058,N,02327.46663,E,1,09,1.24,9.2,M,32.4,M,,*59
$GPGLL,3729.86058,N,02327.46663,E,162922.00,A,A*6C
$GPRMC,162923.00,A,3729.86059,N,02327.46664,E,0.061,,300424,,,A*74
$GPGGA,162923.00,3729.86059,N,02327.46664,E,1,09,1.24,9.2,M,32.4,M,,*5E
$GPGLL,3729.86059,N,02327.46664,E,162923.00,A,A*6B
$GPRMC,162924.00,A,3729.86060,N,02327.46665,E,0.041,,300424,,,A*7A
$GPGGA,162924.00,3729.86060,N,02327.46665,E,1,09,1.24,9.3,M,32.4,M,,*53
$GPGLL,3729.86060,N,02327.46665,E,162924.00,A,A*67
$GPRMC,162925.00,A,3729.86064,N,02327.46664,E,0.034,,300424,,,A*7C
$GPGGA,162925.00,3729.86064,N,02327.46664,E,1,09,1.24,9.2,M,32.4,M,,*56
$GPGLL,3729.86064,N,02327.46664,E,162925.00,A,A*63
$GPRMC,162926.00,A,3729.86067,N,02327.46664,E,0.051,,300424,,,A*7F
$GPGGA,162926.00,3729.86067,N,02327.46664,E,1,09,1.24,9.2,M,32.4,M,,*56
$GPGLL,3729.86067,N,02327.46664,E,162926.00,A,A*63
$GPRMC,162927.00,A,3729.86069,N,02327.46664,E,0.082,,300424,,,A*7E
$GPGGA,162927.00,3729.86069,N,02327.46664,E,1,09,1.24,9.2,M,32.4,M,,*59
$GPGLL,3729.86069,N,02327.46664,E,162927.00,A,A*6C
$GPRMC,162928.00,A,3729.86068,N,02327.46661,E,0.128,,300424,,,A*74
$GPGGA,162928.00,3729.86068,N,02327.46661,E,1,09,1.24,9.0,M,32.4,M,,*50
$GPGLL,3729.86068,N,02327.46661,E,162928.00,A,A*67
$GPRMC,162929.00,A,3729.86066,N,02327.46656,E,0.081,,300424,,,A*7D
$GPGGA,162929.00,3729.86066,N,02327.46656,E,1,09,1.31,8.9,M,32.4,M,,*57
$GPGLL,3729.86066,N,02327.46656,E,162929.00,A,A*6C
$GPRMC,162930.00,A,3729.86065,N,02327.46656,E,0.017,,300424,,,A*79
$GPGGA,162930.00,3729.86065,N,02327.46656,E,1,09,1.31,9.1,M,32.4,M,,*55
$GPGLL,3729.86065,N,02327.46656,E,162930.00,A,A*67
$GPRMC,162931.00,A,3729.86065,N,02327.46659,E,0.020,,300424,,,A*73
$GPGGA,162931.00,3729.86065,N,02327.46659,E,1,09,1.24,9.2,M,32.4,M,,*5C
$GPGLL,3729.86065,N,02327.46659,E,162931.00,A,A*69
$GPRMC,162932.00,A,3729.86064,N,02327.46664,E,0.067,,300424,,,A*7C
$GPGGA,162932.00,3729.86064,N,02327.46664,E,1,09,1.24,9.5,M,32.4,M,,*57
$GPGLL,3729.86064,N,02327.46664,E,162932.00,A,A*65
$GPRMC,162933.00,A,3729.86067,N,02327.46664,E,0.024,,300424,,,A*79
$GPGGA,162933.00,3729.86067,N,02327.46664,E,1,09,1.24,9.4,M,32.4,M,,*54
$GPGLL,3729.86067,N,02327.46664,E,162933.00,A,A*67
$GPRMC,162934.00,A,3729.86067,N,02327.46668,E,0.039,,300424,,,A*7E
$GPGGA,162934.00,3729.86067,N,02327.46668,E,1,09,1.24,9.5,M,32.4,M,,*5E
$GPGLL,3729.86067,N,02327.46668,E,162934.00,A,A*6C
$GPRMC,162935.00,A,3729.86067,N,02327.46669,E,0.019,,300424,,,A*7C
$GPGGA,162935.00,3729.86067,N,02327.46669,E,1,09,1.24,9.6,M,32.4,M,,*5D
$GPGLL,3729.86067,N,02327.46669,E,162935.00,A,A*6C
$GPRMC,162936.00,A,3729.86066,N,02327.46673,E,0.030,,300424,,,A*7E
$GPGGA,162936.00,3729.86066,N,02327.46673,E,1,09,1.24,9.8,M,32.4,M,,*5A
$GPGLL,3729.86066,N,02327.46673,E,162936.00,A,A*65
$GPRMC,162937.00,A,3729.86067,N,02327.46673,E,0.049,,300424,,,A*70
$GPGGA,162937.00,3729.86067,N,02327.46673,E,1,09,1.24,9.8,M,32.4,M,,*5A
$GPGLL,3729.86067,N,02327.46673,E,162937.00,A,A*65
$GPRMC,162938.00,A,3729.86069,N,02327.46673,E,0.054,,300424,,,A*7D
$GPGGA,162938.00,3729.86069,N,02327.46673,E,1,09,1.24,9.8,M,32.4,M,,*5B
