$GPRMC,071332.00,A,3730.49769,N,02327.22101,E,0.176,,280424,,,A*7A
$GPGGA,071332.00,3730.49769,N,02327.22101,E,1,04,3.40,16.5,M,32.4,M,,*6A
$GPGLL,3730.49769,N,02327.22101,E,071332.00,A,A*6B
$GPRMC,071333.00,A,3730.49783,N,02327.22097,E,0.090,,280424,,,A*78
$GPGGA,071333.00,3730.49783,N,02327.22097,E,1,04,3.40,16.3,M,32.4,M,,*67
$GPGLL,3730.49783,N,02327.22097,E,071333.00,A,A*60
$GPRMC,071334.00,A,3730.49783,N,02327.22075,E,0.051,,280424,,,A*7E
$GPGGA,071334.00,3730.49783,N,02327.22075,E,1,04,3.40,16.5,M,32.4,M,,*6A
$GPGLL,3730.49783,N,02327.22075,E,071334.00,A,A*6B
$GPRMC,071335.00,A,3730.49784,N,02327.22066,E,0.066,,280424,,,A*7E
$GPGGA,071335.00,3730.49784,N,02327.22066,E,1,04,3.40,16.6,M,32.4,M,,*6D
$GPGLL,3730.49784,N,02327.22066,E,071335.00,A,A*6F
$GPRMC,071336.00,A,3730.49792,N,02327.22041,E,0.115,,280424,,,A*7A
$GPGGA,071336.00,3730.49792,N,02327.22041,E,1,04,3.40,16.2,M,32.4,M,,*68
$GPGLL,3730.49792,N,02327.22041,E,071336.00,A,A*6E
$GPRMC,071337.00,A,3730.49797,N,02327.22029,E,0.148,,280424,,,A*78
$GPGGA,071337.00,3730.49797,N,02327.22029,E,1,04,3.40,16.0,M,32.4,M,,*60
$GPGLL,3730.49797,N,02327.22029,E,071337.00,A,A*64
$GPRMC,071338.00,A,3730.49809,N,02327.22010,E,0.228,,280424,,,A*70
$GPGGA,071338.00,3730.49809,N,02327.22010,E,1,04,3.40,15.4,M,32.4,M,,*6A
$GPGLL,3730.49809,N,02327.22010,E,071338.00,A,A*69
$GPRMC,071339.00,A,3730.49813,N,02327.22011,E,0.182,,280424,,,A*78
$GPGGA,071339.00,3730.49813,N,02327.22011,E,1,04,3.40,15.2,M,32.4,M,,*67
$GPGLL,3730.49813,N,02327.22011,E,071339.00,A,A*62
$GPRMC,071340.00,A,3730.49808,N,02327.22017,E,0.016,,280424,,,A*76
$GPGGA,071340.00,3730.49808,N,02327.22017,E,1,04,3.40,15.6,M,32.4,M,,*61
$GPGLL,3730.49808,N,02327.22017,E,071340.00,A,A*60
$GPRMC,071341.00,A,3730.49815,N,02327.22001,E,0.069,,280424,,,A*74
$GPGGA,071341.00,3730.49815,N,02327.22001,E,1,04,3.40,15.4,M,32.4,M,,*69
$GPGLL,3730.49815,N,02327.22001,E,071341.00,A,A*6A
$GPRMC,071342.00,A,3730.49844,N,02327.21946,E,0.330,,280424,,,A*75
$GPGGA,071342.00,3730.49844,N,02327.21946,E,1,04,3.40,14.3,M,32.4,M,,*61
$GPGLL,3730.49844,N,02327.21946,E,071342.00,A,A*64
$GPRMC,071343.00,A,3730.49862,N,02327.21909,E,0.307,,280424,,,A*7F
$GPGGA,071343.00,3730.49862,N,02327.21909,E,1,04,3.40,13.5,M,32.4,M,,*6E
$GPGLL,3730.49862,N,02327.21909,E,071343.00,A,A*6A
$GPRMC,071344.00,A,3730.49868,N,02327.21905,E,0.273,,280424,,,A*7C
$GPGGA,071344.00,3730.49868,N,02327.21905,E,1,04,3.40,13.4,M,32.4,M,,*6E
$GPGLL,3730.49868,N,02327.21905,E,071344.00,A,A*6B
$GPRMC,071345.00,A,3730.49887,N,02327.21876,E,0.383,,280424,,,A*77
$GPGGA,071345.00,3730.49887,N,02327.21876,E,1,04,3.40,12.6,M,32.4,M,,*68
$GPGLL,3730.49887,N,02327.21876,E,071345.00,A,A*6E
$GPRMC,071346.00,A,3730.49877,N,02327.21892,E,0.160,,280424,,,A*7E
$GPGGA,071346.00,3730.49877,N,02327.21892,E,1,04,3.40,13.0,M,32.4,M,,*69
$GPGLL,3730.49877,N,02327.21892,E,071346.00,A,A*68
$GPRMC,071347.00,A,3730.49879,N,02327.21889,E,0.182,,280424,,,A*77
$GPGGA,071347.00,3730.49879,N,02327.21889,E,1,04,3.40,12.9,M,32.4,M,,*64
$GPGLL,3730.49879,N,02327.21889,E,071347.00,A,A*6D
$GPRMC,071348.00,A,3730.49865,N,02327.21913,E,0.026,,280424,,,A*78
$GPGGA,071348.00,3730.49865,N,02327.21913,E,1,04,3.40,13.6,M,32.4,M,,*6A
$GPGLL,3730.49865,N,02327.21913,E,071348.00,A,A*6D
$GPRMC,071349.00,A,3730.49859,N,02327.21921,E,0.017,,280424,,,A*75
$GPGGA,071349.00,3730.49859,N,02327.21921,E,1,04,3.40,13.8,M,32.4,M,,*6B
$GPGLL,3730.49859,N,02327.21921,E,071349.00,A,A*62
$GPRMC,071350.00,A,3730.49848,N,02327.21938,E,0.068,,280424,,,A*7D
$GPGGA,071350.00,3730.49848,N,02327.21938,E,1,04,3.40,14.3,M,32.4,M,,*67
$GPGLL,3730.49848,N,02327.21938,E,071350.00,A,A*62
$GPRMC,071351.00,A,3730.49858,N,02327.21916,E,0.097,,280424,,,A*71
$GPGGA,071351.00,3730.49858,N,02327.21916,E,1,04,3.40,13.7,M,32.4,M,,*68
$GPGLL,3730.49858,N,02327.21916,E,071351.00,A,A*6E
$GPRMC,071352.00,A,3730.49868,N,02327.21892,E,0.153,,280424,,,A*75
$GPGGA,071352.00,3730.49868,N,02327.21892,E,1,04,3.40,13.2,M,32.4,M,,*60
$GPGLL,3730.49868,N,02327.21892,E,071352.00,A,A*63
$GPRMC,071353.00,A,3730.49874,N,02327.21874,E,0.218,,280424,,,A*7D
$GPGGA,071353.00,3730.49874,N,02327.21874,E,1,04,3.40,12.7,M,32.4,M,,*60
$GPGLL,3730.49874,N,02327.21874,E,071353.00,A,A*67
$GPRMC,071354.00,A,3730.49873,N,02327.21871,E,0.158,,280424,,,A*7F
$GPGGA,071354.00,3730.49873,N,02327.21871,E,1,04,3.40,12.6,M,32.4,M,,*64
$GPGLL,3730.49873,N,02327.21871,E,071354.00,A,A*62
$GPRMC,071355.00,A,3730.49884,N,02327.21848,E,0.201,,280424,,,A*73
$GPGGA,071355.00,3730.49884,N,02327.21848,E,1,04,3.40,11.9,M,32.4,M,,*6B
$GPGLL,3730.49884,N,02327.21848,E,071355.00,A,A*61
$GPRMC,071356.00,A,3730.49923,N,02327.21765,E,0.479,,280424,,,A*75
$GPGGA,071356.00,3730.49923,N,02327.21765,E,1,04,3.40,9.9,M,32.4,M,,*5D
$GPGLL,3730.49923,N,02327.21765,E,071356.00,A,A*6E
$GPRMC,071357.00,A,3730.49919,N,02327.21763,E,0.357,,280424,,,A*70
$GPGGA,071357.00,3730.49919,N,02327.21763,E,1,04,3.40,9.8,M,32.4,M,,*52
$GPGLL,3730.49919,N,02327.21763,E,071357.00,A,A*60
$GPRMC,071358.00,A,3730.49935,N,02327.21729,E,0.472,,280424,,,A*7F
$GPGGA,071358.00,3730.49935,N,02327.21729,E,1,04,3.40,8.9,M,32.4,M,,*5D
$GPGLL,3730.49935,N,02327.21729,E,071358.00,A,A*6F
$GPRMC,071359.00,A,3730.49940,N,02327.21710,E,0.436,,280424,,,A*76
$GPGGA,071359.00,3730.49940,N,02327.21710,E,1,04,3.40,8.5,M,32.4,M,,*58
$GPGLL,3730.49940,N,02327.21710,E,071359.00,A,A*66
$GPRMC,071400.00,A,3730.49944,N,02327.21696,E,0.512,,280424,,,A*71
$GPGGA,071400.00,3730.49944,N,02327.21696,E,1,04,3.40,8.0,M,32.4,M,,*5D
$GPGLL,3730.49944,N,02327.21696,E,071400.00,A,A*66
$GPRMC,071401.00,A,3730.49951,N,02327.21670,E,0.596,,280424,,,A*70
$GPGGA,071401.00,3730.49951,N,02327.21670,E,1,04,3.40,7.4,M,32.4,M,,*5B
$GPGLL,3730.49951,N,02327.21670,E,071401.00,A,A*6B
$GPRMC,071402.00,A,3730.49941,N,02327.21674,E,0.466,,280424,,,A*78
$GPGGA,071402.00,3730.49941,N,02327.21674,E,1,04,3.40,7.6,M,32.4,M,,*5F
$GPGLL,3730.49941,N,02327.21674,E,071402.00,A,A*6D
$GPRMC,071403.00,A,3730.49980,N,02327.21591,E,0.843,,280424,,,A*77
$GPGGA,071403.00,3730.49980,N,02327.21591,E,1,04,3.40,5.6,M,32.4,M,,*59
$GPGLL,3730.49980,N,02327.21591,E,071403.00,A,A*69
$GPRMC,071404.00,A,3730.49957,N,02327.21624,E,0.591,,280424,,,A*75
$GPGGA,071404.00,3730.49957,N,02327.21624,E,1,04,3.40,6.4,M,32.4,M,,*58
$GPGLL,3730.49957,N,02327.21624,E,071404.00,A,A*69
$GPRMC,071405.00,A,3730.49952,N,02327.21624,E,0.580,,280424,,,A*71
$GPGGA,071405.00,3730.49952,N,02327.21624,E,1,04,3.40,6.4,M,32.4,M,,*5C
$GPGLL,3730.49952,N,02327.21624,E,071405.00,A,A*6D
$GPRMC,071406.00,A,3730.49946,N,02327.21622,E,0.526,,280424,,,A*7D
$GPGGA,071406.00,3730.49946,N,02327.21622,E,1,04,3.40,6.4,M,32.4,M,,*5C
$GPGLL,3730.49946,N,02327.21622,E,071406.00,A,A*6D
$GPRMC,071407.00,A,3730.49948,N,02327.21599,E,0.585,,280424,,,A*78
$GPGGA,071407.00,3730.49948,N,02327.21599,E,1,04,3.40,5.8,M,32.4,M,,*5F
$GPGLL,3730.49948,N,02327.21599,E,071407.00,A,A*61
$GPRMC,071408.00,A,3730.49966,N,02327.21549,E,0.736,,280424,,,A*7C
$GPGGA,071408.00,3730.49966,N,02327.21549,E,1,04,3.40,4.6,M,32.4,M,,*5E
$GPGLL,3730.49966,N,02327.21549,E,071408.00,A,A*6F
$GPRMC,071409.00,A,3730.50021,N,02327.21426,E,1.237,267.89,280424,,,A*6E
$GPGGA,071409.00,3730.50021,N,02327.21426,E,1,04,3.40,1.7,M,32.4,M,,*51
$GPGLL,3730.50021,N,02327.21426,E,071409.00,A,A*64
$GPRMC,071410.00,A,3730.50013,N,02327.21421,E,0.975,,280424,,,A*70
$GPGGA,071410.00,3730.50013,N,02327.21421,E,1,04,3.40,1.8,M,32.4,M,,*50
$GPGLL,3730.50013,N,02327.21421,E,071410.00,A,A*6A
$GPRMC,071411.00,A,3730.50023,N,02327.21383,E,1.036,281.21,280424,,,A*64
$GPGGA,071411.00,3730.50023,N,02327.21383,E,1,04,3.40,1.0,M,32.4,M,,*55
$GPGLL,3730.50023,N,02327.21383,E,071411.00,A,A*67
$GPRMC,071412.00,A,3730.49955,N,02327.21494,E,0.477,,280424,,,A*70
$GPGGA,071412.00,3730.49955,N,02327.21494,E,1,04,3.40,3.8,M,32.4,M,,*5D
$GPGLL,3730.49955,N,02327.21494,E,071412.00,A,A*65
$GPRMC,071413.00,A,3730.49995,N,02327.21403,E,0.969,,280424,,,A*71
$GPGGA,071413.00,3730.49995,N,02327.21403,E,1,04,3.40,1.6,M,32.4,M,,*52
$GPGLL,3730.49995,N,02327.21403,E,071413.00,A,A*66
$GPRMC,071414.00,A,3730.49955,N,02327.21458,E,0.548,,280424,,,A*7B
$GPGGA,071414.00,3730.49955,N,02327.21458,E,1,04,3.40,3.0,M,32.4,M,,*53
$GPGLL,3730.49955,N,02327.21458,E,071414.00,A,A*63
$GPRMC,071415.00,A,3730.49946,N,02327.21459,E,0.629,,280424,,,A*7D
$GPGGA,071415.00,3730.49946,N,02327.21459,E,1,04,3.40,3.1,M,32.4,M,,*50
$GPGLL,3730.49946,N,02327.21459,E,071415.00,A,A*61
$GPRMC,071416.00,A,3730.49932,N,02327.21469,E,0.631,,280424,,,A*77
$GPGGA,071416.00,3730.49932,N,02327.21469,E,1,04,3.40,3.5,M,32.4,M,,*57
$GPGLL,3730.49932,N,02327.21469,E,071416.00,A,A*62
$GPRMC,071417.00,A,3730.49892,N,02327.21528,E,0.348,,280424,,,A*72
$GPGGA,071417.00,3730.49892,N,02327.21528,E,1,04,3.40,5.0,M,32.4,M,,*5A
$GPGLL,3730.49892,N,02327.21528,E,071417.00,A,A*6C
$GPRMC,071418.00,A,3730.49861,N,02327.21573,E,0.218,,280424,,,A*7B
$GPGGA,071418.00,3730.49861,N,02327.21573,E,1,04,3.40,6.1,M,32.4,M,,*55
$GPGLL,3730.49861,N,02327.21573,E,071418.00,A,A*61
$GPRMC,071419.00,A,3730.49833,N,02327.21612,E,0.218,,280424,,,A*79
$GPGGA,071419.00,3730.49833,N,02327.21612,E,1,04,3.40,7.1,M,32.4,M,,*56
$GPGLL,3730.49833,N,02327.21612,E,071419.00,A,A*63
$GPRMC,071420.00,A,3730.49835,N,02327.21596,E,0.361,,280424,,,A*75
$GPGGA,071420.00,3730.49835,N,02327.21596,E,1,04,3.40,6.7,M,32.4,M,,*52
$GPGLL,3730.49835,N,02327.21596,E,071420.00,A,A*60
$GPRMC,071421.00,A,3730.49846,N,02327.21563,E,0.558,,280424,,,A*76
$GPGGA,071421.00,3730.49846,N,02327.21563,E,1,04,3.40,6.1,M,32.4,M,,*5B
$GPGLL,3730.49846,N,02327.21563,E,071421.00,A,A*6F
$GPRMC,071422.00,A,3730.49817,N,02327.21605,E,0.366,,280424,,,A*79
$GPGGA,071422.00,3730.49817,N,02327.21605,E,1,04,3.40,7.2,M,32.4,M,,*5D
$GPGLL,3730.49817,N,02327.21605,E,071422.00,A,A*6B
$GPRMC,071423.00,A,3730.49820,N,02327.21587,E,0.515,,280424,,,A*77
$GPGGA,071423.00,3730.49820,N,02327.21587,E,1,04,3.41,6.8,M,32.4,M,,*5B
$GPGLL,3730.49820,N,02327.21587,E,071423.00,A,A*67
$GPRMC,071424.00,A,3730.49803,N,02327.21609,E,0.397,,280424,,,A*78
$GPGGA,071424.00,3730.49803,N,02327.21609,E,1,04,3.41,7.4,M,32.4,M,,*55
$GPGLL,3730.49803,N,02327.21609,E,071424.00,A,A*64
