$GPRMC,181802.00,A,3729.86093,N,02327.46764,E,0.023,,280424,,,A*73
$GPGGA,181802.00,3729.86093,N,02327.46764,E,1,09,0.97,5.5,M,32.4,M,,*54
$GPGLL,3729.86093,N,02327.46764,E,181802.00,A,A*63
$GPRMC,181803.00,A,3729.86089,N,02327.46761,E,0.050,,280424,,,A*78
$GPGGA,181803.00,3729.86089,N,02327.46761,E,1,09,0.97,5.4,M,32.4,M,,*5A
$GPGLL,3729.86089,N,02327.46761,E,181803.00,A,A*6C
$GPRMC,181804.00,A,3729.86088,N,02327.46759,E,0.089,,280424,,,A*71
$GPGGA,181804.00,3729.86088,N,02327.46759,E,1,09,1.32,5.4,M,32.4,M,,*59
$GPGLL,3729.86088,N,02327.46759,E,181804.00,A,A*61
$GPRMC,181805.00,A,3729.86085,N,02327.46764,E,0.042,,280424,,,A*74
$GPGGA,181805.00,3729.86085,N,02327.46764,E,1,09,1.32,5.6,M,32.4,M,,*59
$GPGLL,3729.86085,N,02327.46764,E,181805.00,A,A*63
$GPRMC,181806.00,A,3729.86086,N,02327.46771,E,0.040,,280424,,,A*72
$GPGGA,181806.00,3729.86086,N,02327.46771,E,1,09,0.97,5.8,M,32.4,M,,*5D
$GPGLL,3729.86086,N,02327.46771,E,181806.00,A,A*67
$GPRMC,181807.00,A,3729.86087,N,02327.46774,E,0.040,,280424,,,A*77
$GPGGA,181807.00,3729.86087,N,02327.46774,E,1,09,0.97,5.8,M,32.4,M,,*58
$GPGLL,3729.86087,N,02327.46774,E,181807.00,A,A*62
$GPRMC,181808.00,A,3729.86089,N,02327.46777,E,0.059,,280424,,,A*7D
$GPGGA,181808.00,3729.86089,N,02327.46777,E,1,09,0.97,5.8,M,32.4,M,,*5A
$GPGLL,3729.86089,N,02327.46777,E,181808.00,A,A*60
$GPRMC,181809.00,A,3729.86087,N,02327.46783,E,0.038,,280424,,,A*7E
$GPGGA,181809.00,3729.86087,N,02327.46783,E,1,09,0.97,5.9,M,32.4,M,,*5F
$GPGLL,3729.86087,N,02327.46783,E,181809.00,A,A*64
$GPRMC,181810.00,A,3729.86077,N,02327.46787,E,0.066,,280424,,,A*76
$GPGGA,181810.00,3729.86077,N,02327.46787,E,1,09,0.97,5.9,M,32.4,M,,*5C
$GPGLL,3729.86077,N,02327.46787,E,181810.00,A,A*67
$GPRMC,181851.00,A,3729.86127,N,02327.46808,E,0.057,,280424,,,A*7D
$GPGGA,181851.00,3729.86127,N,02327.46808,E,1,09,0.97,6.3,M,32.4,M,,*5C
$GPGLL,3729.86127,N,02327.46808,E,181851.00,A,A*6E
$GPRMC,181852.00,A,3729.86119,N,02327.46804,E,0.046,,280424,,,A*7F
$GPGGA,181852.00,3729.86119,N,02327.46804,E,1,09,1.31,6.0,M,32.4,M,,*50
$GPGLL,3729.86119,N,02327.46804,E,181852.00,A,A*6C
$GPRMC,181853.00,A,3729.86114,N,02327.46805,E,0.156,,280424,,,A*72
$GPGGA,181853.00,3729.86114,N,02327.46805,E,1,09,0.97,5.8,M,32.4,M,,*5B
$GPGLL,3729.86114,N,02327.46805,E,181853.00,A,A*61
$GPRMC,181854.00,A,3729.86108,N,02327.46806,E,0.066,,280424,,,A*79
$GPGGA,181854.00,3729.86108,N,02327.46806,E,1,09,0.97,5.6,M,32.4,M,,*5C
$GPGLL,3729.86108,N,02327.46806,E,181854.00,A,A*68
$GPRMC,181855.00,A,3729.86099,N,02327.46807,E,0.050,,280424,,,A*75
$GPGGA,181855.00,3729.86099,N,02327.46807,E,1,09,0.97,5.6,M,32.4,M,,*55
$GPGLL,3729.86099,N,02327.46807,E,181855.00,A,A*61
$GPRMC,181856.00,A,3729.86091,N,02327.46806,E,0.064,,280424,,,A*78
$GPGGA,181856.00,3729.86091,N,02327.46806,E,1,09,0.97,5.8,M,32.4,M,,*51
$GPGLL,3729.86091,N,02327.46806,E,181856.00,A,A*6B
$GPRMC,181857.00,A,3729.86088,N,02327.46811,E,0.008,,280424,,,A*7D
$GPGGA,181857.00,3729.86088,N,02327.46811,E,1,08,0.98,6.2,M,32.4,M,,*59
$GPGLL,3729.86088,N,02327.46811,E,181857.00,A,A*64
$GPRMC,181858.00,A,3729.86085,N,02327.46815,E,0.050,,280424,,,A*76
$GPGGA,181858.00,3729.86085,N,02327.46815,E,1,09,1.05,6.6,M,32.4,M,,*5F
$GPGLL,3729.86085,N,02327.46815,E,181858.00,A,A*62
$GPRMC,181859.00,A,3729.86081,N,02327.46820,E,0.046,,280424,,,A*72
$GPGGA,181859.00,3729.86081,N,02327.46820,E,1,09,0.97,6.9,M,32.4,M,,*59
$GPGLL,3729.86081,N,02327.46820,E,181859.00,A,A*61
$GPRMC,181900.00,A,3729.86075,N,02327.46820,E,0.011,,280424,,,A*76
$GPGGA,181900.00,3729.86075,N,02327.46820,E,1,09,0.97,7.0,M,32.4,M,,*57
$GPGLL,3729.86075,N,02327.46820,E,181900.00,A,A*67
$GPRMC,181901.00,A,3729.86075,N,02327.46820,E,0.075,,280424,,,A*75
$GPGGA,181901.00,3729.86075,N,02327.46820,E,1,09,0.97,7.1,M,32.4,M,,*57
$GPGLL,3729.86075,N,02327.46820,E,181901.00,A,A*66
$GPRMC,181902.00,A,3729.86071,N,02327.46823,E,0.050,,280424,,,A*76
$GPGGA,181902.00,3729.86071,N,02327.46823,E,1,09,0.97,7.4,M,32.4,M,,*56
$GPGLL,3729.86071,N,02327.46823,E,181902.00,A,A*62
$GPRMC,181903.00,A,3729.86069,N,02327.46826,E,0.017,,280424,,,A*78
$GPGGA,181903.00,3729.86069,N,02327.46826,E,1,09,0.97,7.7,M,32.4,M,,*58
$GPGLL,3729.86069,N,02327.46826,E,181903.00,A,A*6F
$GPRMC,181904.00,A,3729.86070,N,02327.46818,E,0.055,,280424,,,A*7C
$GPGGA,181904.00,3729.86070,N,02327.46818,E,1,09,1.31,7.4,M,32.4,M,,*54
$GPGLL,3729.86070,N,02327.46818,E,181904.00,A,A*6D
$GPRMC,181905.00,A,3729.86075,N,02327.46817,E,0.038,,280424,,,A*7C
$GPGGA,181905.00,3729.86075,N,02327.46817,E,1,09,0.97,7.4,M,32.4,M,,*52
$GPGLL,3729.86075,N,02327.46817,E,181905.00,A,A*66
$GPRMC,181906.00,A,3729.86081,N,02327.46819,E,0.021,,280424,,,A*72
$GPGGA,181906.00,3729.86081,N,02327.46819,E,1,09,0.97,7.6,M,32.4,M,,*56
$GPGLL,3729.86081,N,02327.46819,E,181906.00,A,A*60
$GPRMC,181907.00,A,3729.86084,N,02327.46816,E,0.027,,280424,,,A*7F
$GPGGA,181907.00,3729.86084,N,02327.46816,E,1,09,0.97,7.6,M,32.4,M,,*5D
$GPGLL,3729.86084,N,02327.46816,E,181907.00,A,A*6B
$GPRMC,181908.00,A,3729.86089,N,02327.46822,E,0.033,,280424,,,A*7F
$GPGGA,181908.00,3729.86089,N,02327.46822,E,1,09,0.97,7.8,M,32.4,M,,*56
$GPGLL,3729.86089,N,02327.46822,E,181908.00,A,A*6E
$GPRMC,181909.00,A,3729.86099,N,02327.46829,E,0.041,,280424,,,A*71
$GPGGA,181909.00,3729.86099,N,02327.46829,E,1,09,0.97,8.0,M,32.4,M,,*5A
$GPGLL,3729.86099,N,02327.46829,E,181909.00,A,A*65
$GPRMC,181910.00,A,3729.86096,N,02327.46832,E,0.009,,280424,,,A*70
$GPGGA,181910.00,3729.86096,N,02327.46832,E,1,09,0.97,8.3,M,32.4,M,,*54
$GPGLL,3729.86096,N,02327.46832,E,181910.00,A,A*68
$GPRMC,181911.00,A,3729.86098,N,02327.46838,E,0.210,,280424,,,A*7F
$GPGGA,181911.00,3729.86098,N,02327.46838,E,1,09,0.97,8.6,M,32.4,M,,*54
$GPGLL,3729.86098,N,02327.46838,E,181911.00,A,A*6D
$GPRMC,181912.00,A,3729.86095,N,02327.46842,E,0.038,,280424,,,A*74
$GPGGA,181912.00,3729.86095,N,02327.46842,E,1,08,1.47,8.9,M,32.4,M,,*55
$GPGLL,3729.86095,N,02327.46842,E,181912.00,A,A*6E
$GPRMC,181913.00,A,3729.86089,N,02327.46843,E,0.050,,280424,,,A*77
$GPGGA,181913.00,3729.86089,N,02327.46843,E,1,08,1.12,9.1,M,32.4,M,,*51
$GPGLL,3729.86089,N,02327.46843,E,181913.00,A,A*63
$GPRMC,181914.00,A,3729.86091,N,02327.46843,E,0.069,,280424,,,A*73
$GPGGA,181914.00,3729.86091,N,02327.46843,E,1,08,1.12,9.2,M,32.4,M,,*5C
$GPGLL,3729.86091,N,02327.46843,E,181914.00,A,A*6D
$GPRMC,181915.00,A,3729.86086,N,02327.46841,E,0.012,,280424,,,A*7A
$GPGGA,181915.00,3729.86086,N,02327.46841,E,1,09,1.12,9.4,M,32.4,M,,*5E
$GPGLL,3729.86086,N,02327.46841,E,181915.00,A,A*68
$GPRMC,181916.00,A,3729.86085,N,02327.46839,E,0.030,,280424,,,A*75
$GPGGA,181916.00,3729.86085,N,02327.46839,E,1,08,1.12,9.5,M,32.4,M,,*51
$GPGLL,3729.86085,N,02327.46839,E,181916.00,A,A*67
$GPRMC,181917.00,A,3729.86090,N,02327.46834,E,0.048,,280424,,,A*72
$GPGGA,181917.00,3729.86090,N,02327.46834,E,1,09,0.97,9.4,M,32.4,M,,*55
$GPGLL,3729.86090,N,02327.46834,E,181917.00,A,A*6F
$GPRMC,181918.00,A,3729.86096,N,02327.46836,E,0.041,,280424,,,A*70
$GPGGA,181918.00,3729.86096,N,02327.46836,E,1,08,1.08,9.5,M,32.4,M,,*59
$GPGLL,3729.86096,N,02327.46836,E,181918.00,A,A*64
$GPRMC,181919.00,A,3729.86096,N,02327.46834,E,0.040,,280424,,,A*72
$GPGGA,181919.00,3729.86096,N,02327.46834,E,1,08,1.08,9.3,M,32.4,M,,*5C
$GPGLL,3729.86096,N,02327.46834,E,181919.00,A,A*67
$GPRMC,181920.00,A,3729.86093,N,02327.46834,E,0.055,,280424,,,A*79
$GPGGA,181920.00,3729.86093,N,02327.46834,E,1,08,1.08,9.2,M,32.4,M,,*52
$GPGLL,3729.86093,N,02327.46834,E,181920.00,A,A*68
$GPRMC,181921.00,A,3729.86091,N,02327.46833,E,0.025,,280424,,,A*7A
$GPGGA,181921.00,3729.86091,N,02327.46833,E,1,09,0.97,9.0,M,32.4,M,,*52
$GPGLL,3729.86091,N,02327.46833,E,181921.00,A,A*6C
$GPRMC,181922.00,A,3729.86093,N,02327.46827,E,0.018,,280424,,,A*70
$GPGGA,181922.00,3729.86093,N,02327.46827,E,1,09,0.97,8.7,M,32.4,M,,*50
$GPGLL,3729.86093,N,02327.46827,E,181922.00,A,A*68
$GPRMC,181923.00,A,3729.86093,N,02327.46824,E,0.034,,280424,,,A*7C
$GPGGA,181923.00,3729.86093,N,02327.46824,E,1,09,0.97,8.6,M,32.4,M,,*53
$GPGLL,3729.86093,N,02327.46824,E,181923.00,A,A*6A
$GPRMC,181924.00,A,3729.86096,N,02327.46814,E,0.022,,280424,,,A*7A
$GPGGA,181924.00,3729.86096,N,02327.46814,E,1,09,1.08,8.1,M,32.4,M,,*52
$GPGLL,3729.86096,N,02327.46814,E,181924.00,A,A*6B
$GPRMC,181925.00,A,3729.86093,N,02327.46809,E,0.046,,280424,,,A*70
$GPGGA,181925.00,3729.86093,N,02327.46809,E,1,09,0.97,8.0,M,32.4,M,,*5C
$GPGLL,3729.86093,N,02327.46809,E,181925.00,A,A*63
$GPRMC,181926.00,A,3729.86086,N,02327.46808,E,0.079,,280424,,,A*7A
$GPGGA,181926.00,3729.86086,N,02327.46808,E,1,09,0.97,8.0,M,32.4,M,,*5A
$GPGLL,3729.86086,N,02327.46808,E,181926.00,A,A*65
$GPRMC,181927.00,A,3729.86075,N,02327.46808,E,0.031,,280424,,,A*7B
$GPGGA,181927.00,3729.86075,N,02327.46808,E,1,09,0.97,7.8,M,32.4,M,,*50
$GPGLL,3729.86075,N,02327.46808,E,181927.00,A,A*68
$GPRMC,181928.00,A,3729.86067,N,02327.46808,E,0.009,,280424,,,A*7C
$GPGGA,181928.00,3729.86067,N,02327.46808,E,1,09,0.97,7.7,M,32.4,M,,*53
$GPGLL,3729.86067,N,02327.46808,E,181928.00,A,A*64
$GPRMC,181929.00,A,3729.86065,N,02327.46810,E,0.043,,280424,,,A*78
$GPGGA,181929.00,3729.86065,N,02327.46810,E,1,09,1.31,7.6,M,32.4,M,,*55
$GPGLL,3729.86065,N,02327.46810,E,181929.00,A,A*6E
$GPRMC,181930.00,A,3729.86065,N,02327.46810,E,0.067,,280424,,,A*76
$GPGGA,181930.00,3729.86065,N,02327.46810,E,1,09,1.31,7.4,M,32.4,M,,*5F
$GPGLL,3729.86065,N,02327.46810,E,181930.00,A,A*66
$GPRMC,181931.00,A,3729.86064,N,02327.46809,E,0.043,,280424,,,A*78
$GPGGA,181931.00,3729.86064,N,02327.46809,E,1,09,0.97,7.2,M,32.4,M,,*5C
$GPGLL,3729.86064,N,02327.46809,E,181931.00,A,A*6E
$GPRMC,181932.00,A,3729.86063,N,02327.46809,E,0.008,,280424,,,A*73
$GPGGA,181932.00,3729.86063,N,02327.46809,E,1,09,0.97,7.1,M,32.4,M,,*5B
$GPGLL,3729.86063,N,02327.46809,E,181932.00,A,A*6A
$GPRMC,181933.00,A,3729.86059,N,02327.46810,E,0.044,,280424,,,A*7B
$GPGGA,181933.00,3729.86059,N,02327.46810,E,1,09,1.31,7.1,M,32.4,M,,*56
$GPGLL,3729.86059,N,02327.46810,E,181933.00,A,A*6A
$GPRMC,181934.00,A,3729.86057,N,02327.46810,E,0.043,,280424,,,A*75
$GPGGA,181934.00,3729.86057,N,02327.46810,E,1,08,1.12,7.1,M,32.4,M,,*5F
$GPGLL,3729.86057,N,02327.46810,E,181934.00,A,A*63
$GPRMC,181935.00,A,3729.86054,N,02327.46809,E,0.007,,280424,,,A*7F
$GPGGA,181935.00,3729.86054,N,02327.46809,E,1,09,1.12,7.0,M,32.4,M,,*55
$GPGLL,3729.86054,N,02327.46809,E,181935.00,A,A*69
$GPRMC,181936.00,A,3729.86050,N,02327.46807,E,0.015,,280424,,,A*75
$GPGGA,181936.00,3729.86050,N,02327.46807,E,1,09,0.97,6.8,M,32.4,M,,*59
$GPGLL,3729.86050,N,02327.46807,E,181936.00,A,A*60
$GPRMC,181937.00,A,3729.86046,N,02327.46808,E,0.053,,280424,,,A*7E
$GPGGA,181937.00,3729.86046,N,02327.46808,E,1,09,0.97,6.7,M,32.4,M,,*5F
$GPGLL,3729.86046,N,02327.46808,E,181937.00,A,A*69
$GPRMC,181938.00,A,3729.86041,N,02327.46807,E,0.055,,280424,,,A*7F
$GPGGA,181938.00,3729.86041,N,02327.46807,E,1,09,0.97,6.6,M,32.4,M,,*59
$GPGLL,3729.86041,N,02327.46807,E,181938.00,A,A*6E
$GPRMC,181939.00,A,3729.86036,N,02327.46808,E,0.054,,280424,,,A*70
$GPGGA,181939.00,3729.86036,N,02327.46808,E,1,09,1.12,6.6,M,32.4,M,,*5B
$GPGLL,3729.86036,N,02327.46808,E,181939.00,A,A*60
$GPRMC,181940.00,A,3729.86028,N,02327.46809,E,0.051,,280424,,,A*75
$GPGGA,181940.00,3729.86028,N,02327.46809,E,1,09,0.97,6.6,M,32.4,M,,*57
$GPGLL,3729.86028,N,02327.46809,E,181940.00,A,A*60
$GPRMC,181941.00,A,3729.86025,N,02327.46811,E,0.021,,280424,,,A*77
$GPGGA,181941.00,3729.86025,N,02327.46811,E,1,09,0.97,6.5,M,32.4,M,,*51
$GPGLL,3729.86025,N,02327.46811,E,181941.00,A,A*65
$GPRMC,181942.00,A,3729.86024,N,02327.46811,E,0.050,,280424,,,A*73
$GPGGA,181942.00,3729.86024,N,02327.46811,E,1,09,0.97,6.4,M,32.4,M,,*52
$GPGLL,3729.86024,N,02327.46811,E,181942.00,A,A*67
$GPRMC,181943.00,A,3729.86031,N,02327.46809,E,0.045,,280424,,,A*7B
$GPGGA,181943.00,3729.86031,N,02327.46809,E,1,09,0.97,6.3,M,32.4,M,,*59
$GPGLL,3729.86031,N,02327.46809,E,181943.00,A,A*6B
$GPRMC,181944.00,A,3729.86033,N,02327.46805,E,0.040,,280424,,,A*77
$GPGGA,181944.00,3729.86033,N,02327.46805,E,1,09,0.97,6.3,M,32.4,M,,*50
$GPGLL,3729.86033,N,02327.46805,E,181944.00,A,A*62
$GPRMC,181945.00,A,3729.86040,N,02327.46803,E,0.014,,280424,,,A*75
$GPGGA,181945.00,3729.86040,N,02327.46803,E,1,09,0.97,6.4,M,32.4,M,,*54
$GPGLL,3729.86040,N,02327.46803,E,181945.00,A,A*61
$GPRMC,181946.00,A,3729.86042,N,02327.46800,E,0.025,,280424,,,A*75
$GPGGA,181946.00,3729.86042,N,02327.46800,E,1,09,1.30,6.4,M,32.4,M,,*5A
$GPGLL,3729.86042,N,02327.46800,E,181946.00,A,A*63
$GPRMC,181947.00,A,3729.86044,N,02327.46797,E,0.083,,280424,,,A*7F
$GPGGA,181947.00,3729.86044,N,02327.46797,E,1,09,0.97,6.4,M,32.4,M,,*50
$GPGLL,3729.86044,N,02327.46797,E,181947.00,A,A*65
$GPRMC,181948.00,A,3729.86042,N,02327.46793,E,0.038,,280424,,,A*72
$GPGGA,181948.00,3729.86042,N,02327.46793,E,1,09,1.30,6.4,M,32.4,M,,*51
$GPGLL,3729.86042,N,02327.46793,E,181948.00,A,A*68
$GPRMC,181949.00,A,3729.86040,N,02327.46793,E,0.069,,280424,,,A*75
$GPGGA,181949.00,3729.86040,N,02327.46793,E,1,09,0.97,6.3,M,32.4,M,,*59
$GPGLL,3729.86040,N,02327.46793,E,181949.00,A,A*6B
$GPRMC,181950.00,A,3729.86035,N,02327.46792,E,0.008,,280424,,,A*79
$GPGGA,181950.00,3729.86035,N,02327.46792,E,1,09,0.97,6.2,M,32.4,M,,*53
$GPGLL,3729.86035,N,02327.46792,E,181950.00,A,A*60
$GPRMC,181951.00,A,3729.86029,N,02327.46792,E,0.095,,280424,,,A*71
$GPGGA,181951.00,3729.86029,N,02327.46792,E,1,09,0.97,6.2,M,32.4,M,,*5F
$GPGLL,3729.86029,N,02327.46792,E,181951.00,A,A*6C
$GPRMC,181952.00,A,3729.86028,N,02327.46792,E,0.015,,280424,,,A*7B
$GPGGA,181952.00,3729.86028,N,02327.46792,E,1,09,0.97,6.3,M,32.4,M,,*5C
$GPGLL,3729.86028,N,02327.46792,E,181952.00,A,A*6E
$GPRMC,181953.00,A,3729.86030,N,02327.46792,E,0.038,,280424,,,A*7C
$GPGGA,181953.00,3729.86030,N,02327.46792,E,1,09,0.97,6.3,M,32.4,M,,*54
$GPGLL,3729.86030,N,02327.46792,E,181953.00,A,A*66
$GPRMC,181954.00,A,3729.86026,N,02327.46792,E,0.015,,280424,,,A*73
$GPGGA,181954.00,3729.86026,N,02327.46792,E,1,09,0.97,6.3,M,32.4,M,,*54
$GPGLL,3729.86026,N,02327.46792,E,181954.00,A,A*66
$GPRMC,181955.00,A,3729.86024,N,02327.46790,E,0.046,,280424,,,A*74
$GPGGA,181955.00,3729.86024,N,02327.46790,E,1,09,0.97,6.2,M,32.4,M,,*54
$GPGLL,3729.86024,N,02327.46790,E,181955.00,A,A*67
$GPRMC,181956.00,A,3729.86019,N,02327.46789,E,0.055,,280424,,,A*73
$GPGGA,181956.00,3729.86019,N,02327.46789,E,1,09,0.97,6.1,M,32.4,M,,*52
$GPGLL,3729.86019,N,02327.46789,E,181956.00,A,A*62
$GPRMC,181957.00,A,3729.86014,N,02327.46788,E,0.035,,280424,,,A*78
$GPGGA,181957.00,3729.86014,N,02327.46788,E,1,09,0.97,6.0,M,32.4,M,,*5E
$GPGLL,3729.86014,N,02327.46788,E,181957.00,A,A*6F
$GPRMC,181958.00,A,3729.86012,N,02327.46788,E,0.010,,280424,,,A*76
$GPGGA,181958.00,3729.86012,N,02327.46788,E,1,09,0.97,5.8,M,32.4,M,,*5C
$GPGLL,3729.86012,N,02327.46788,E,181958.00,A,A*66
$GPRMC,181959.00,A,3729.86011,N,02327.46788,E,0.082,,280424,,,A*7F
$GPGGA,181959.00,3729.86011,N,02327.46788,E,1,09,0.97,5.8,M,32.4,M,,*5E
$GPGLL,3729.86011,N,02327.46788,E,181959.00,A,A*64
$GPRMC,182000.00,A,3729.86020,N,02327.46786,E,0.155,,280424,,,A*7E
$GPGGA,182000.00,3729.86020,N,02327.46786,E,1,09,0.97,5.8,M,32.4,M,,*54
$GPGLL,3729.86020,N,02327.46786,E,182000.00,A,A*6E
$GPRMC,182001.00,A,3729.86025,N,02327.46784,E,0.059,,280424,,,A*75
$GPGGA,182001.00,3729.86025,N,02327.46784,E,1,08,1.08,5.8,M,32.4,M,,*54
$GPGLL,3729.86025,N,02327.46784,E,182001.00,A,A*68
$GPRMC,182002.00,A,3729.86027,N,02327.46782,E,0.069,,280424,,,A*71
$GPGGA,182002.00,3729.86027,N,02327.46782,E,1,09,0.97,5.8,M,32.4,M,,*55
$GPGLL,3729.86027,N,02327.46782,E,182002.00,A,A*6F
$GPRMC,182003.00,A,3729.86029,N,02327.46784,E,0.031,,280424,,,A*75
$GPGGA,182003.00,3729.86029,N,02327.46784,E,1,09,0.97,6.0,M,32.4,M,,*57
$GPGLL,3729.86029,N,02327.46784,E,182003.00,A,A*66
$GPRMC,182004.00,A,3729.86033,N,02327.46783,E,0.064,,280424,,,A*7E
$GPGGA,182004.00,3729.86033,N,02327.46783,E,1,09,0.97,6.2,M,32.4,M,,*5E
$GPGLL,3729.86033,N,02327.46783,E,182004.00,A,A*6D
$GPRMC,182005.00,A,3729.86034,N,02327.46784,E,0.090,,280424,,,A*74
$GPGGA,182005.00,3729.86034,N,02327.46784,E,1,09,0.97,6.3,M,32.4,M,,*5E
$GPGLL,3729.86034,N,02327.46784,E,182005.00,A,A*6C
$GPRMC,182006.00,A,3729.86033,N,02327.46783,E,0.052,,280424,,,A*79
$GPGGA,182006.00,3729.86033,N,02327.46783,E,1,09,0.97,6.2,M,32.4,M,,*5C
$GPGLL,3729.86033,N,02327.46783,E,182006.00,A,A*6F
$GPRMC,182007.00,A,3729.86037,N,02327.46784,E,0.072,,280424,,,A*79
$GPGGA,182007.00,3729.86037,N,02327.46784,E,1,09,0.97,6.3,M,32.4,M,,*5F
$GPGLL,3729.86037,N,02327.46784,E,182007.00,A,A*6D
$GPRMC,182008.00,A,3729.86038,N,02327.46789,E,0.060,,280424,,,A*77
$GPGGA,182008.00,3729.86038,N,02327.46789,E,1,09,0.97,6.4,M,32.4,M,,*55
$GPGLL,3729.86038,N,02327.46789,E,182008.00,A,A*60
$GPRMC,182009.00,A,3729.86041,N,02327.46789,E,0.056,,280424,,,A*7D
$GPGGA,182009.00,3729.86041,N,02327.46789,E,1,09,0.97,6.4,M,32.4,M,,*5A
$GPGLL,3729.86041,N,02327.46789,E,182009.00,A,A*6F
$GPRMC,182010.00,A,3729.86042,N,02327.46786,E,0.026,,280424,,,A*7E
$GPGGA,182010.00,3729.86042,N,02327.46786,E,1,09,1.30,6.3,M,32.4,M,,*55
$GPGLL,3729.86042,N,02327.46786,E,182010.00,A,A*6B
$GPRMC,182011.00,A,3729.86043,N,02327.46783,E,0.046,,280424,,,A*7D
$GPGGA,182011.00,3729.86043,N,02327.46783,E,1,09,1.30,6.1,M,32.4,M,,*52
$GPGLL,3729.86043,N,02327.46783,E,182011.00,A,A*6E
$GPRMC,182012.00,A,3729.86046,N,02327.46784,E,0.064,,280424,,,A*7C
$GPGGA,182012.00,3729.86046,N,02327.46784,E,1,09,0.97,6.3,M,32.4,M,,*5D
$GPGLL,3729.86046,N,02327.46784,E,182012.00,A,A*6F
$GPRMC,182013.00,A,3729.86049,N,02327.46783,E,0.064,,280424,,,A*75
$GPGGA,182013.00,3729.86049,N,02327.46783,E,1,09,0.97,6.3,M,32.4,M,,*54
$GPGLL,3729.86049,N,02327.46783,E,182013.00,A,A*66
$GPRMC,182014.00,A,3729.86050,N,02327.46781,E,0.076,,280424,,,A*7B
$GPGGA,182014.00,3729.86050,N,02327.46781,E,1,09,0.97,6.3,M,32.4,M,,*59
$GPGLL,3729.86050,N,02327.46781,E,182014.00,A,A*6B
$GPRMC,182015.00,A,3729.86052,N,02327.46779,E,0.026,,280424,,,A*7A
$GPGGA,182015.00,3729.86052,N,02327.46779,E,1,09,0.97,6.2,M,32.4,M,,*5C
$GPGLL,3729.86052,N,02327.46779,E,182015.00,A,A*6F
$GPRMC,182016.00,A,3729.86050,N,02327.46776,E,0.092,,280424,,,A*7B
$GPGGA,182016.00,3729.86050,N,02327.46776,E,1,09,1.06,6.1,M,32.4,M,,*58
$GPGLL,3729.86050,N,02327.46776,E,182016.00,A,A*61
$GPRMC,182017.00,A,3729.86056,N,02327.46774,E,0.071,,280424,,,A*73
$GPGGA,182017.00,3729.86056,N,02327.46774,E,1,08,1.08,6.0,M,32.4,M,,*53
$GPGLL,3729.86056,N,02327.46774,E,182017.00,A,A*64
$GPRMC,182018.00,A,3729.86071,N,02327.46774,E,0.043,,280424,,,A*78
$GPGGA,182018.00,3729.86071,N,02327.46774,E,1,09,1.08,6.2,M,32.4,M,,*5A
$GPGLL,3729.86071,N,02327.46774,E,182018.00,A,A*6E
$GPRMC,182019.00,A,3729.86079,N,02327.46776,E,0.024,,280424,,,A*72
$GPGGA,182019.00,3729.86079,N,02327.46776,E,1,09,0.97,6.5,M,32.4,M,,*51
$GPGLL,3729.86079,N,02327.46776,E,182019.00,A,A*65
$GPRMC,182020.00,A,3729.86082,N,02327.46778,E,0.022,,280424,,,A*74
$GPGGA,182020.00,3729.86082,N,02327.46778,E,1,09,0.97,6.7,M,32.4,M,,*53
$GPGLL,3729.86082,N,02327.46778,E,182020.00,A,A*65
$GPRMC,182021.00,A,3729.86085,N,02327.46777,E,0.084,,280424,,,A*71
$GPGGA,182021.00,3729.86085,N,02327.46777,E,1,09,0.97,6.8,M,32.4,M,,*55
$GPGLL,3729.86085,N,02327.46777,E,182021.00,A,A*6C
$GPRMC,182022.00,A,3729.86086,N,02327.46778,E,0.052,,280424,,,A*75
$GPGGA,182022.00,3729.86086,N,02327.46778,E,1,09,0.97,6.9,M,32.4,M,,*5B
$GPGLL,3729.86086,N,02327.46778,E,182022.00,A,A*63
$GPRMC,182023.00,A,3729.86086,N,02327.46777,E,0.036,,280424,,,A*79
$GPGGA,182023.00,3729.86086,N,02327.46777,E,1,09,0.97,6.8,M,32.4,M,,*54
$GPGLL,3729.86086,N,02327.46777,E,182023.00,A,A*6D
$GPRMC,182024.00,A,3729.86085,N,02327.46781,E,0.056,,280424,,,A*72
$GPGGA,182024.00,3729.86085,N,02327.46781,E,1,09,0.97,7.0,M,32.4,M,,*50
$GPGLL,3729.86085,N,02327.46781,E,182024.00,A,A*60
$GPRMC,182025.00,A,3729.86086,N,02327.46778,E,0.035,,280424,,,A*73
$GPGGA,182025.00,3729.86086,N,02327.46778,E,1,09,0.97,6.9,M,32.4,M,,*5C
$GPGLL,3729.86086,N,02327.46778,E,182025.00,A,A*64
$GPRMC,182026.00,A,3729.86086,N,02327.46778,E,0.042,,280424,,,A*70
$GPGGA,182026.00,3729.86086,N,02327.46778,E,1,09,0.97,7.0,M,32.4,M,,*57
$GPGLL,3729.86086,N,02327.46778,E,182026.00,A,A*67
$GPRMC,182027.00,A,3729.86083,N,02327.46777,E,0.069,,280424,,,A*72
$GPGGA,182027.00,3729.86083,N,02327.46777,E,1,09,0.97,7.2,M,32.4,M,,*5E
$GPGLL,3729.86083,N,02327.46777,E,182027.00,A,A*6C
$GPRMC,182028.00,A,3729.86080,N,02327.46779,E,0.042,,280424,,,A*79
$GPGGA,182028.00,3729.86080,N,02327.46779,E,1,09,0.97,7.4,M,32.4,M,,*5A
$GPGLL,3729.86080,N,02327.46779,E,182028.00,A,A*6E
$GPRMC,182029.00,A,3729.86080,N,02327.46780,E,0.042,,280424,,,A*7E
$GPGGA,182029.00,3729.86080,N,02327.46780,E,1,09,0.97,7.7,M,32.4,M,,*5E
$GPGLL,3729.86080,N,02327.46780,E,182029.00,A,A*69
$GPRMC,182030.00,A,3729.86078,N,02327.46779,E,0.032,,280424,,,A*70
$GPGGA,182030.00,3729.86078,N,02327.46779,E,1,09,0.97,7.8,M,32.4,M,,*58
$GPGLL,3729.86078,N,02327.46779,E,182030.00,A,A*60
$GPRMC,182031.00,A,3729.86076,N,02327.46778,E,0.079,,280424,,,A*71
$GPGGA,182031.00,3729.86076,N,02327.46778,E,1,09,0.97,7.8,M,32.4,M,,*56
$GPGLL,3729.86076,N,02327.46778,E,182031.00,A,A*6E
$GPRMC,182032.00,A,3729.86072,N,02327.46779,E,0.046,,280424,,,A*7B
$GPGGA,182032.00,3729.86072,N,02327.46779,E,1,09,0.97,7.8,M,32.4,M,,*50
$GPGLL,3729.86072,N,02327.46779,E,182032.00,A,A*68
$GPRMC,182033.00,A,3729.86068,N,02327.46783,E,0.085,,280424,,,A*7B
$GPGGA,182033.00,3729.86068,N,02327.46783,E,1,09,0.97,7.9,M,32.4,M,,*5E
$GPGLL,3729.86068,N,02327.46783,E,182033.00,A,A*67
$GPRMC,182034.00,A,3729.86061,N,02327.46787,E,0.048,,280424,,,A*70
$GPGGA,182034.00,3729.86061,N,02327.46787,E,1,09,0.97,8.0,M,32.4,M,,*52
$GPGLL,3729.86061,N,02327.46787,E,182034.00,A,A*6D
$GPRMC,182035.00,A,3729.86054,N,02327.46788,E,0.011,,280424,,,A*74
$GPGGA,182035.00,3729.86054,N,02327.46788,E,1,09,0.97,8.1,M,32.4,M,,*5B
$GPGLL,3729.86054,N,02327.46788,E,182035.00,A,A*65
$GPRMC,182036.00,A,3729.86049,N,02327.46789,E,0.020,,280424,,,A*78
$GPGGA,182036.00,3729.86049,N,02327.46789,E,1,09,0.97,8.1,M,32.4,M,,*55
$GPGLL,3729.86049,N,02327.46789,E,182036.00,A,A*6B
$GPRMC,182037.00,A,3729.86041,N,02327.46791,E,0.032,,280424,,,A*7B
$GPGGA,182037.00,3729.86041,N,02327.46791,E,1,09,0.97,8.2,M,32.4,M,,*56
$GPGLL,3729.86041,N,02327.46791,E,182037.00,A,A*6B
$GPRMC,182038.00,A,3729.86036,N,02327.46793,E,0.078,,280424,,,A*78
$GPGGA,182038.00,3729.86036,N,02327.46793,E,1,09,0.97,8.1,M,32.4,M,,*58
$GPGLL,3729.86036,N,02327.46793,E,182038.00,A,A*66
$GPRMC,182039.00,A,3729.86025,N,02327.46794,E,0.080,,280424,,,A*7B
$GPGGA,182039.00,3729.86025,N,02327.46794,E,1,09,0.97,8.0,M,32.4,M,,*5D
$GPGLL,3729.86025,N,02327.46794,E,182039.00,A,A*62
$GPRMC,182040.00,A,3729.86017,N,02327.46794,E,0.015,,280424,,,A*78
$GPGGA,182040.00,3729.86017,N,02327.46794,E,1,09,0.97,8.0,M,32.4,M,,*52
$GPGLL,3729.86017,N,02327.46794,E,182040.00,A,A*6D
$GPRMC,182041.00,A,3729.86010,N,02327.46795,E,0.109,,280424,,,A*73
$GPGGA,182041.00,3729.86010,N,02327.46795,E,1,09,0.97,8.0,M,32.4,M,,*55
$GPGLL,3729.86010,N,02327.46795,E,182041.00,A,A*6A
$GPRMC,182042.00,A,3729.86006,N,02327.46794,E,0.047,,280424,,,A*7D
$GPGGA,182042.00,3729.86006,N,02327.46794,E,1,09,0.97,7.9,M,32.4,M,,*56
$GPGLL,3729.86006,N,02327.46794,E,182042.00,A,A*6F
$GPRMC,182043.00,A,3729.86013,N,02327.46793,E,0.073,,280424,,,A*78
$GPGGA,182043.00,3729.86013,N,02327.46793,E,1,09,0.97,8.1,M,32.4,M,,*53
$GPGLL,3729.86013,N,02327.46793,E,182043.00,A,A*6D
$GPRMC,182044.00,A,3729.86020,N,02327.46792,E,0.055,,280424,,,A*7A
$GPGGA,182044.00,3729.86020,N,02327.46792,E,1,09,0.97,8.2,M,32.4,M,,*56
$GPGLL,3729.86020,N,02327.46792,E,182044.00,A,A*6B
$GPRMC,182045.00,A,3729.86025,N,02327.46788,E,0.021,,280424,,,A*76
$GPGGA,182045.00,3729.86025,N,02327.46788,E,1,09,1.29,8.2,M,32.4,M,,*5D
$GPGLL,3729.86025,N,02327.46788,E,182045.00,A,A*64
$GPRMC,182046.00,A,3729.86027,N,02327.46792,E,0.054,,280424,,,A*7E
$GPGGA,182046.00,3729.86027,N,02327.46792,E,1,09,0.97,8.2,M,32.4,M,,*53
$GPGLL,3729.86027,N,02327.46792,E,182046.00,A,A*6E
$GPRMC,182047.00,A,3729.86028,N,02327.46793,E,0.045,,280424,,,A*71
$GPGGA,182047.00,3729.86028,N,02327.46793,E,1,09,0.97,8.1,M,32.4,M,,*5F
$GPGLL,3729.86028,N,02327.46793,E,182047.00,A,A*61
$GPRMC,182048.00,A,3729.86034,N,02327.46790,E,0.031,,280424,,,A*73
$GPGGA,182048.00,3729.86034,N,02327.46790,E,1,09,0.97,8.0,M,32.4,M,,*5F
$GPGLL,3729.86034,N,02327.46790,E,182048.00,A,A*60
$GPRMC,182049.00,A,3729.86043,N,02327.46788,E,0.017,,280424,,,A*7F
$GPGGA,182049.00,3729.86043,N,02327.46788,E,1,09,0.97,7.9,M,32.4,M,,*51
$GPGLL,3729.86043,N,02327.46788,E,182049.00,A,A*68
$GPRMC,182050.00,A,3729.86046,N,02327.46786,E,0.015,,280424,,,A*7E
$GPGGA,182050.00,3729.86046,N,02327.46786,E,1,09,0.97,7.8,M,32.4,M,,*53
$GPGLL,3729.86046,N,02327.46786,E,182050.00,A,A*6B
$GPRMC,182051.00,A,3729.86050,N,02327.46785,E,0.023,,280424,,,A*7E
$GPGGA,182051.00,3729.86050,N,02327.46785,E,1,09,0.97,7.7,M,32.4,M,,*59
$GPGLL,3729.86050,N,02327.46785,E,182051.00,A,A*6E
$GPRMC,182052.00,A,3729.86056,N,02327.46785,E,0.017,,280424,,,A*7C
$GPGGA,182052.00,3729.86056,N,02327.46785,E,1,09,0.97,7.7,M,32.4,M,,*5C
$GPGLL,3729.86056,N,02327.46785,E,182052.00,A,A*6B
$GPRMC,182053.00,A,3729.86057,N,02327.46787,E,0.078,,280424,,,A*77
$GPGGA,182053.00,3729.86057,N,02327.46787,E,1,09,0.97,7.8,M,32.4,M,,*51
$GPGLL,3729.86057,N,02327.46787,E,182053.00,A,A*69
$GPRMC,182054.00,A,3729.86057,N,02327.46787,E,0.019,,280424,,,A*77
$GPGGA,182054.00,3729.86057,N,02327.46787,E,1,09,0.97,7.6,M,32.4,M,,*58
$GPGLL,3729.86057,N,02327.46787,E,182054.00,A,A*6E
$GPRMC,182055.00,A,3729.86057,N,02327.46788,E,0.078,,280424,,,A*7E
$GPGGA,182055.00,3729.86057,N,02327.46788,E,1,09,0.97,7.5,M,32.4,M,,*55
$GPGLL,3729.86057,N,02327.46788,E,182055.00,A,A*60
$GPRMC,182056.00,A,3729.86052,N,02327.46788,E,0.042,,280424,,,A*71
$GPGGA,182056.00,3729.86052,N,02327.46788,E,1,09,0.97,7.4,M,32.4,M,,*52
$GPGLL,3729.86052,N,02327.46788,E,182056.00,A,A*66
$GPRMC,182057.00,A,3729.86049,N,02327.46796,E,0.092,,280424,,,A*78
$GPGGA,182057.00,3729.86049,N,02327.46796,E,1,09,0.97,7.4,M,32.4,M,,*56
$GPGLL,3729.86049,N,02327.46796,E,182057.00,A,A*62
$GPRMC,182058.00,A,3729.86048,N,02327.46799,E,0.023,,280424,,,A*73
$GPGGA,182058.00,3729.86048,N,02327.46799,E,1,09,0.97,7.3,M,32.4,M,,*50
$GPGLL,3729.86048,N,02327.46799,E,182058.00,A,A*63
$GPRMC,182059.00,A,3729.86050,N,02327.46797,E,0.024,,280424,,,A*72
$GPGGA,182059.00,3729.86050,N,02327.46797,E,1,09,0.97,7.2,M,32.4,M,,*57
$GPGLL,3729.86050,N,02327.46797,E,182059.00,A,A*65
$GPRMC,182100.00,A,3729.86062,N,02327.46799,E,0.118,,280424,,,A*7E
$GPGGA,182100.00,3729.86062,N,02327.46799,E,1,09,0.97,7.4,M,32.4,M,,*53
$GPGLL,3729.86062,N,02327.46799,E,182100.00,A,A*67
$GPRMC,182101.00,A,3729.86069,N,02327.46800,E,0.034,,280424,,,A*74
$GPGGA,182101.00,3729.86069,N,02327.46800,E,1,09,0.97,7.6,M,32.4,M,,*54
$GPGLL,3729.86069,N,02327.46800,E,182101.00,A,A*62
$GPRMC,182102.00,A,3729.86074,N,02327.46791,E,0.013,,280424,,,A*79
$GPGGA,182102.00,3729.86074,N,02327.46791,E,1,09,1.29,7.3,M,32.4,M,,*5D
$GPGLL,3729.86074,N,02327.46791,E,182102.00,A,A*6A
$GPRMC,182103.00,A,3729.86081,N,02327.46796,E,0.026,,280424,,,A*73
$GPGGA,182103.00,3729.86081,N,02327.46796,E,1,09,0.97,7.5,M,32.4,M,,*53
$GPGLL,3729.86081,N,02327.46796,E,182103.00,A,A*66
$GPRMC,182104.00,A,3729.86091,N,02327.46799,E,0.066,,280424,,,A*7E
$GPGGA,182104.00,3729.86091,N,02327.46799,E,1,09,0.97,7.7,M,32.4,M,,*58
$GPGLL,3729.86091,N,02327.46799,E,182104.00,A,A*6F
$GPRMC,182105.00,A,3729.86095,N,02327.46801,E,0.038,,280424,,,A*7E
$GPGGA,182105.00,3729.86095,N,02327.46801,E,1,09,0.97,7.7,M,32.4,M,,*53
$GPGLL,3729.86095,N,02327.46801,E,182105.00,A,A*64
$GPRMC,182106.00,A,3729.86100,N,02327.46802,E,0.077,,280424,,,A*78
$GPGGA,182106.00,3729.86100,N,02327.46802,E,1,09,0.97,7.8,M,32.4,M,,*51
$GPGLL,3729.86100,N,02327.46802,E,182106.00,A,A*69
$GPRMC,182107.00,A,3729.86105,N,02327.46800,E,0.067,,280424,,,A*7F
$GPGGA,182107.00,3729.86105,N,02327.46800,E,1,08,1.06,7.8,M,32.4,M,,*5F
$GPGLL,3729.86105,N,02327.46800,E,182107.00,A,A*6F
$GPRMC,182108.00,A,3729.86109,N,02327.46798,E,0.023,,280424,,,A*72
$GPGGA,182108.00,3729.86109,N,02327.46798,E,1,09,0.97,8.0,M,32.4,M,,*5D
$GPGLL,3729.86109,N,02327.46798,E,182108.00,A,A*62
$GPRMC,182109.00,A,3729.86118,N,02327.46793,E,0.092,,280424,,,A*72
$GPGGA,182109.00,3729.86118,N,02327.46793,E,1,09,0.97,8.1,M,32.4,M,,*56
$GPGLL,3729.86118,N,02327.46793,E,182109.00,A,A*68
$GPRMC,182110.00,A,3729.86127,N,02327.46790,E,0.086,,280424,,,A*70
$GPGGA,182110.00,3729.86127,N,02327.46790,E,1,09,0.97,8.3,M,32.4,M,,*53
$GPGLL,3729.86127,N,02327.46790,E,182110.00,A,A*6F
$GPRMC,182111.00,A,3729.86134,N,02327.46788,E,0.060,,280424,,,A*72
$GPGGA,182111.00,3729.86134,N,02327.46788,E,1,09,0.97,8.4,M,32.4,M,,*5E
$GPGLL,3729.86134,N,02327.46788,E,182111.00,A,A*65
$GPRMC,182112.00,A,3729.86138,N,02327.46789,E,0.023,,280424,,,A*7B
$GPGGA,182112.00,3729.86138,N,02327.46789,E,1,09,0.97,8.6,M,32.4,M,,*52
$GPGLL,3729.86138,N,02327.46789,E,182112.00,A,A*6B
$GPRMC,182113.00,A,3729.86143,N,02327.46792,E,0.021,,280424,,,A*7E
$GPGGA,182113.00,3729.86143,N,02327.46792,E,1,09,1.06,8.9,M,32.4,M,,*53
$GPGLL,3729.86143,N,02327.46792,E,182113.00,A,A*6C
$GPRMC,182114.00,A,3729.86151,N,02327.46795,E,0.019,,280424,,,A*76
$GPGGA,182114.00,3729.86151,N,02327.46795,E,1,09,0.97,9.2,M,32.4,M,,*53
$GPGLL,3729.86151,N,02327.46795,E,182114.00,A,A*6F
$GPRMC,182115.00,A,3729.86153,N,02327.46795,E,0.035,,280424,,,A*7B
$GPGGA,182115.00,3729.86153,N,02327.46795,E,1,09,0.97,9.3,M,32.4,M,,*51
$GPGLL,3729.86153,N,02327.46795,E,182115.00,A,A*6C
$GPRMC,182116.00,A,3729.86158,N,02327.46794,E,0.046,,280424,,,A*76
$GPGGA,182116.00,3729.86158,N,02327.46794,E,1,09,0.97,9.4,M,32.4,M,,*5F
$GPGLL,3729.86158,N,02327.46794,E,182116.00,A,A*65
$GPRMC,182117.00,A,3729.86163,N,02327.46792,E,0.020,,280424,,,A*79
$GPGGA,182117.00,3729.86163,N,02327.46792,E,1,09,0.97,9.5,M,32.4,M,,*51
$GPGLL,3729.86163,N,02327.46792,E,182117.00,A,A*6A
$GPRMC,182118.00,A,3729.86173,N,02327.46790,E,0.032,,280424,,,A*76
$GPGGA,182118.00,3729.86173,N,02327.46790,E,1,09,0.97,9.6,M,32.4,M,,*5E
$GPGLL,3729.86173,N,02327.46790,E,182118.00,A,A*66
$GPRMC,182119.00,A,3729.86181,N,02327.46790,E,0.047,,280424,,,A*78
$GPGGA,182119.00,3729.86181,N,02327.46790,E,1,09,0.97,9.8,M,32.4,M,,*5C
$GPGLL,3729.86181,N,02327.46790,E,182119.00,A,A*6A
$GPRMC,182120.00,A,3729.86186,N,02327.46790,E,0.023,,280424,,,A*77
$GPGGA,182120.00,3729.86186,N,02327.46790,E,1,09,0.97,9.9,M,32.4,M,,*50
$GPGLL,3729.86186,N,02327.46790,E,182120.00,A,A*67
$GPRMC,182121.00,A,3729.86195,N,02327.46791,E,0.027,,280424,,,A*71
$GPGGA,182121.00,3729.86195,N,02327.46791,E,1,09,0.97,10.1,M,32.4,M,,*62
$GPGLL,3729.86195,N,02327.46791,E,182121.00,A,A*65
$GPRMC,182122.00,A,3729.86203,N,02327.46793,E,0.085,,280424,,,A*74
$GPGGA,182122.00,3729.86203,N,02327.46793,E,1,09,0.97,10.3,M,32.4,M,,*6D
$GPGLL,3729.86203,N,02327.46793,E,182122.00,A,A*68
$GPRMC,182123.00,A,3729.86209,N,02327.46794,E,0.042,,280424,,,A*73
$GPGGA,182123.00,3729.86209,N,02327.46794,E,1,09,0.97,10.5,M,32.4,M,,*67
$GPGLL,3729.86209,N,02327.46794,E,182123.00,A,A*64
$GPRMC,182124.00,A,3729.86212,N,02327.46791,E,0.046,,280424,,,A*7F
$GPGGA,182124.00,3729.86212,N,02327.46791,E,1,09,0.97,10.5,M,32.4,M,,*6F
$GPGLL,3729.86212,N,02327.46791,E,182124.00,A,A*6C
$GPRMC,182125.00,A,3729.86212,N,02327.46790,E,0.032,,280424,,,A*7C
$GPGGA,182125.00,3729.86212,N,02327.46790,E,1,09,0.97,10.4,M,32.4,M,,*6E
$GPGLL,3729.86212,N,02327.46790,E,182125.00,A,A*6C
$GPRMC,182126.00,A,3729.86219,N,02327.46784,E,0.069,,280424,,,A*7F
$GPGGA,182126.00,3729.86219,N,02327.46784,E,1,09,1.08,10.4,M,32.4,M,,*64
$GPGLL,3729.86219,N,02327.46784,E,182126.00,A,A*61
$GPRMC,182127.00,A,3729.86220,N,02327.46778,E,0.048,,280424,,,A*74
$GPGGA,182127.00,3729.86220,N,02327.46778,E,1,08,1.08,10.4,M,32.4,M,,*6D
$GPGLL,3729.86220,N,02327.46778,E,182127.00,A,A*69
$GPRMC,182128.00,A,3729.86222,N,02327.46771,E,0.051,,280424,,,A*78
$GPGGA,182128.00,3729.86222,N,02327.46771,E,1,08,1.08,10.3,M,32.4,M,,*6E
$GPGLL,3729.86222,N,02327.46771,E,182128.00,A,A*6D
$GPRMC,182129.00,A,3729.86230,N,02327.46766,E,0.044,,280424,,,A*78
$GPGGA,182129.00,3729.86230,N,02327.46766,E,1,08,1.08,10.4,M,32.4,M,,*6D
$GPGLL,3729.86230,N,02327.46766,E,182129.00,A,A*69
$GPRMC,182130.00,A,3729.86231,N,02327.46765,E,0.047,,280424,,,A*71
$GPGGA,182130.00,3729.86231,N,02327.46765,E,1,09,0.97,10.5,M,32.4,M,,*60
$GPGLL,3729.86231,N,02327.46765,E,182130.00,A,A*63
$GPRMC,182131.00,A,3729.86225,N,02327.46765,E,0.023,,280424,,,A*77
$GPGGA,182131.00,3729.86225,N,02327.46765,E,1,09,0.97,10.5,M,32.4,M,,*64
$GPGLL,3729.86225,N,02327.46765,E,182131.00,A,A*67
$GPRMC,182132.00,A,3729.86221,N,02327.46769,E,0.027,,280424,,,A*78
$GPGGA,182132.00,3729.86221,N,02327.46769,E,1,09,0.97,10.6,M,32.4,M,,*6C
$GPGLL,3729.86221,N,02327.46769,E,182132.00,A,A*6C
$GPRMC,182133.00,A,3729.86217,N,02327.46770,E,0.028,,280424,,,A*7B
$GPGGA,182133.00,3729.86217,N,02327.46770,E,1,09,0.97,10.5,M,32.4,M,,*63
$GPGLL,3729.86217,N,02327.46770,E,182133.00,A,A*60
$GPRMC,182134.00,A,3729.86210,N,02327.46775,E,0.037,,280424,,,A*70
$GPGGA,182134.00,3729.86210,N,02327.46775,E,1,09,0.97,10.6,M,32.4,M,,*65
$GPGLL,3729.86210,N,02327.46775,E,182134.00,A,A*65
$GPRMC,182135.00,A,3729.86200,N,02327.46774,E,0.035,,280424,,,A*73
$GPGGA,182135.00,3729.86200,N,02327.46774,E,1,09,0.97,10.3,M,32.4,M,,*61
$GPGLL,3729.86200,N,02327.46774,E,182135.00,A,A*64
$GPRMC,182136.00,A,3729.86191,N,02327.46776,E,0.105,,280424,,,A*7B
$GPGGA,182136.00,3729.86191,N,02327.46776,E,1,09,0.97,10.0,M,32.4,M,,*68
$GPGLL,3729.86191,N,02327.46776,E,182136.00,A,A*6E
$GPRMC,182137.00,A,3729.86184,N,02327.46775,E,0.076,,280424,,,A*78
$GPGGA,182137.00,3729.86184,N,02327.46775,E,1,09,0.97,9.7,M,32.4,M,,*51
$GPGLL,3729.86184,N,02327.46775,E,182137.00,A,A*68
$GPRMC,182138.00,A,3729.86177,N,02327.46782,E,0.071,,280424,,,A*74
$GPGGA,182138.00,3729.86177,N,02327.46782,E,1,09,0.97,9.7,M,32.4,M,,*5A
$GPGLL,3729.86177,N,02327.46782,E,182138.00,A,A*63
$GPRMC,182139.00,A,3729.86170,N,02327.46777,E,0.070,,280424,,,A*79
$GPGGA,182139.00,3729.86170,N,02327.46777,E,1,09,0.97,9.5,M,32.4,M,,*54
$GPGLL,3729.86170,N,02327.46777,E,182139.00,A,A*6F
$GPRMC,182140.00,A,3729.86165,N,02327.46776,E,0.048,,280424,,,A*79
$GPGGA,182140.00,3729.86165,N,02327.46776,E,1,09,0.97,9.3,M,32.4,M,,*59
$GPGLL,3729.86165,N,02327.46776,E,182140.00,A,A*64
$GPRMC,182141.00,A,3729.86159,N,02327.46774,E,0.090,,280424,,,A*70
$GPGGA,182141.00,3729.86159,N,02327.46774,E,1,09,0.97,9.2,M,32.4,M,,*54
$GPGLL,3729.86159,N,02327.46774,E,182141.00,A,A*68
$GPRMC,182142.00,A,3729.86156,N,02327.46769,E,0.003,,280424,,,A*7A
$GPGGA,182142.00,3729.86156,N,02327.46769,E,1,09,0.97,8.8,M,32.4,M,,*5F
$GPGLL,3729.86156,N,02327.46769,E,182142.00,A,A*68
$GPRMC,182143.00,A,3729.86149,N,02327.46760,E,0.084,,280424,,,A*73
$GPGGA,182143.00,3729.86149,N,02327.46760,E,1,09,0.97,8.5,M,32.4,M,,*54
$GPGLL,3729.86149,N,02327.46760,E,182143.00,A,A*6E
$GPRMC,182144.00,A,3729.86148,N,02327.46757,E,0.050,,280424,,,A*78
$GPGGA,182144.00,3729.86148,N,02327.46757,E,1,09,0.97,8.3,M,32.4,M,,*50
$GPGLL,3729.86148,N,02327.46757,E,182144.00,A,A*6C
$GPRMC,182145.00,A,3729.86147,N,02327.46755,E,0.117,,280424,,,A*76
$GPGGA,182145.00,3729.86147,N,02327.46755,E,1,09,0.97,8.3,M,32.4,M,,*5C
$GPGLL,3729.86147,N,02327.46755,E,182145.00,A,A*60
$GPRMC,182146.00,A,3729.86146,N,02327.46749,E,0.046,,280424,,,A*7C
$GPGGA,182146.00,3729.86146,N,02327.46749,E,1,09,0.97,8.1,M,32.4,M,,*51
$GPGLL,3729.86146,N,02327.46749,E,182146.00,A,A*6F
$GPRMC,182147.00,A,3729.86149,N,02327.46742,E,0.063,,280424,,,A*7E
$GPGGA,182147.00,3729.86149,N,02327.46742,E,1,09,0.97,7.8,M,32.4,M,,*52
$GPGLL,3729.86149,N,02327.46742,E,182147.00,A,A*6A
$GPRMC,182148.00,A,3729.86148,N,02327.46739,E,0.031,,280424,,,A*7B
$GPGGA,182148.00,3729.86148,N,02327.46739,E,1,09,0.97,7.7,M,32.4,M,,*5F
$GPGLL,3729.86148,N,02327.46739,E,182148.00,A,A*68
$GPRMC,182149.00,A,3729.86150,N,02327.46738,E,0.053,,280424,,,A*76
$GPGGA,182149.00,3729.86150,N,02327.46738,E,1,09,0.97,7.6,M,32.4,M,,*57
$GPGLL,3729.86150,N,02327.46738,E,182149.00,A,A*61
$GPRMC,182150.00,A,3729.86145,N,02327.46739,E,0.078,,280424,,,A*72
$GPGGA,182150.00,3729.86145,N,02327.46739,E,1,09,0.97,7.5,M,32.4,M,,*59
$GPGLL,3729.86145,N,02327.46739,E,182150.00,A,A*6C
$GPRMC,182151.00,A,3729.86144,N,02327.46734,E,0.125,,280424,,,A*76
$GPGGA,182151.00,3729.86144,N,02327.46734,E,1,09,0.97,7.2,M,32.4,M,,*53
$GPGLL,3729.86144,N,02327.46734,E,182151.00,A,A*61
$GPRMC,182152.00,A,3729.86141,N,02327.46733,E,0.134,,280424,,,A*77
$GPGGA,182152.00,3729.86141,N,02327.46733,E,1,09,0.97,7.1,M,32.4,M,,*51
$GPGLL,3729.86141,N,02327.46733,E,182152.00,A,A*60
$GPRMC,182153.00,A,3729.86136,N,02327.46735,E,0.014,,280424,,,A*73
$GPGGA,182153.00,3729.86136,N,02327.46735,E,1,09,0.97,7.2,M,32.4,M,,*55
$GPGLL,3729.86136,N,02327.46735,E,182153.00,A,A*67
$GPRMC,182154.00,A,3729.86133,N,02327.46739,E,0.035,,280424,,,A*7E
$GPGGA,182154.00,3729.86133,N,02327.46739,E,1,09,0.97,7.3,M,32.4,M,,*5A
$GPGLL,3729.86133,N,02327.46739,E,182154.00,A,A*69
$GPRMC,182155.00,A,3729.86132,N,02327.46741,E,0.023,,280424,,,A*76
$GPGGA,182155.00,3729.86132,N,02327.46741,E,1,09,0.97,7.3,M,32.4,M,,*55
$GPGLL,3729.86132,N,02327.46741,E,182155.00,A,A*66
$GPRMC,182156.00,A,3729.86139,N,02327.46741,E,0.109,,280424,,,A*77
$GPGGA,182156.00,3729.86139,N,02327.46741,E,1,09,0.97,7.1,M,32.4,M,,*5F
$GPGLL,3729.86139,N,02327.46741,E,182156.00,A,A*6E
$GPRMC,182157.00,A,3729.86145,N,02327.46744,E,0.024,,280424,,,A*76
$GPGGA,182157.00,3729.86145,N,02327.46744,E,1,09,0.97,7.3,M,32.4,M,,*52
$GPGLL,3729.86145,N,02327.46744,E,182157.00,A,A*61
$GPRMC,182158.00,A,3729.86152,N,02327.46738,E,0.069,,280424,,,A*7D
$GPGGA,182158.00,3729.86152,N,02327.46738,E,1,09,0.97,7.3,M,32.4,M,,*50
$GPGLL,3729.86152,N,02327.46738,E,182158.00,A,A*63
$GPRMC,182159.00,A,3729.86155,N,02327.46730,E,0.078,,280424,,,A*73
$GPGGA,182159.00,3729.86155,N,02327.46730,E,1,09,0.97,7.0,M,32.4,M,,*5D
$GPGLL,3729.86155,N,02327.46730,E,182159.00,A,A*6D
$GPRMC,182200.00,A,3729.86155,N,02327.46721,E,0.056,,280424,,,A*70
$GPGGA,182200.00,3729.86155,N,02327.46721,E,1,09,0.97,6.9,M,32.4,M,,*5A
$GPGLL,3729.86155,N,02327.46721,E,182200.00,A,A*62
$GPRMC,182201.00,A,3729.86152,N,02327.46718,E,0.032,,280424,,,A*7E
$GPGGA,182201.00,3729.86152,N,02327.46718,E,1,09,0.97,6.8,M,32.4,M,,*57
$GPGLL,3729.86152,N,02327.46718,E,182201.00,A,A*6E
$GPRMC,182202.00,A,3729.86147,N,02327.46718,E,0.063,,280424,,,A*7D
$GPGGA,182202.00,3729.86147,N,02327.46718,E,1,09,0.97,6.9,M,32.4,M,,*51
$GPGLL,3729.86147,N,02327.46718,E,182202.00,A,A*69
$GPRMC,182203.00,A,3729.86147,N,02327.46721,E,0.014,,280424,,,A*76
$GPGGA,182203.00,3729.86147,N,02327.46721,E,1,09,0.97,6.9,M,32.4,M,,*5A
$GPGLL,3729.86147,N,02327.46721,E,182203.00,A,A*62
$GPRMC,182204.00,A,3729.86142,N,02327.46724,E,0.132,,280424,,,A*74
$GPGGA,182204.00,3729.86142,N,02327.46724,E,1,09,1.28,6.9,M,32.4,M,,*58
$GPGLL,3729.86142,N,02327.46724,E,182204.00,A,A*65
$GPRMC,182205.00,A,3729.86140,N,02327.46724,E,0.085,,280424,,,A*7A
$GPGGA,182205.00,3729.86140,N,02327.46724,E,1,09,1.28,7.0,M,32.4,M,,*53
$GPGLL,3729.86140,N,02327.46724,E,182205.00,A,A*66
$GPRMC,182206.00,A,3729.86138,N,02327.46727,E,0.048,,280424,,,A*74
$GPGGA,182206.00,3729.86138,N,02327.46727,E,1,09,1.28,6.9,M,32.4,M,,*54
$GPGLL,3729.86138,N,02327.46727,E,182206.00,A,A*69
$GPRMC,182207.00,A,3729.86137,N,02327.46730,E,0.022,,280424,,,A*70
$GPGGA,182207.00,3729.86137,N,02327.46730,E,1,09,0.97,7.0,M,32.4,M,,*51
$GPGLL,3729.86137,N,02327.46730,E,182207.00,A,A*61
$GPRMC,182208.00,A,3729.86134,N,02327.46733,E,0.052,,280424,,,A*78
$GPGGA,182208.00,3729.86134,N,02327.46733,E,1,09,0.97,7.0,M,32.4,M,,*5E
$GPGLL,3729.86134,N,02327.46733,E,182208.00,A,A*6E
$GPRMC,182209.00,A,3729.86132,N,02327.46737,E,0.010,,280424,,,A*7D
$GPGGA,182209.00,3729.86132,N,02327.46737,E,1,09,0.97,7.2,M,32.4,M,,*5F
$GPGLL,3729.86132,N,02327.46737,E,182209.00,A,A*6D
$GPRMC,182210.00,A,3729.86127,N,02327.46739,E,0.076,,280424,,,A*7F
$GPGGA,182210.00,3729.86127,N,02327.46739,E,1,09,0.97,7.1,M,32.4,M,,*5E
$GPGLL,3729.86127,N,02327.46739,E,182210.00,A,A*6F
$GPRMC,182211.00,A,3729.86124,N,02327.46740,E,0.016,,280424,,,A*75
$GPGGA,182211.00,3729.86124,N,02327.46740,E,1,09,0.97,7.1,M,32.4,M,,*52
$GPGLL,3729.86124,N,02327.46740,E,182211.00,A,A*63
$GPRMC,182212.00,A,3729.86120,N,02327.46743,E,0.023,,280424,,,A*77
$GPGGA,182212.00,3729.86120,N,02327.46743,E,1,09,0.97,7.2,M,32.4,M,,*55
$GPGLL,3729.86120,N,02327.46743,E,182212.00,A,A*67
$GPRMC,182213.00,A,3729.86116,N,02327.46746,E,0.013,,280424,,,A*75
$GPGGA,182213.00,3729.86116,N,02327.46746,E,1,09,0.97,7.2,M,32.4,M,,*54
$GPGLL,3729.86116,N,02327.46746,E,182213.00,A,A*66
$GPRMC,182214.00,A,3729.86111,N,02327.46748,E,0.056,,280424,,,A*7A
$GPGGA,182214.00,3729.86111,N,02327.46748,E,1,09,0.97,7.3,M,32.4,M,,*5B
$GPGLL,3729.86111,N,02327.46748,E,182214.00,A,A*68
$GPRMC,182215.00,A,3729.86108,N,02327.46751,E,0.049,,280424,,,A*75
$GPGGA,182215.00,3729.86108,N,02327.46751,E,1,09,0.97,7.3,M,32.4,M,,*5A
$GPGLL,3729.86108,N,02327.46751,E,182215.00,A,A*69
$GPRMC,182216.00,A,3729.86106,N,02327.46753,E,0.033,,280424,,,A*77
$GPGGA,182216.00,3729.86106,N,02327.46753,E,1,09,0.97,7.3,M,32.4,M,,*55
$GPGLL,3729.86106,N,02327.46753,E,182216.00,A,A*66
$GPRMC,182217.00,A,3729.86103,N,02327.46755,E,0.060,,280424,,,A*73
$GPGGA,182217.00,3729.86103,N,02327.46755,E,1,09,0.97,7.3,M,32.4,M,,*57
$GPGLL,3729.86103,N,02327.46755,E,182217.00,A,A*64
$GPRMC,182218.00,A,3729.86105,N,02327.46759,E,0.054,,280424,,,A*71
$GPGGA,182218.00,3729.86105,N,02327.46759,E,1,08,1.07,7.4,M,32.4,M,,*5C
$GPGLL,3729.86105,N,02327.46759,E,182218.00,A,A*61
$GPRMC,182219.00,A,3729.86104,N,02327.46762,E,0.047,,280424,,,A*7B
$GPGGA,182219.00,3729.86104,N,02327.46762,E,1,09,1.07,7.4,M,32.4,M,,*55
$GPGLL,3729.86104,N,02327.46762,E,182219.00,A,A*69
$GPRMC,182220.00,A,3729.86106,N,02327.46769,E,0.095,,280424,,,A*77
$GPGGA,182220.00,3729.86106,N,02327.46769,E,1,09,0.97,7.6,M,32.4,M,,*5C
$GPGLL,3729.86106,N,02327.46769,E,182220.00,A,A*6A
$GPRMC,182221.00,A,3729.86107,N,02327.46773,E,0.009,,280424,,,A*79
$GPGGA,182221.00,3729.86107,N,02327.46773,E,1,09,0.97,7.8,M,32.4,M,,*59
$GPGLL,3729.86107,N,02327.46773,E,182221.00,A,A*61
$GPRMC,182222.00,A,3729.86106,N,02327.46779,E,0.091,,280424,,,A*70
$GPGGA,182222.00,3729.86106,N,02327.46779,E,1,09,0.97,7.9,M,32.4,M,,*50
$GPGLL,3729.86106,N,02327.46779,E,182222.00,A,A*69
$GPRMC,182223.00,A,3729.86107,N,02327.46784,E,0.042,,280424,,,A*7C
$GPGGA,182223.00,3729.86107,N,02327.46784,E,1,09,0.97,8.1,M,32.4,M,,*55
$GPGLL,3729.86107,N,02327.46784,E,182223.00,A,A*6B
$GPRMC,182224.00,A,3729.86113,N,02327.46785,E,0.035,,280424,,,A*7F
$GPGGA,182224.00,3729.86113,N,02327.46785,E,1,09,0.97,8.3,M,32.4,M,,*54
$GPGLL,3729.86113,N,02327.46785,E,182224.00,A,A*68
$GPRMC,182225.00,A,3729.86120,N,02327.46782,E,0.045,,280424,,,A*7E
$GPGGA,182225.00,3729.86120,N,02327.46782,E,1,09,0.97,8.4,M,32.4,M,,*55
$GPGLL,3729.86120,N,02327.46782,E,182225.00,A,A*6E
$GPRMC,182226.00,A,3729.86127,N,02327.46780,E,0.033,,280424,,,A*79
$GPGGA,182226.00,3729.86127,N,02327.46780,E,1,09,0.97,8.5,M,32.4,M,,*52
$GPGLL,3729.86127,N,02327.46780,E,182226.00,A,A*68
$GPRMC,182227.00,A,3729.86131,N,02327.46775,E,0.059,,280424,,,A*79
$GPGGA,182227.00,3729.86131,N,02327.46775,E,1,09,0.97,8.5,M,32.4,M,,*5E
$GPGLL,3729.86131,N,02327.46775,E,182227.00,A,A*64
$GPRMC,182228.00,A,3729.86136,N,02327.46770,E,0.163,,280424,,,A*7C
$GPGGA,182228.00,3729.86136,N,02327.46770,E,1,09,0.97,8.8,M,32.4,M,,*5E
$GPGLL,3729.86136,N,02327.46770,E,182228.00,A,A*69
$GPRMC,182229.00,A,3729.86140,N,02327.46766,E,0.093,,280424,,,A*75
$GPGGA,182229.00,3729.86140,N,02327.46766,E,1,09,0.97,8.9,M,32.4,M,,*58
$GPGLL,3729.86140,N,02327.46766,E,182229.00,A,A*6E
$GPRMC,182230.00,A,3729.86147,N,02327.46759,E,0.040,,280424,,,A*78
$GPGGA,182230.00,3729.86147,N,02327.46759,E,1,09,0.97,8.9,M,32.4,M,,*5B
$GPGLL,3729.86147,N,02327.46759,E,182230.00,A,A*6D
$GPRMC,182231.00,A,3729.86149,N,02327.46751,E,0.024,,280424,,,A*7D
$GPGGA,182231.00,3729.86149,N,02327.46751,E,1,09,0.97,8.9,M,32.4,M,,*5C
$GPGLL,3729.86149,N,02327.46751,E,182231.00,A,A*6A
$GPRMC,182232.00,A,3729.86156,N,02327.46743,E,0.106,,280424,,,A*72
$GPGGA,182232.00,3729.86156,N,02327.46743,E,1,09,0.97,8.9,M,32.4,M,,*52
$GPGLL,3729.86156,N,02327.46743,E,182232.00,A,A*64
$GPRMC,182233.00,A,3729.86162,N,02327.46742,E,0.048,,280424,,,A*7E
$GPGGA,182233.00,3729.86162,N,02327.46742,E,1,09,1.12,9.2,M,32.4,M,,*53
$GPGLL,3729.86162,N,02327.46742,E,182233.00,A,A*63
$GPRMC,182234.00,A,3729.86167,N,02327.46740,E,0.048,,280424,,,A*7E
$GPGGA,182234.00,3729.86167,N,02327.46740,E,1,08,1.27,9.3,M,32.4,M,,*55
$GPGLL,3729.86167,N,02327.46740,E,182234.00,A,A*63
$GPRMC,182235.00,A,3729.86173,N,02327.46740,E,0.060,,280424,,,A*70
$GPGGA,182235.00,3729.86173,N,02327.46740,E,1,08,1.27,9.5,M,32.4,M,,*57
$GPGLL,3729.86173,N,02327.46740,E,182235.00,A,A*67
$GPRMC,182236.00,A,3729.86165,N,02327.46738,E,0.069,,280424,,,A*72
$GPGGA,182236.00,3729.86165,N,02327.46738,E,1,08,1.27,9.5,M,32.4,M,,*5C
$GPGLL,3729.86165,N,02327.46738,E,182236.00,A,A*6C
$GPRMC,182237.00,A,3729.86166,N,02327.46735,E,0.033,,280424,,,A*72
$GPGGA,182237.00,3729.86166,N,02327.46735,E,1,08,1.27,9.4,M,32.4,M,,*52
$GPGLL,3729.86166,N,02327.46735,E,182237.00,A,A*63
$GPRMC,182238.00,A,3729.86163,N,02327.46738,E,0.017,,280424,,,A*73
$GPGGA,182238.00,3729.86163,N,02327.46738,E,1,08,1.27,9.4,M,32.4,M,,*55
$GPGLL,3729.86163,N,02327.46738,E,182238.00,A,A*64
$GPRMC,182239.00,A,3729.86161,N,02327.46735,E,0.104,,280424,,,A*7E
$GPGGA,182239.00,3729.86161,N,02327.46735,E,1,08,1.27,9.3,M,32.4,M,,*5C
$GPGLL,3729.86161,N,02327.46735,E,182239.00,A,A*6A
$GPRMC,182240.00,A,3729.86165,N,02327.46733,E,0.052,,280424,,,A*70
$GPGGA,182240.00,3729.86165,N,02327.46733,E,1,09,1.27,9.2,M,32.4,M,,*50
$GPGLL,3729.86165,N,02327.46733,E,182240.00,A,A*66
$GPRMC,182241.00,A,3729.86169,N,02327.46731,E,0.022,,280424,,,A*78
$GPGGA,182241.00,3729.86169,N,02327.46731,E,1,09,1.27,9.0,M,32.4,M,,*5D
$GPGLL,3729.86169,N,02327.46731,E,182241.00,A,A*69
$GPRMC,182242.00,A,3729.86175,N,02327.46734,E,0.043,,280424,,,A*74
$GPGGA,182242.00,3729.86175,N,02327.46734,E,1,09,1.27,9.0,M,32.4,M,,*56
$GPGLL,3729.86175,N,02327.46734,E,182242.00,A,A*62
$GPRMC,182243.00,A,3729.86175,N,02327.46735,E,0.024,,280424,,,A*75
$GPGGA,182243.00,3729.86175,N,02327.46735,E,1,09,0.97,9.2,M,32.4,M,,*5E
$GPGLL,3729.86175,N,02327.46735,E,182243.00,A,A*62
$GPRMC,182244.00,A,3729.86175,N,02327.46735,E,0.021,,280424,,,A*77
$GPGGA,182244.00,3729.86175,N,02327.46735,E,1,09,0.97,9.4,M,32.4,M,,*5F
$GPGLL,3729.86175,N,02327.46735,E,182244.00,A,A*65
$GPRMC,182245.00,A,3729.86172,N,02327.46736,E,0.009,,280424,,,A*78
$GPGGA,182245.00,3729.86172,N,02327.46736,E,1,09,0.97,9.5,M,32.4,M,,*5B
$GPGLL,3729.86172,N,02327.46736,E,182245.00,A,A*60
$GPRMC,182246.00,A,3729.86172,N,02327.46735,E,0.115,,280424,,,A*74
$GPGGA,182246.00,3729.86172,N,02327.46735,E,1,09,0.97,9.4,M,32.4,M,,*5A
$GPGLL,3729.86172,N,02327.46735,E,182246.00,A,A*60
$GPRMC,182247.00,A,3729.86170,N,02327.46733,E,0.049,,280424,,,A*79
$GPGGA,182247.00,3729.86170,N,02327.46733,E,1,09,0.97,9.4,M,32.4,M,,*5F
$GPGLL,3729.86170,N,02327.46733,E,182247.00,A,A*65
$GPRMC,182248.00,A,3729.86167,N,02327.46734,E,0.024,,280424,,,A*7C
$GPGGA,182248.00,3729.86167,N,02327.46734,E,1,09,0.97,9.4,M,32.4,M,,*51
$GPGLL,3729.86167,N,02327.46734,E,182248.00,A,A*6B
$GPRMC,182249.00,A,3729.86164,N,02327.46734,E,0.108,,280424,,,A*71
$GPGGA,182249.00,3729.86164,N,02327.46734,E,1,09,1.27,9.5,M,32.4,M,,*58
$GPGLL,3729.86164,N,02327.46734,E,182249.00,A,A*69
$GPRMC,182250.00,A,3729.86161,N,02327.46734,E,0.084,,280424,,,A*79
$GPGGA,182250.00,3729.86161,N,02327.46734,E,1,09,0.97,9.5,M,32.4,M,,*5F
$GPGLL,3729.86161,N,02327.46734,E,182250.00,A,A*64
$GPRMC,182251.00,A,3729.86158,N,02327.46734,E,0.032,,280424,,,A*7F
$GPGGA,182251.00,3729.86158,N,02327.46734,E,1,09,0.97,9.4,M,32.4,M,,*55
$GPGLL,3729.86158,N,02327.46734,E,182251.00,A,A*6F
$GPRMC,182252.00,A,3729.86160,N,02327.46731,E,0.064,,280424,,,A*71
$GPGGA,182252.00,3729.86160,N,02327.46731,E,1,09,1.27,9.2,M,32.4,M,,*54
$GPGLL,3729.86160,N,02327.46731,E,182252.00,A,A*62
$GPRMC,182253.00,A,3729.86160,N,02327.46731,E,0.026,,280424,,,A*76
$GPGGA,182253.00,3729.86160,N,02327.46731,E,1,09,0.97,9.1,M,32.4,M,,*5C
$GPGLL,3729.86160,N,02327.46731,E,182253.00,A,A*63
$GPRMC,182254.00,A,3729.86159,N,02327.46734,E,0.025,,280424,,,A*7D
$GPGGA,182254.00,3729.86159,N,02327.46734,E,1,09,0.97,9.2,M,32.4,M,,*57
$GPGLL,3729.86159,N,02327.46734,E,182254.00,A,A*6B
$GPRMC,182255.00,A,3729.86155,N,02327.46737,E,0.012,,280424,,,A*77
$GPGGA,182255.00,3729.86155,N,02327.46737,E,1,09,0.97,9.2,M,32.4,M,,*59
$GPGLL,3729.86155,N,02327.46737,E,182255.00,A,A*65
$GPRMC,182256.00,A,3729.86154,N,02327.46738,E,0.034,,280424,,,A*7E
$GPGGA,182256.00,3729.86154,N,02327.46738,E,1,08,1.27,9.1,M,32.4,M,,*5C
$GPGLL,3729.86154,N,02327.46738,E,182256.00,A,A*68
$GPRMC,182257.00,A,3729.86152,N,02327.46739,E,0.016,,280424,,,A*78
$GPGGA,182257.00,3729.86152,N,02327.46739,E,1,08,1.27,9.0,M,32.4,M,,*5B
$GPGLL,3729.86152,N,02327.46739,E,182257.00,A,A*6E
$GPRMC,182258.00,A,3729.86146,N,02327.46741,E,0.032,,280424,,,A*7B
$GPGGA,182258.00,3729.86146,N,02327.46741,E,1,08,1.27,9.0,M,32.4,M,,*5E
$GPGLL,3729.86146,N,02327.46741,E,182258.00,A,A*6B
$GPRMC,182259.00,A,3729.86143,N,02327.46744,E,0.058,,280424,,,A*76
$GPGGA,182259.00,3729.86143,N,02327.46744,E,1,09,1.27,9.0,M,32.4,M,,*5E
$GPGLL,3729.86143,N,02327.46744,E,182259.00,A,A*6A
$GPRMC,182300.00,A,3729.86142,N,02327.46746,E,0.040,,280424,,,A*71
$GPGGA,182300.00,3729.86142,N,02327.46746,E,1,09,1.27,9.0,M,32.4,M,,*50
$GPGLL,3729.86142,N,02327.46746,E,182300.00,A,A*64
$GPRMC,182301.00,A,3729.86141,N,02327.46742,E,0.035,,280424,,,A*75
$GPGGA,182301.00,3729.86141,N,02327.46742,E,1,09,0.97,8.8,M,32.4,M,,*55
$GPGLL,3729.86141,N,02327.46742,E,182301.00,A,A*62
$GPRMC,182302.00,A,3729.86148,N,02327.46740,E,0.014,,280424,,,A*7E
$GPGGA,182302.00,3729.86148,N,02327.46740,E,1,09,0.97,8.8,M,32.4,M,,*5D
$GPGLL,3729.86148,N,02327.46740,E,182302.00,A,A*6A
$GPRMC,182303.00,A,3729.86153,N,02327.46741,E,0.039,,280424,,,A*7B
$GPGGA,182303.00,3729.86153,N,02327.46741,E,1,09,0.97,8.8,M,32.4,M,,*57
$GPGLL,3729.86153,N,02327.46741,E,182303.00,A,A*60
$GPRMC,182304.00,A,3729.86157,N,02327.46745,E,0.028,,280424,,,A*7C
$GPGGA,182304.00,3729.86157,N,02327.46745,E,1,09,0.97,9.1,M,32.4,M,,*58
$GPGLL,3729.86157,N,02327.46745,E,182304.00,A,A*67
$GPRMC,182305.00,A,3729.86154,N,02327.46743,E,0.038,,280424,,,A*79
$GPGGA,182305.00,3729.86154,N,02327.46743,E,1,08,1.26,9.1,M,32.4,M,,*56
$GPGLL,3729.86154,N,02327.46743,E,182305.00,A,A*63
$GPRMC,182306.00,A,3729.86155,N,02327.46746,E,0.051,,280424,,,A*71
$GPGGA,182306.00,3729.86155,N,02327.46746,E,1,08,1.26,9.3,M,32.4,M,,*53
$GPGLL,3729.86155,N,02327.46746,E,182306.00,A,A*64
$GPRMC,182307.00,A,3729.86143,N,02327.46746,E,0.050,,280424,,,A*76
$GPGGA,182307.00,3729.86143,N,02327.46746,E,1,08,1.26,9.4,M,32.4,M,,*52
$GPGLL,3729.86143,N,02327.46746,E,182307.00,A,A*62
$GPRMC,182308.00,A,3729.86139,N,02327.46742,E,0.036,,280424,,,A*70
$GPGGA,182308.00,3729.86139,N,02327.46742,E,1,09,1.26,9.3,M,32.4,M,,*52
$GPGLL,3729.86139,N,02327.46742,E,182308.00,A,A*64
$GPRMC,182309.00,A,3729.86141,N,02327.46742,E,0.024,,280424,,,A*7D
$GPGGA,182309.00,3729.86141,N,02327.46742,E,1,09,1.26,9.3,M,32.4,M,,*5C
$GPGLL,3729.86141,N,02327.46742,E,182309.00,A,A*6A
$GPRMC,182310.00,A,3729.86142,N,02327.46739,E,0.085,,280424,,,A*71
$GPGGA,182310.00,3729.86142,N,02327.46739,E,1,09,1.26,9.1,M,32.4,M,,*59
$GPGLL,3729.86142,N,02327.46739,E,182310.00,A,A*6D
$GPRMC,182311.00,A,3729.86138,N,02327.46733,E,0.061,,280424,,,A*7D
$GPGGA,182311.00,3729.86138,N,02327.46733,E,1,09,1.26,8.8,M,32.4,M,,*57
$GPGLL,3729.86138,N,02327.46733,E,182311.00,A,A*6B
$GPRMC,182312.00,A,3729.86125,N,02327.46731,E,0.021,,280424,,,A*74
$GPGGA,182312.00,3729.86125,N,02327.46731,E,1,09,1.26,8.6,M,32.4,M,,*54
$GPGLL,3729.86125,N,02327.46731,E,182312.00,A,A*66
$GPRMC,182313.00,A,3729.86119,N,02327.46731,E,0.023,,280424,,,A*78
$GPGGA,182313.00,3729.86119,N,02327.46731,E,1,09,0.97,8.5,M,32.4,M,,*52
$GPGLL,3729.86119,N,02327.46731,E,182313.00,A,A*68
$GPRMC,182314.00,A,3729.86111,N,02327.46732,E,0.025,,280424,,,A*72
$GPGGA,182314.00,3729.86111,N,02327.46732,E,1,09,0.97,8.4,M,32.4,M,,*5F
$GPGLL,3729.86111,N,02327.46732,E,182314.00,A,A*64
$GPRMC,182315.00,A,3729.86110,N,02327.46726,E,0.059,,280424,,,A*7C
$GPGGA,182315.00,3729.86110,N,02327.46726,E,1,08,1.07,8.1,M,32.4,M,,*56
$GPGLL,3729.86110,N,02327.46726,E,182315.00,A,A*61
$GPRMC,182316.00,A,3729.86110,N,02327.46719,E,0.045,,280424,,,A*7E
$GPGGA,182316.00,3729.86110,N,02327.46719,E,1,09,1.07,8.0,M,32.4,M,,*59
$GPGLL,3729.86110,N,02327.46719,E,182316.00,A,A*6E
$GPRMC,182317.00,A,3729.86112,N,02327.46718,E,0.043,,280424,,,A*7A
$GPGGA,182317.00,3729.86112,N,02327.46718,E,1,09,1.07,7.9,M,32.4,M,,*5D
$GPGLL,3729.86112,N,02327.46718,E,182317.00,A,A*6C
$GPRMC,182318.00,A,3729.86108,N,02327.46716,E,0.030,,280424,,,A*74
$GPGGA,182318.00,3729.86108,N,02327.46716,E,1,09,0.97,8.0,M,32.4,M,,*59
$GPGLL,3729.86108,N,02327.46716,E,182318.00,A,A*66
$GPRMC,182319.00,A,3729.86103,N,02327.46712,E,0.041,,280424,,,A*7C
$GPGGA,182319.00,3729.86103,N,02327.46712,E,1,09,1.07,8.1,M,32.4,M,,*5E
$GPGLL,3729.86103,N,02327.46712,E,182319.00,A,A*68
$GPRMC,182320.00,A,3729.86095,N,02327.46710,E,0.177,,280424,,,A*7E
$GPGGA,182320.00,3729.86095,N,02327.46710,E,1,09,0.97,8.1,M,32.4,M,,*50
$GPGLL,3729.86095,N,02327.46710,E,182320.00,A,A*6E
$GPRMC,182321.00,A,3729.86087,N,02327.46707,E,0.035,,280424,,,A*7D
$GPGGA,182321.00,3729.86087,N,02327.46707,E,1,09,1.07,8.0,M,32.4,M,,*5D
$GPGLL,3729.86087,N,02327.46707,E,182321.00,A,A*6A
$GPRMC,182322.00,A,3729.86093,N,02327.46704,E,0.006,,280424,,,A*78
$GPGGA,182322.00,3729.86093,N,02327.46704,E,1,09,0.97,8.0,M,32.4,M,,*50
$GPGLL,3729.86093,N,02327.46704,E,182322.00,A,A*6F
$GPRMC,182323.00,A,3729.86083,N,02327.46703,E,0.013,,280424,,,A*7B
$GPGGA,182323.00,3729.86083,N,02327.46703,E,1,09,0.97,8.1,M,32.4,M,,*56
$GPGLL,3729.86083,N,02327.46703,E,182323.00,A,A*68
$GPRMC,182324.00,A,3729.86091,N,02327.46699,E,0.059,,280424,,,A*73
$GPGGA,182324.00,3729.86091,N,02327.46699,E,1,09,0.97,7.7,M,32.4,M,,*59
$GPGLL,3729.86091,N,02327.46699,E,182324.00,A,A*6E
$GPRMC,182325.00,A,3729.86097,N,02327.46695,E,0.034,,280424,,,A*73
$GPGGA,182325.00,3729.86097,N,02327.46695,E,1,09,0.97,7.3,M,32.4,M,,*56
$GPGLL,3729.86097,N,02327.46695,E,182325.00,A,A*65
$GPRMC,182326.00,A,3729.86099,N,02327.46699,E,0.049,,280424,,,A*78
$GPGGA,182326.00,3729.86099,N,02327.46699,E,1,09,0.97,7.3,M,32.4,M,,*57
$GPGLL,3729.86099,N,02327.46699,E,182326.00,A,A*64
$GPRMC,182327.00,A,3729.86098,N,02327.46704,E,0.030,,280424,,,A*73
$GPGGA,182327.00,3729.86098,N,02327.46704,E,1,09,0.97,7.4,M,32.4,M,,*55
$GPGLL,3729.86098,N,02327.46704,E,182327.00,A,A*61
$GPRMC,182328.00,A,3729.86094,N,02327.46708,E,0.017,,280424,,,A*79
$GPGGA,182328.00,3729.86094,N,02327.46708,E,1,09,0.97,7.3,M,32.4,M,,*5D
$GPGLL,3729.86094,N,02327.46708,E,182328.00,A,A*6E
$GPRMC,182329.00,A,3729.86094,N,02327.46711,E,0.103,,280424,,,A*74
$GPGGA,182329.00,3729.86094,N,02327.46711,E,1,08,1.26,7.1,M,32.4,M,,*5C
$GPGLL,3729.86094,N,02327.46711,E,182329.00,A,A*67
$GPRMC,182330.00,A,3729.86086,N,02327.46715,E,0.064,,280424,,,A*7B
$GPGGA,182330.00,3729.86086,N,02327.46715,E,1,08,1.26,7.2,M,32.4,M,,*50
$GPGLL,3729.86086,N,02327.46715,E,182330.00,A,A*68
$GPRMC,182331.00,A,3729.86077,N,02327.46716,E,0.052,,280424,,,A*72
$GPGGA,182331.00,3729.86077,N,02327.46716,E,1,08,1.26,7.1,M,32.4,M,,*5F
$GPGLL,3729.86077,N,02327.46716,E,182331.00,A,A*64
$GPRMC,182332.00,A,3729.86069,N,02327.46718,E,0.068,,280424,,,A*79
$GPGGA,182332.00,3729.86069,N,02327.46718,E,1,09,0.97,7.0,M,32.4,M,,*56
$GPGLL,3729.86069,N,02327.46718,E,182332.00,A,A*66
$GPRMC,182333.00,A,3729.86070,N,02327.46722,E,0.040,,280424,,,A*73
$GPGGA,182333.00,3729.86070,N,02327.46722,E,1,09,0.97,7.1,M,32.4,M,,*57
$GPGLL,3729.86070,N,02327.46722,E,182333.00,A,A*66
$GPRMC,182334.00,A,3729.86075,N,02327.46722,E,0.072,,280424,,,A*70
$GPGGA,182334.00,3729.86075,N,02327.46722,E,1,09,0.97,6.8,M,32.4,M,,*5D
$GPGLL,3729.86075,N,02327.46722,E,182334.00,A,A*64
$GPRMC,182335.00,A,3729.86078,N,02327.46727,E,0.182,,280424,,,A*77
$GPGGA,182335.00,3729.86078,N,02327.46727,E,1,09,0.97,6.7,M,32.4,M,,*5B
$GPGLL,3729.86078,N,02327.46727,E,182335.00,A,A*6D
$GPRMC,182336.00,A,3729.86080,N,02327.46724,E,0.098,,280424,,,A*7A
$GPGGA,182336.00,3729.86080,N,02327.46724,E,1,09,0.97,6.6,M,32.4,M,,*5D
$GPGLL,3729.86080,N,02327.46724,E,182336.00,A,A*6A
$GPRMC,182337.00,A,3729.86075,N,02327.46725,E,0.118,,280424,,,A*79
$GPGGA,182337.00,3729.86075,N,02327.46725,E,1,09,0.97,6.6,M,32.4,M,,*57
$GPGLL,3729.86075,N,02327.46725,E,182337.00,A,A*60
$GPRMC,182338.00,A,3729.86067,N,02327.46727,E,0.038,,280424,,,A*74
$GPGGA,182338.00,3729.86067,N,02327.46727,E,1,09,0.97,6.7,M,32.4,M,,*58
$GPGLL,3729.86067,N,02327.46727,E,182338.00,A,A*6E
$GPRMC,182339.00,A,3729.86063,N,02327.46728,E,0.030,,280424,,,A*76
$GPGGA,182339.00,3729.86063,N,02327.46728,E,1,09,0.97,7.0,M,32.4,M,,*54
$GPGLL,3729.86063,N,02327.46728,E,182339.00,A,A*64
$GPRMC,182340.00,A,3729.86060,N,02327.46728,E,0.009,,280424,,,A*71
$GPGGA,182340.00,3729.86060,N,02327.46728,E,1,09,0.97,6.9,M,32.4,M,,*51
$GPGLL,3729.86060,N,02327.46728,E,182340.00,A,A*69
$GPRMC,182341.00,A,3729.86053,N,02327.46731,E,0.088,,280424,,,A*71
$GPGGA,182341.00,3729.86053,N,02327.46731,E,1,09,0.97,7.0,M,32.4,M,,*50
$GPGLL,3729.86053,N,02327.46731,E,182341.00,A,A*60
$GPRMC,182342.00,A,3729.86048,N,02327.46731,E,0.030,,280424,,,A*7B
$GPGGA,182342.00,3729.86048,N,02327.46731,E,1,09,1.26,7.1,M,32.4,M,,*53
$GPGLL,3729.86048,N,02327.46731,E,182342.00,A,A*69
$GPRMC,182343.00,A,3729.86045,N,02327.46730,E,0.053,,280424,,,A*73
$GPGGA,182343.00,3729.86045,N,02327.46730,E,1,08,1.26,7.3,M,32.4,M,,*5D
$GPGLL,3729.86045,N,02327.46730,E,182343.00,A,A*64
$GPRMC,182344.00,A,3729.86046,N,02327.46735,E,0.077,,280424,,,A*74
$GPGGA,182344.00,3729.86046,N,02327.46735,E,1,08,1.26,7.4,M,32.4,M,,*5B
$GPGLL,3729.86046,N,02327.46735,E,182344.00,A,A*65
$GPRMC,182345.00,A,3729.86042,N,02327.46735,E,0.028,,280424,,,A*7B
$GPGGA,182345.00,3729.86042,N,02327.46735,E,1,08,1.26,7.6,M,32.4,M,,*5C
$GPGLL,3729.86042,N,02327.46735,E,182345.00,A,A*60
$GPRMC,182346.00,A,3729.86042,N,02327.46737,E,0.030,,280424,,,A*73
$GPGGA,182346.00,3729.86042,N,02327.46737,E,1,08,1.26,7.8,M,32.4,M,,*53
$GPGLL,3729.86042,N,02327.46737,E,182346.00,A,A*61
$GPRMC,182347.00,A,3729.86041,N,02327.46738,E,0.089,,280424,,,A*7C
$GPGGA,182347.00,3729.86041,N,02327.46738,E,1,08,1.26,8.0,M,32.4,M,,*59
$GPGLL,3729.86041,N,02327.46738,E,182347.00,A,A*6C
$GPRMC,182348.00,A,3729.86044,N,02327.46736,E,0.051,,280424,,,A*7D
$GPGGA,182348.00,3729.86044,N,02327.46736,E,1,08,1.26,8.0,M,32.4,M,,*5D
$GPGLL,3729.86044,N,02327.46736,E,182348.00,A,A*68
$GPRMC,182349.00,A,3729.86047,N,02327.46731,E,0.094,,280424,,,A*71
$GPGGA,182349.00,3729.86047,N,02327.46731,E,1,08,1.26,8.0,M,32.4,M,,*58
$GPGLL,3729.86047,N,02327.46731,E,182349.00,A,A*6D
$GPRMC,182350.00,A,3729.86048,N,02327.46730,E,0.050,,280424,,,A*7F
$GPGGA,182350.00,3729.86048,N,02327.46730,E,1,08,1.26,8.1,M,32.4,M,,*5F
$GPGLL,3729.86048,N,02327.46730,E,182350.00,A,A*6B
$GPRMC,182351.00,A,3729.86048,N,02327.46733,E,0.163,,280424,,,A*7C
$GPGGA,182351.00,3729.86048,N,02327.46733,E,1,08,1.25,8.4,M,32.4,M,,*5B
$GPGLL,3729.86048,N,02327.46733,E,182351.00,A,A*69
$GPRMC,182352.00,A,3729.86049,N,02327.46735,E,0.074,,280424,,,A*7F
$GPGGA,182352.00,3729.86049,N,02327.46735,E,1,08,1.25,8.6,M,32.4,M,,*5D
