$GPRMC,194335.00,A,3730.48711,N,02327.22437,E,0.098,,270424,,,A*77
$GPGGA,194335.00,3730.48711,N,02327.22437,E,1,07,1.12,38.7,M,32.4,M,,*61
$GPGLL,3730.48711,N,02327.22437,E,194335.00,A,A*68
$GPRMC,194336.00,A,3730.48724,N,02327.22441,E,0.268,,270424,,,A*7E
$GPGGA,194336.00,3730.48724,N,02327.22441,E,1,07,1.12,38.3,M,32.4,M,,*61
$GPGLL,3730.48724,N,02327.22441,E,194336.00,A,A*6C
$GPRMC,194337.00,A,3730.48728,N,02327.22442,E,0.141,,270424,,,A*78
$GPGGA,194337.00,3730.48728,N,02327.22442,E,1,07,1.12,38.0,M,32.4,M,,*6C
$GPGLL,3730.48728,N,02327.22442,E,194337.00,A,A*62
$GPRMC,194338.00,A,3730.48741,N,02327.22458,E,0.417,,270424,,,A*75
$GPGGA,194338.00,3730.48741,N,02327.22458,E,1,07,1.12,37.4,M,32.4,M,,*6C
$GPGLL,3730.48741,N,02327.22458,E,194338.00,A,A*69
$GPRMC,194339.00,A,3730.48752,N,02327.22459,E,0.266,,270424,,,A*77
$GPGGA,194339.00,3730.48752,N,02327.22459,E,1,07,1.12,37.0,M,32.4,M,,*6A
$GPGLL,3730.48752,N,02327.22459,E,194339.00,A,A*6B
$GPRMC,194340.00,A,3730.48766,N,02327.22461,E,0.222,,270424,,,A*75
$GPGGA,194340.00,3730.48766,N,02327.22461,E,1,07,1.12,36.4,M,32.4,M,,*6D
$GPGLL,3730.48766,N,02327.22461,E,194340.00,A,A*69
$GPRMC,194341.00,A,3730.48780,N,02327.22465,E,0.288,,270424,,,A*78
$GPGGA,194341.00,3730.48780,N,02327.22465,E,1,07,1.12,35.9,M,32.4,M,,*6E
$GPGLL,3730.48780,N,02327.22465,E,194341.00,A,A*64
$GPRMC,194342.00,A,3730.48796,N,02327.22464,E,0.236,,270424,,,A*78
$GPGGA,194342.00,3730.48796,N,02327.22464,E,1,07,1.12,35.3,M,32.4,M,,*61
$GPGLL,3730.48796,N,02327.22464,E,194342.00,A,A*61
$GPRMC,194343.00,A,3730.48806,N,02327.22472,E,0.329,,270424,,,A*77
$GPGGA,194343.00,3730.48806,N,02327.22472,E,1,07,1.12,34.9,M,32.4,M,,*6A
$GPGLL,3730.48806,N,02327.22472,E,194343.00,A,A*61
$GPRMC,194344.00,A,3730.48810,N,02327.22466,E,0.250,,270424,,,A*7D
$GPGGA,194344.00,3730.48810,N,02327.22466,E,1,07,1.12,34.8,M,32.4,M,,*6E
$GPGLL,3730.48810,N,02327.22466,E,194344.00,A,A*64
$GPRMC,194345.00,A,3730.48821,N,02327.22474,E,0.327,,270424,,,A*7C
$GPGGA,194345.00,3730.48821,N,02327.22474,E,1,07,1.12,34.4,M,32.4,M,,*62
$GPGLL,3730.48821,N,02327.22474,E,194345.00,A,A*64
$GPRMC,194346.00,A,3730.48830,N,02327.22474,E,0.151,,270424,,,A*7C
$GPGGA,194346.00,3730.48830,N,02327.22474,E,1,07,1.12,34.2,M,32.4,M,,*67
$GPGLL,3730.48830,N,02327.22474,E,194346.00,A,A*67
$GPRMC,194347.00,A,3730.48841,N,02327.22483,E,0.288,,270424,,,A*74
$GPGGA,194347.00,3730.48841,N,02327.22483,E,1,07,1.12,33.7,M,32.4,M,,*6A
$GPGLL,3730.48841,N,02327.22483,E,194347.00,A,A*68
$GPRMC,194348.00,A,3730.48846,N,02327.22486,E,0.152,,270424,,,A*7D
$GPGGA,194348.00,3730.48846,N,02327.22486,E,1,07,1.12,33.5,M,32.4,M,,*65
$GPGLL,3730.48846,N,02327.22486,E,194348.00,A,A*65
$GPRMC,194349.00,A,3730.48861,N,02327.22501,E,0.317,,270424,,,A*74
$GPGGA,194349.00,3730.48861,N,02327.22501,E,1,07,1.12,32.9,M,32.4,M,,*62
$GPGLL,3730.48861,N,02327.22501,E,194349.00,A,A*6F
$GPRMC,194350.00,A,3730.48881,N,02327.22518,E,0.346,,270424,,,A*7E
$GPGGA,194350.00,3730.48881,N,02327.22518,E,1,07,1.12,32.2,M,32.4,M,,*67
$GPGLL,3730.48881,N,02327.22518,E,194350.00,A,A*61
$GPRMC,194351.00,A,3730.48902,N,02327.22522,E,0.273,,270424,,,A*7B
$GPGGA,194351.00,3730.48902,N,02327.22522,E,1,07,1.12,31.4,M,32.4,M,,*60
$GPGLL,3730.48902,N,02327.22522,E,194351.00,A,A*63
$GPRMC,194352.00,A,3730.48918,N,02327.22533,E,0.310,,270424,,,A*77
$GPGGA,194352.00,3730.48918,N,02327.22533,E,1,07,1.12,30.8,M,32.4,M,,*65
$GPGLL,3730.48918,N,02327.22533,E,194352.00,A,A*6B
$GPRMC,194353.00,A,3730.48924,N,02327.22532,E,0.262,,270424,,,A*7C
$GPGGA,194353.00,3730.48924,N,02327.22532,E,1,07,1.12,30.7,M,32.4,M,,*65
$GPGLL,3730.48924,N,02327.22532,E,194353.00,A,A*64
$GPRMC,194354.00,A,3730.48937,N,02327.22546,E,0.286,,270424,,,A*70
$GPGGA,194354.00,3730.48937,N,02327.22546,E,1,07,1.12,30.1,M,32.4,M,,*65
$GPGLL,3730.48937,N,02327.22546,E,194354.00,A,A*62
$GPRMC,194355.00,A,3730.48945,N,02327.22556,E,0.231,,270424,,,A*79
$GPGGA,194355.00,3730.48945,N,02327.22556,E,1,07,1.12,29.7,M,32.4,M,,*6E
$GPGLL,3730.48945,N,02327.22556,E,194355.00,A,A*67
$GPRMC,194356.00,A,3730.48950,N,02327.22559,E,0.201,,270424,,,A*72
$GPGGA,194356.00,3730.48950,N,02327.22559,E,1,07,1.12,29.5,M,32.4,M,,*64
$GPGLL,3730.48950,N,02327.22559,E,194356.00,A,A*6F
$GPRMC,194357.00,A,3730.48956,N,02327.22560,E,0.229,,270424,,,A*75
$GPGGA,194357.00,3730.48956,N,02327.22560,E,1,07,1.12,29.3,M,32.4,M,,*6F
$GPGLL,3730.48956,N,02327.22560,E,194357.00,A,A*62
$GPRMC,194358.00,A,3730.48963,N,02327.22573,E,0.257,,270424,,,A*77
$GPGGA,194358.00,3730.48963,N,02327.22573,E,1,07,1.12,28.9,M,32.4,M,,*6F
$GPGLL,3730.48963,N,02327.22573,E,194358.00,A,A*69
$GPRMC,194359.00,A,3730.48968,N,02327.22580,E,0.266,,270424,,,A*73
$GPGGA,194359.00,3730.48968,N,02327.22580,E,1,07,1.12,28.7,M,32.4,M,,*67
$GPGLL,3730.48968,N,02327.22580,E,194359.00,A,A*6F
$GPRMC,194400.00,A,3730.48976,N,02327.22592,E,0.243,,270424,,,A*73
$GPGGA,194400.00,3730.48976,N,02327.22592,E,1,07,1.12,28.3,M,32.4,M,,*64
$GPGLL,3730.48976,N,02327.22592,E,194400.00,A,A*68
$GPRMC,194401.00,A,3730.48986,N,02327.22601,E,0.229,,270424,,,A*78
$GPGGA,194401.00,3730.48986,N,02327.22601,E,1,07,1.12,27.9,M,32.4,M,,*66
$GPGLL,3730.48986,N,02327.22601,E,194401.00,A,A*6F
$GPRMC,194402.00,A,3730.48999,N,02327.22616,E,0.273,,270424,,,A*7C
$GPGGA,194402.00,3730.48999,N,02327.22616,E,1,07,1.12,27.2,M,32.4,M,,*66
$GPGLL,3730.48999,N,02327.22616,E,194402.00,A,A*64
$GPRMC,194403.00,A,3730.49011,N,02327.22633,E,0.267,,270424,,,A*77
$GPGGA,194403.00,3730.49011,N,02327.22633,E,1,07,1.12,26.7,M,32.4,M,,*6C
$GPGLL,3730.49011,N,02327.22633,E,194403.00,A,A*6A
$GPRMC,194404.00,A,3730.49018,N,02327.22644,E,0.255,,270424,,,A*78
$GPGGA,194404.00,3730.49018,N,02327.22644,E,1,07,1.12,26.3,M,32.4,M,,*66
$GPGLL,3730.49018,N,02327.22644,E,194404.00,A,A*64
$GPRMC,194405.00,A,3730.49027,N,02327.22653,E,0.241,,270424,,,A*76
$GPGGA,194405.00,3730.49027,N,02327.22653,E,1,07,1.12,25.9,M,32.4,M,,*64
$GPGLL,3730.49027,N,02327.22653,E,194405.00,A,A*6F
$GPRMC,194406.00,A,3730.49036,N,02327.22667,E,0.256,,270424,,,A*74
$GPGGA,194406.00,3730.49036,N,02327.22667,E,1,07,1.12,25.3,M,32.4,M,,*6A
$GPGLL,3730.49036,N,02327.22667,E,194406.00,A,A*6B
$GPRMC,194407.00,A,3730.49044,N,02327.22687,E,0.274,,270424,,,A*7E
$GPGGA,194407.00,3730.49044,N,02327.22687,E,1,07,1.12,24.7,M,32.4,M,,*65
$GPGLL,3730.49044,N,02327.22687,E,194407.00,A,A*61
$GPRMC,194408.00,A,3730.49050,N,02327.22705,E,0.255,,270424,,,A*7C
$GPGGA,194408.00,3730.49050,N,02327.22705,E,1,07,1.12,24.2,M,32.4,M,,*61
$GPGLL,3730.49050,N,02327.22705,E,194408.00,A,A*60
$GPRMC,194409.00,A,3730.49052,N,02327.22720,E,0.226,,270424,,,A*7C
$GPGGA,194409.00,3730.49052,N,02327.22720,E,1,07,1.12,23.8,M,32.4,M,,*68
$GPGLL,3730.49052,N,02327.22720,E,194409.00,A,A*64
$GPRMC,194410.00,A,3730.49056,N,02327.22728,E,0.221,,270424,,,A*7F
$GPGGA,194410.00,3730.49056,N,02327.22728,E,1,07,1.12,23.5,M,32.4,M,,*61
$GPGLL,3730.49056,N,02327.22728,E,194410.00,A,A*60
$GPRMC,194411.00,A,3730.49057,N,02327.22735,E,0.246,,270424,,,A*72
$GPGGA,194411.00,3730.49057,N,02327.22735,E,1,07,1.12,23.1,M,32.4,M,,*69
$GPGLL,3730.49057,N,02327.22735,E,194411.00,A,A*6C
$GPRMC,194412.00,A,3730.49057,N,02327.22739,E,0.265,,270424,,,A*7C
$GPGGA,194412.00,3730.49057,N,02327.22739,E,1,07,1.12,22.9,M,32.4,M,,*6F
$GPGLL,3730.49057,N,02327.22739,E,194412.00,A,A*63
$GPRMC,194413.00,A,3730.49062,N,02327.22741,E,0.195,,270424,,,A*78
$GPGGA,194413.00,3730.49062,N,02327.22741,E,1,07,1.12,22.5,M,32.4,M,,*6B
$GPGLL,3730.49062,N,02327.22741,E,194413.00,A,A*6B
$GPRMC,194414.00,A,3730.49068,N,02327.22740,E,0.180,,270424,,,A*70
$GPGGA,194414.00,3730.49068,N,02327.22740,E,1,07,1.12,22.1,M,32.4,M,,*63
$GPGLL,3730.49068,N,02327.22740,E,194414.00,A,A*67
$GPRMC,194415.00,A,3730.49074,N,02327.22755,E,0.258,,270424,,,A*7E
$GPGGA,194415.00,3730.49074,N,02327.22755,E,1,07,1.12,21.5,M,32.4,M,,*6C
$GPGLL,3730.49074,N,02327.22755,E,194415.00,A,A*6F
$GPRMC,194416.00,A,3730.49077,N,02327.22756,E,0.246,,270424,,,A*72
$GPGGA,194416.00,3730.49077,N,02327.22756,E,1,07,1.12,21.2,M,32.4,M,,*68
$GPGLL,3730.49077,N,02327.22756,E,194416.00,A,A*6C
$GPRMC,194417.00,A,3730.49078,N,02327.22759,E,0.213,,270424,,,A*73
$GPGGA,194417.00,3730.49078,N,02327.22759,E,1,07,1.12,20.9,M,32.4,M,,*63
$GPGLL,3730.49078,N,02327.22759,E,194417.00,A,A*6D
$GPRMC,194418.00,A,3730.49081,N,02327.22758,E,0.242,,270424,,,A*7F
$GPGGA,194418.00,3730.49081,N,02327.22758,E,1,07,1.12,20.7,M,32.4,M,,*65
$GPGLL,3730.49081,N,02327.22758,E,194418.00,A,A*65
$GPRMC,194419.00,A,3730.49078,N,02327.22764,E,0.175,,270424,,,A*70
$GPGGA,194419.00,3730.49078,N,02327.22764,E,1,07,1.12,20.6,M,32.4,M,,*6C
$GPGLL,3730.49078,N,02327.22764,E,194419.00,A,A*6D
$GPRMC,194420.00,A,3730.49075,N,02327.22771,E,0.187,,270424,,,A*7E
$GPGGA,194420.00,3730.49075,N,02327.22771,E,1,07,1.12,20.4,M,32.4,M,,*6D
$GPGLL,3730.49075,N,02327.22771,E,194420.00,A,A*6E
$GPRMC,194421.00,A,3730.49068,N,02327.22773,E,0.121,,270424,,,A*7D
$GPGGA,194421.00,3730.49068,N,02327.22773,E,1,07,1.12,20.5,M,32.4,M,,*63
