$GPGSV,3,1,12,01,46,264,24,03,11,210,31,08,60,161,24,27,29,140,22*7A
$GPGSV,3,2,12,02,81,298,,10,35,052,,14,25,307,,17,01,306,*77
$GPGSV,3,3,12,22,17,320,,23,01,042,,24,00,019,,32,29,097,*71
$GPGSV,3,1,12,01,46,264,20,03,11,210,27,08,60,161,20,27,29,140,19,1*68
$GPGSV,3,2,12,02,81,298,,10,35,052,,14,25,307,,17,01,306,,1*6A
$GPGSV,3,3,12,22,17,320,,23,01,042,,24,00,000,,32,29,097,,1*64
$GLGSV,2,1,08,73,12,233,21,69,07,167,13,68,42,129,18,66,02,012,,1*75
$GLGSV,2,2,08,82,23,090,,75,18,336,,83,71,037,,67,42,053,,1*77
$GAGSV,3,1,09,03,10,130,,05,23,080,,06,01,008,,09,12,028,,7*7B
$GAGSV,3,2,09,13,21,257,,15,75,275,,21,30,307,,27,45,239,,7*74
$GAGSV,3,3,09,30,17,188,,7*4E
$PQGSV,1,1,0,0*43
$PQGSV,3,1,11,05,11,113,,08,09,032,,11,87,344,,12,35,105,,0*7A
$PQGSV,3,2,11,13,21,039,,14,08,182,,21,50,101,,22,23,040,,0*7C
$PQGSV,3,3,11,23,16,264,,25,00,000,,28,01,286,,0*45
$GPGGA,141030.00,5211.720302,N,00008.715029,E,1,04,1.8,14.9,M,47.0,M,,*5A
$GPVTG,0.0,T,3.3,M,0.0,N,0.0,K,A*23
$GPRMC,141030.00,A,5211.720302,N,00008.715029,E,0.0,0.0,160426,3.3,W,A*24
$GPGSA,A,2,01,03,08,27,,,,,,,,,2.1,1.8,1.0*37
$GNGSA,A,3,01,03,08,27,,,,,,,,,2.1,1.8,1.0,1*35
$GNGSA,A,2,68,69,73,,,,,,,,,,2.1,1.8,1.0,2*3D
$GNVTG,,T,,M,0.0,N,0.0,K,A*3D
$GNRMC,141030.00,A,5211.720302,N,00008.715029,E,0.0,,160426,3.2,W,A,V*6F
$GNGGA,141030.00,5211.720302,N,00008.715029,E,1,07,1.8,14.9,M,47.0,M,,*47
$GPGSV,3,1,12,01,46,264,22,03,11,210,30,08,60,161,23,27,29,140,22*7A
$GPGSV,3,2,12,02,81,298,,10,35,052,,14,25,307,,17,01,306,*77
$GPGSV,3,3,12,22,17,320,,23,01,042,,24,00,019,,32,29,097,*71
$GPGSV,3,1,12,01,46,264,18,03,11,210,27,08,60,161,19,27,29,140,19,1*69
$GPGSV,3,2,12,02,81,298,,10,35,052,,14,25,307,,17,01,306,,1*6A
$GPGSV,3,3,12,22,17,320,,23,01,042,,24,00,000,,32,29,097,,1*64
$GLGSV,2,1,08,73,12,233,21,69,07,167,13,68,42,129,19,66,02,012,,1*74
$GLGSV,2,2,08,82,23,090,,75,18,336,,83,71,037,,67,42,053,,1*77
$GAGSV,3,1,09,03,10,130,,05,23,080,,06,01,008,,09,12,028,,7*7B
$GAGSV,3,2,09,13,21,257,,15,75,275,,21,30,307,,27,45,239,,7*74
$GAGSV,3,3,09,30,17,188,,7*4E
$PQGSV,1,1,0,0*43
$PQGSV,3,1,11,05,11,113,,08,09,032,,11,87,344,,12,35,105,,0*7A
$PQGSV,3,2,11,13,21,039,,14,08,182,,21,50,101,,22,23,040,,0*7C
$PQGSV,3,3,11,23,16,264,,25,00,000,,28,01,286,,0*45
$GPGGA,141031.00,5211.720302,N,00008.715027,E,1,04,1.8,14.9,M,47.0,M,,*55
$GPVTG,0.0,T,3.3,M,0.0,N,0.0,K,A*23
$GPRMC,141031.00,A,5211.720302,N,00008.715027,E,0.0,0.0,160426,3.3,W,A*2B
$GPGSA,A,2,01,03,08,27,,,,,,,,,2.1,1.8,1.0*37
$GNGSA,A,3,01,03,08,27,,,,,,,,,2.1,1.8,1.0,1*35
$GNGSA,A,2,68,69,73,,,,,,,,,,2.1,1.8,1.0,2*3D
$GNVTG,,T,,M,0.0,N,0.0,K,A*3D
$GNRMC,141031.00,A,5211.720302,N,00008.715028,E,0.0,,160426,3.2,W,A,V*6F
$GNGGA,141031.00,5211.720302,N,00008.715028,E,1,07,1.8,14.9,M,47.0,M,,*47
$GPGSV,3,1,12,01,46,264,23,03,11,210,30,08,60,161,23,27,29,140,22*7B
$GPGSV,3,2,12,02,81,298,,10,35,052,,14,25,307,,17,01,306,*77
$GPGSV,3,3,12,22,17,320,,23,01,042,,24,00,019,,32,29,097,*71
$GPGSV,3,1,12,01,46,264,20,03,11,210,27,08,60,161,20,27,29,140,18,1*69
$GPGSV,3,2,12,02,81,298,,10,35,052,,14,25,307,,17,01,306,,1*6A
$GPGSV,3,3,12,22,17,320,,23,01,042,,24,00,000,,32,29,097,,1*64
$GLGSV,2,1,08,73,12,233,21,69,07,167,13,68,42,129,20,66,02,012,,1*7E
$GLGSV,2,2,08,82,23,090,,75,18,336,,83,71,037,,67,42,053,,1*77
$GAGSV,3,1,09,03,10,130,,05,23,080,,06,01,008,,09,12,028,,7*7B
$GAGSV,3,2,09,13,21,257,,15,75,275,,21,30,307,,27,45,239,,7*74
$GAGSV,3,3,09,30,17,188,,7*4E
$PQGSV,1,1,0,0*43
$PQGSV,3,1,11,05,11,113,,08,09,032,,11,87,344,,12,35,105,,0*7A
$PQGSV,3,2,11,13,21,039,,14,08,182,,21,50,101,,22,23,040,,0*7C
$PQGSV,3,3,11,23,16,264,,25,00,000,,28,01,286,,0*45
$GPGGA,141032.00,5211.720302,N,00008.715028,E,1,04,1.8,14.9,M,47.0,M,,*59
$GPVTG,0.0,T,3.3,M,0.0,N,0.0,K,A*23
$GPRMC,141032.00,A,5211.720302,N,00008.715028,E,0.0,0.0,160426,3.3,W,A*27
$GPGSA,A,2,01,03,08,27,,,,,,,,,2.1,1.8,1.0*37
$GNGSA,A,3,01,03,08,27,,,,,,,,,2.1,1.8,1.0,1*35
$GNGSA,A,2,68,69,73,,,,,,,,,,2.1,1.8,1.0,2*3D
$GNVTG,,T,,M,0.0,N,0.0,K,A*3D
$GNRMC,141032.00,A,5211.720302,N,00008.715028,E,0.0,,160426,3.2,W,A,V*6C
$GNGGA,141032.00,5211.720302,N,00008.715028,E,1,07,1.8,14.9,M,47.0,M,,*44
$GPGSV,3,1,12,01,46,264,22,03,11,210,30,08,60,161,22,27,29,140,22*7B
$GPGSV,3,2,12,02,81,298,,10,35,052,,14,25,307,,17,01,306,*77
$GPGSV,3,3,12,22,17,320,,23,01,042,,24,00,019,,32,29,097,*71
$GPGSV,3,1,12,01,46,264,18,03,11,210,26,08,60,161,18,27,29,140,19,1*69
$GPGSV,3,2,12,02,81,298,,10,35,052,,14,25,307,,17,01,306,,1*6A
$GPGSV,3,3,12,22,17,320,,23,01,042,,24,00,000,,32,29,097,,1*64
$GLGSV,2,1,08,73,12,233,21,69,07,167,13,68,42,129,20,66,02,012,,1*7E
$GLGSV,2,2,08,82,23,090,,75,18,336,,83,71,037,,67,42,053,,1*77
$GAGSV,3,1,09,03,10,130,,05,23,080,,06,01,008,,09,12,028,,7*7B
$GAGSV,3,2,09,13,21,257,,15,75,275,,21,30,307,,27,45,239,,7*74
$GAGSV,3,3,09,30,17,188,,7*4E
$PQGSV,1,1,0,0*43
$PQGSV,3,1,11,05,11,113,,08,09,032,,11,87,344,,12,35,105,,0*7A
$PQGSV,3,2,11,13,21,039,,14,08,182,,21,50,101,,22,23,040,,0*7C
$PQGSV,3,3,11,23,16,264,,25,00,000,,28,01,286,,0*45
$GPGGA,141033.00,5211.720302,N,00008.715030,E,1,04,1.8,14.9,M,47.0,M,,*51
$GPVTG,0.0,T,3.3,M,0.0,N,0.0,K,A*23
$GPRMC,141033.00,A,5211.720302,N,00008.715030,E,0.0,0.0,160426,3.3,W,A*2F
$GPGSA,A,2,01,03,08,27,,,,,,,,,2.1,1.8,1.0*37
$GNGSA,A,3,01,03,08,27,,,,,,,,,2.1,1.8,1.0,1*35
$GNGSA,A,2,68,69,73,,,,,,,,,,2.1,1.8,1.0,2*3D
$GNVTG,,T,,M,0.0,N,0.0,K,A*3D
$GNRMC,141033.00,A,5211.720302,N,00008.715030,E,0.0,,160426,3.2,W,A,V*64
$GNGGA,141033.00,5211.720302,N,00008.715030,E,1,07,1.8,14.9,M,47.0,M,,*4C
$GPGSV,3,1,12,01,46,264,22,03,11,210,30,08,60,161,25,27,29,140,22*7C
$GPGSV,3,2,12,02,81,298,,10,35,052,,14,25,307,,17,01,306,*77
$GPGSV,3,3,12,22,17,320,,23,01,042,,24,00,019,,32,29,097,*71
$GPGSV,3,1,12,01,46,264,18,03,11,210,26,08,60,161,21,27,29,140,18,1*62
$GPGSV,3,2,12,02,81,298,,10,35,052,,14,25,307,,17,01,306,,1*6A
$GPGSV,3,3,12,22,17,320,,23,01,042,,24,00,000,,32,29,097,,1*64
$GLGSV,2,1,08,73,12,233,21,69,07,167,13,68,42,129,20,66,02,012,,1*7E
$GLGSV,2,2,08,82,23,090,,75,18,336,,83,71,037,,67,42,053,,1*77
$GAGSV,3,1,09,03,10,130,,05,23,080,,06,01,008,,09,12,028,,7*7B
$GAGSV,3,2,09,13,21,257,,15,75,275,,21,30,307,,27,45,239,,7*74
$GAGSV,3,3,09,30,17,188,,7*4E
$PQGSV,1,1,0,0*43
$PQGSV,3,1,11,05,11,113,,08,09,032,,11,87,344,,12,35,105,,0*7A
$PQGSV,3,2,11,13,21,039,,14,08,182,,21,50,101,,22,23,040,,0*7C
$PQGSV,3,3,11,23,16,264,,25,00,000,,28,01,286,,0*45
$GPGGA,141034.00,5211.720302,N,00008.715032,E,1,04,2.0,14.9,M,47.0,M,,*5F
$GPVTG,0.0,T,3.3,M,0.0,N,0.0,K,A*23
$GPRMC,141034.00,A,5211.720302,N,00008.715032,E,0.0,0.0,160426,3.3,W,A*2A
$GPGSA,A,2,01,03,08,27,,,,,,,,,2.2,2.0,1.0*3F
$GNGSA,A,3,01,03,08,27,,,,,,,,,2.2,2.0,1.0,1*3D
$GNGSA,A,2,68,73,,,,,,,,,,,2.2,2.0,1.0,2*3A
$GNVTG,,T,,M,0.0,N,0.0,K,A*3D
$GNRMC,141034.00,A,5211.720302,N,00008.715032,E,0.0,,160426,3.2,W,A,V*61
$GNGGA,141034.00,5211.720302,N,00008.715032,E,1,06,2.0,14.9,M,47.0,M,,*43
$GPGSV,3,1,12,01,46,264,21,03,11,210,30,08,60,161,24,27,29,140,22*7E
$GPGSV,3,2,12,02,81,298,,10,35,052,,14,25,307,,17,01,306,*77
$GPGSV,3,3,12,22,17,320,,23,01,042,,24,00,019,,32,29,097,*71
$GPGSV,3,1,12,01,46,264,18,03,11,210,26,08,60,161,20,27,29,140,18,1*63
$GPGSV,3,2,12,02,81,298,,10,35,052,,14,25,307,,17,01,306,,1*6A
$GPGSV,3,3,12,22,17,320,,23,01,042,,24,00,000,,32,29,097,,1*64
$GLGSV,2,1,08,73,12,233,20,69,07,167,12,68,42,129,18,66,02,012,,1*75
$GLGSV,2,2,08,82,23,090,,75,18,336,,83,71,037,,67,42,053,,1*77
$GAGSV,3,1,09,03,10,130,,05,23,080,,06,01,008,,09,12,028,,7*7B
$GAGSV,3,2,09,13,21,257,,15,75,275,,21,30,307,,27,45,239,,7*74
$GAGSV,3,3,09,30,17,188,,7*4E
$PQGSV,1,1,0,0*43
$PQGSV,3,1,11,05,11,113,,08,09,032,,11,87,344,,12,35,105,,0*7A
$PQGSV,3,2,11,13,21,039,,14,08,182,,21,50,101,,22,23,040,,0*7C
$PQGSV,3,3,11,23,16,264,,25,00,000,,28,01,286,,0*45
$GPGGA,141035.00,5211.720302,N,00008.715033,E,1,04,1.8,14.9,M,47.0,M,,*54
$GPVTG,0.0,T,3.3,M,0.0,N,0.0,K,A*23
$GPRMC,141035.00,A,5211.720302,N,00008.715033,E,0.0,0.0,160426,3.3,W,A*2A
$GPGSA,A,2,01,03,08,27,,,,,,,,,2.1,1.8,1.0*37
$GNGSA,A,3,01,03,08,27,,,,,,,,,2.1,1.8,1.0,1*35
$GNGSA,A,2,68,69,73,,,,,,,,,,2.1,1.8,1.0,2*3D
$GNVTG,,T,,M,0.0,N,0.0,K,A*3D
$GNRMC,141035.00,A,5211.720302,N,00008.715032,E,0.0,,160426,3.2,W,A,V*60
$GNGGA,141035.00,5211.720302,N,00008.715032,E,1,07,1.8,14.9,M,47.0,M,,*48
$GPGSV,3,1,12,01,46,264,22,03,11,210,30,08,60,161,24,27,29,140,21*7E
$GPGSV,3,2,12,02,81,298,,10,35,052,,14,25,307,,17,01,306,*77
$GPGSV,3,3,12,22,17,320,,23,01,042,,24,00,019,,32,29,097,*71
$GPGSV,3,1,12,01,46,264,19,03,11,210,26,08,60,161,20,27,29,140,18,1*62
$GPGSV,3,2,12,02,81,298,,10,35,052,,14,25,307,,17,01,306,,1*6A
$GPGSV,3,3,12,22,17,320,,23,01,042,,24,00,000,,32,29,097,,1*64
$GLGSV,2,1,08,73,12,233,21,69,07,167,12,68,42,129,18,66,02,012,,1*74
$GLGSV,2,2,08,82,23,090,,75,18,336,,83,71,037,,67,42,053,,1*77
$GAGSV,3,1,09,03,10,130,,05,23,080,,06,01,008,,09,12,028,,7*7B
$GAGSV,3,2,09,13,21,257,,15,75,275,,21,30,307,,27,45,239,,7*74
$GAGSV,3,3,09,30,17,188,,7*4E
$PQGSV,1,1,0,0*43
$PQGSV,3,1,11,05,11,113,,08,09,032,,11,87,344,,12,35,105,,0*7A
$PQGSV,3,2,11,13,21,039,,14,08,182,,21,50,101,,22,23,040,,0*7C
$PQGSV,3,3,11,23,16,264,,25,00,000,,28,01,286,,0*45
$GPGGA,141036.00,5211.720302,N,00008.715031,E,1,04,1.8,14.9,M,47.0,M,,*55
$GPVTG,0.0,T,3.3,M,0.0,N,0.0,K,A*23
$GPRMC,141036.00,A,5211.720302,N,00008.715031,E,0.0,0.0,160426,3.3,W,A*2B
$GPGSA,A,2,01,03,08,27,,,,,,,,,2.1,1.8,1.0*37
$GNGSA,A,3,01,03,08,27,,,,,,,,,2.1,1.8,1.0,1*35
$GNGSA,A,2,68,69,73,,,,,,,,,,2.1,1.8,1.0,2*3D
$GNVTG,,T,,M,0.0,N,0.0,K,A*3D
$GNRMC,141036.00,A,5211.720302,N,00008.715031,E,0.0,,160426,3.2,W,A,V*60
$GNGGA,141036.00,5211.720302,N,00008.715031,E,1,07,1.8,14.9,M,47.0,M,,*48
$GPGSV,3,1,12,01,46,264,22,03,11,210,29,08,60,161,23,27,29,140,22*72
$GPGSV,3,2,12,02,81,298,,10,35,052,,14,25,307,,17,01,306,*77
$GPGSV,3,3,12,22,17,320,,23,01,042,,24,00,019,,32,29,097,*71
$GPGSV,3,1,12,01,46,264,19,03,11,210,25,08,60,161,20,27,29,140,18,1*61
$GPGSV,3,2,12,02,81,298,,10,35,052,,14,25,307,,17,01,306,,1*6A
$GPGSV,3,3,12,22,17,320,,23,01,042,,24,00,000,,32,29,097,,1*64
$GLGSV,2,1,08,73,12,233,20,69,07,167,12,68,42,129,19,66,02,012,,1*74
$GLGSV,2,2,08,82,23,090,,75,18,336,,83,71,037,,67,42,053,,1*77
$GAGSV,3,1,09,03,10,130,,05,23,080,,06,01,008,,09,12,028,,7*7B
$GAGSV,3,2,09,13,21,257,,15,75,275,,21,30,307,,27,45,239,,7*74
$GAGSV,3,3,09,30,17,188,,7*4E
$PQGSV,1,1,0,0*43
$PQGSV,3,1,11,05,11,113,,08,09,032,,11,87,344,,12,35,105,,0*7A
$PQGSV,3,2,11,13,21,039,,14,08,182,,21,50,101,,22,23,040,,0*7C
$PQGSV,3,3,11,23,16,264,,25,00,000,,28,01,286,,0*45
$GPGGA,141037.00,5211.720302,N,00008.715029,E,1,04,1.8,14.9,M,47.0,M,,*5D
$GPVTG,0.0,T,3.3,M,0.0,N,0.0,K,A*23
$GPRMC,141037.00,A,5211.720302,N,00008.715029,E,0.0,0.0,160426,3.3,W,A*23
$GPGSA,A,2,01,03,08,27,,,,,,,,,2.1,1.8,1.0*37
$GNGSA,A,3,01,03,08,27,,,,,,,,,2.1,1.8,1.0,1*35
$GNGSA,A,2,68,69,73,,,,,,,,,,2.1,1.8,1.0,2*3D
$GNVTG,,T,,M,0.0,N,0.0,K,A*3D
$GNRMC,141037.00,A,5211.720302,N,00008.715029,E,0.0,,160426,3.2,W,A,V*68
$GNGGA,141037.00,5211.720302,N,00008.715029,E,1,07,1.8,14.9,M,47.0,M,,*40
$GPGSV,3,1,12,01,46,264,23,03,11,210,29,08,60,161,23,27,29,140,22*73
$GPGSV,3,2,12,02,81,298,,10,35,052,,14,25,307,,17,01,306,*77
$GPGSV,3,3,12,22,17,320,,23,01,042,,24,00,019,,32,29,097,*71
$GPGSV,3,1,12,01,46,264,20,03,11,210,25,08,60,161,20,27,29,140,18,1*6B
$GPGSV,3,2,12,02,81,298,,10,35,052,,14,25,307,,17,01,306,,1*6A
$GPGSV,3,3,12,22,17,320,,23,01,042,,24,00,000,,32,29,097,,1*64
$GLGSV,2,1,08,73,12,233,20,69,07,167,12,68,42,129,18,66,02,012,,1*75
$GLGSV,2,2,08,82,23,090,,75,18,336,,83,71,037,,67,42,053,,1*77
$GAGSV,3,1,09,03,10,130,,05,23,080,,06,01,008,,09,12,028,,7*7B
$GAGSV,3,2,09,13,21,257,,15,75,275,,21,30,307,,27,45,239,,7*74
$GAGSV,3,3,09,30,17,188,,7*4E
$PQGSV,1,1,0,0*43
$PQGSV,3,1,11,05,11,113,,08,09,032,,11,87,344,,12,35,105,,0*7A
$PQGSV,3,2,11,13,21,039,,14,08,182,,21,50,101,,22,23,040,,0*7C
$PQGSV,3,3,11,23,16,264,,25,00,000,,28,01,286,,0*45
$GPGGA,141038.00,5211.720302,N,00008.715030,E,1,04,1.8,14.9,M,47.0,M,,*5A
$GPVTG,0.0,T,3.3,M,0.0,N,0.0,K,A*23
$GPRMC,141038.00,A,5211.720302,N,00008.715030,E,0.0,0.0,160426,3.3,W,A*24
$GPGSA,A,2,01,03,08,27,,,,,,,,,2.1,1.8,1.0*37
$GNGSA,A,3,01,03,08,27,,,,,,,,,2.1,1.8,1.0,1*35
$GNGSA,A,2,68,69,73,,,,,,,,,,2.1,1.8,1.0,2*3D
$GNVTG,,T,,M,0.0,N,0.0,K,A*3D
$GNRMC,141038.00,A,5211.720302,N,00008.715029,E,0.0,,160426,3.2,W,A,V*67
$GNGGA,141038.00,5211.720302,N,00008.715029,E,1,07,1.8,14.9,M,47.0,M,,*4F
$GPGSV,3,1,12,01,46,264,22,03,11,210,30,08,60,161,23,27,29,140,20*78
$GPGSV,3,2,12,02,81,298,,10,35,052,,14,25,307,,17,01,306,*77
$GPGSV,3,3,12,22,17,320,,23,01,042,,24,00,019,,32,29,097,*71
$GPGSV,3,1,12,01,46,264,18,03,11,210,27,08,60,161,19,27,29,140,16,1*66
$GPGSV,3,2,12,02,81,298,,10,35,052,,14,25,307,,17,01,306,,1*6A
$GPGSV,3,3,12,22,17,320,,23,01,042,,24,00,000,,32,29,097,,1*64
$GLGSV,2,1,08,73,12,233,21,69,07,167,12,68,42,129,17,66,02,012,,1*7B
$GLGSV,2,2,08,82,23,090,,75,18,336,,83,71,037,,67,42,053,,1*77
$GAGSV,3,1,09,03,10,130,,05,23,080,,06,01,008,,09,12,028,,7*7B
$GAGSV,3,2,09,13,21,257,,15,75,275,,21,30,307,,27,45,239,,7*74
$GAGSV,3,3,09,30,17,188,,7*4E
$PQGSV,1,1,0,0*43
$PQGSV,3,1,11,05,11,113,,08,09,032,,11,87,344,,12,35,105,,0*7A
$PQGSV,3,2,11,13,21,039,,14,08,182,,21,50,101,,22,23,040,,0*7C
$PQGSV,3,3,11,23,16,264,,25,00,000,,28,01,286,,0*45
$GPGGA,141039.00,5211.720302,N,00008.715030,E,1,04,1.8,14.9,M,47.0,M,,*5B
$GPVTG,0.0,T,3.3,M,0.0,N,0.0,K,A*23
$GPRMC,141039.00,A,5211.720302,N,00008.715030,E,0.0,0.0,160426,3.3,W,A*25
$GPGSA,A,2,01,03,08,27,,,,,,,,,2.1,1.8,1.0*37
$GNGSA,A,3,01,03,08,27,,,,,,,,,2.1,1.8,1.0,1*35
$GNGSA,A,2,68,69,73,,,,,,,,,,2.1,1.8,1.0,2*3D
$GNVTG,,T,,M,0.0,N,0.0,K,A*3D
$GNRMC,141039.00,A,5211.720302,N,00008.715031,E,0.0,,160426,3.2,W,A,V*6F
$GNGGA,141039.00,5211.720302,N,00008.715031,E,1,07,1.8,14.9,M,47.0,M,,*47
$GPGSV,3,1,12,01,46,264,23,03,11,210,30,08,60,161,23,27,29,140,22*7B
$GPGSV,3,2,12,02,81,298,,10,35,052,,14,25,307,,17,01,306,*77
$GPGSV,3,3,12,22,17,320,,23,01,042,,24,00,019,,32,29,097,*71
$GPGSV,3,1,12,01,46,264,19,03,11,210,26,08,60,161,20,27,29,140,19,1*63
$GPGSV,3,2,12,02,81,298,,10,35,052,,14,25,307,,17,01,306,,1*6A
$GPGSV,3,3,12,22,17,320,,23,01,042,,24,00,000,,32,29,097,,1*64
$GLGSV,2,1,08,73,12,233,20,69,07,167,12,68,42,129,17,66,02,012,,1*7A
$GLGSV,2,2,08,82,23,090,,75,18,336,,83,71,037,,67,42,053,,1*77
$GAGSV,3,1,09,03,10,130,,05,23,080,,06,01,008,,09,12,028,,7*7B
$GAGSV,3,2,09,13,21,257,,15,75,275,,21,30,307,,27,45,239,,7*74
$GAGSV,3,3,09,30,17,188,,7*4E
$PQGSV,1,1,0,0*43
$PQGSV,3,1,11,05,11,113,,08,09,032,,11,87,344,,12,35,105,,0*7A
$PQGSV,3,2,11,13,21,039,,14,08,182,,21,50,101,,22,23,040,,0*7C
$PQGSV,3,3,11,23,16,264,,25,00,000,,28,01,286,,0*45
$GPGGA,141040.00,5211.720302,N,00008.715030,E,1,04,1.8,14.9,M,47.0,M,,*55
$GPVTG,0.0,T,3.3,M,0.0,N,0.0,K,A*23
$GPRMC,141040.00,A,5211.720302,N,00008.715030,E,0.0,0.0,160426,3.3,W,A*2B
$GPGSA,A,2,01,03,08,27,,,,,,,,,2.1,1.8,1.0*37
$GNGSA,A,3,01,03,08,27,,,,,,,,,2.1,1.8,1.0,1*35
$GNGSA,A,2,68,69,73,,,,,,,,,,2.1,1.8,1.0,2*3D
$GNVTG,,T,,M,0.0,N,0.0,K,A*3D
$GNRMC,141040.00,A,5211.720302,N,00008.715031,E,0.0,,160426,3.2,W,A,V*61
$GNGGA,141040.00,5211.720302,N,00008.715031,E,1,07,1.8,14.9,M,47.0,M,,*49
$GPGSV,3,1,12,01,46,264,25,03,11,210,30,08,60,161,24,27,29,140,22*7A
$GPGSV,3,2,12,02,81,298,,10,35,052,,14,25,307,,17,01,306,*77
$GPGSV,3,3,12,22,17,320,,23,01,042,,24,00,019,,32,29,097,*71
$GPGSV,3,1,12,01,46,264,22,03,11,210,27,08,60,161,20,27,29,140,19,1*6A
$GPGSV,3,2,12,02,81,298,,10,35,052,,14,25,307,,17,01,306,,1*6A
$GPGSV,3,3,12,22,17,320,,23,01,042,,24,00,000,,32,29,097,,1*64
$GLGSV,2,1,08,73,12,233,21,69,07,167,12,68,42,129,18,66,02,012,,1*74
$GLGSV,2,2,08,82,23,090,,75,18,336,,83,71,037,,67,42,053,,1*77
$GAGSV,3,1,09,03,10,130,,05,23,080,,06,01,008,,09,12,028,,7*7B
$GAGSV,3,2,09,13,21,257,,15,75,275,,21,30,307,,27,45,239,,7*74
$GAGSV,3,3,09,30,17,188,,7*4E
$PQGSV,1,1,0,0*43
$PQGSV,3,1,11,05,11,113,,08,09,032,,11,87,344,,12,35,105,,0*7A
$PQGSV,3,2,11,13,21,039,,14,08,182,,21,50,101,,22,23,040,,0*7C
$PQGSV,3,3,11,23,16,264,,25,00,000,,28,01,286,,0*45
$GPGGA,141041.00,5211.720302,N,00008.715029,E,1,04,2.0,14.9,M,47.0,M,,*57
$GPVTG,0.0,T,3.3,M,0.0,N,0.0,K,A*23
$GPRMC,141041.00,A,5211.720302,N,00008.715029,E,0.0,0.0,160426,3.3,W,A*22
$GPGSA,A,2,01,03,08,27,,,,,,,,,2.2,2.0,1.0*3F
$GNGSA,A,3,01,03,08,27,,,,,,,,,2.2,2.0,1.0,1*3D
$GNGSA,A,2,68,73,,,,,,,,,,,2.2,2.0,1.0,2*3A
$GNVTG,,T,,M,0.0,N,0.0,K,A*3D
$GNRMC,141041.00,A,5211.720302,N,00008.715029,E,0.0,,160426,3.2,W,A,V*69
$GNGGA,141041.00,5211.720302,N,00008.715029,E,1,06,2.0,14.9,M,47.0,M,,*4B
$GPGSV,3,1,12,01,46,264,24,03,11,210,30,08,60,161,23,27,29,140,22*7C
$GPGSV,3,2,12,02,81,298,,10,35,052,,14,25,307,,17,01,306,*77
$GPGSV,3,3,12,22,17,320,,23,01,042,,24,00,019,,32,29,097,*71
$GPGSV,3,1,12,01,46,264,20,03,11,210,26,08,60,161,19,27,29,140,18,1*62
$GPGSV,3,2,12,02,81,298,,10,35,052,,14,25,307,,17,01,306,,1*6A
$GPGSV,3,3,12,22,17,320,,23,01,042,,24,00,000,,32,29,097,,1*64
$GLGSV,2,1,08,73,12,233,21,69,07,167,12,68,42,129,19,66,02,012,,1*75
$GLGSV,2,2,08,82,23,090,,75,18,336,,83,71,037,,67,42,053,,1*77
$GAGSV,3,1,09,03,10,130,,05,23,080,,06,01,008,,09,12,028,,7*7B
$GAGSV,3,2,09,13,21,257,,15,75,275,,21,30,307,,27,45,239,,7*74
$GAGSV,3,3,09,30,17,188,,7*4E
$PQGSV,1,1,0,0*43
$PQGSV,3,1,11,05,11,113,,08,09,032,,11,87,344,,12,35,105,,0*7A
$PQGSV,3,2,11,13,21,039,,14,08,182,,21,50,101,,22,23,040,,0*7C
$PQGSV,3,3,11,23,16,264,,25,00,000,,28,01,286,,0*45
$GPGGA,141042.00,5211.720301,N,00008.715032,E,1,04,1.8,14.9,M,47.0,M,,*56
$GPVTG,0.0,T,3.3,M,0.0,N,0.0,K,A*23
$GPRMC,141042.00,A,5211.720301,N,00008.715032,E,0.0,0.0,160426,3.3,W,A*28
$GPGSA,A,2,01,03,08,27,,,,,,,,,2.1,1.8,1.0*37
$GNGSA,A,3,01,03,08,27,,,,,,,,,2.1,1.8,1.0,1*35
$GNGSA,A,2,68,69,73,,,,,,,,,,2.1,1.8,1.0,2*3D
$GNVTG,,T,,M,0.0,N,0.0,K,A*3D
$GNRMC,141042.00,A,5211.720302,N,00008.715032,E,0.0,,160426,3.2,W,A,V*60
$GNGGA,141042.00,5211.720302,N,00008.715032,E,1,07,1.8,14.9,M,47.0,M,,*48
$GPGSV,3,1,12,01,46,264,23,03,11,210,30,08,60,161,25,27,29,140,21*7E
$GPGSV,3,2,12,02,81,298,,10,35,052,,14,25,307,,17,01,306,*77
$GPGSV,3,3,12,22,17,320,,23,01,042,,24,00,019,,32,29,097,*71
$GPGSV,3,1,12,01,46,264,19,03,11,210,26,08,60,161,21,27,29,140,18,1*63
$GPGSV,3,2,12,02,81,298,,10,35,052,,14,25,307,,17,01,306,,1*6A
$GPGSV,3,3,12,22,17,320,,23,01,042,,24,00,000,,32,29,097,,1*64
$GLGSV,2,1,08,73,12,233,21,69,07,167,12,68,42,129,17,66,02,012,,1*7B
$GLGSV,2,2,08,82,23,090,,75,18,336,,83,71,037,,67,42,053,,1*77
$GAGSV,3,1,09,03,10,130,,05,23,080,,06,01,008,,09,12,028,,7*7B
$GAGSV,3,2,09,13,21,257,,15,75,275,,21,30,307,,27,45,239,,7*74
$GAGSV,3,3,09,30,17,188,,7*4E
$PQGSV,1,1,0,0*43
$PQGSV,3,1,11,05,11,113,,08,09,032,,11,87,344,,12,35,105,,0*7A
$PQGSV,3,2,11,13,21,039,,14,08,182,,21,50,101,,22,23,040,,0*7C
$PQGSV,3,3,11,23,16,264,,25,00,000,,28,01,286,,0*45
$GPGGA,141043.00,5211.720301,N,00008.715033,E,1,04,1.8,14.9,M,47.0,M,,*56
$GPVTG,0.0,T,3.3,M,0.0,N,0.0,K,A*23
$GPRMC,141043.00,A,5211.720301,N,00008.715033,E,0.0,0.0,160426,3.3,W,A*28
$GPGSA,A,2,01,03,08,27,,,,,,,,,2.1,1.8,1.0*37
$GNGSA,A,3,01,03,08,27,,,,,,,,,2.1,1.8,1.0,1*35
$GNGSA,A,2,68,69,73,,,,,,,,,,2.1,1.8,1.0,2*3D
$GNVTG,,T,,M,0.0,N,0.0,K,A*3D
$GNRMC,141043.00,A,5211.720301,N,00008.715033,E,0.0,,160426,3.2,W,A,V*63
$GNGGA,141043.00,5211.720301,N,00008.715033,E,1,07,1.8,14.9,M,47.0,M,,*4B
$GPGSV,3,1,12,01,46,264,21,03,11,210,30,08,60,161,23,27,29,140,23*78
$GPGSV,3,2,12,02,81,298,,10,35,052,,14,25,307,,17,01,306,*77
$GPGSV,3,3,12,22,17,320,,23,01,042,,24,00,019,,32,29,097,*71
$GPGSV,3,1,12,01,46,264,18,03,11,210,26,08,60,161,20,27,29,140,19,1*62
$GPGSV,3,2,12,02,81,298,,10,35,052,,14,25,307,,17,01,306,,1*6A
$GPGSV,3,3,12,22,17,320,,23,01,042,,24,00,000,,32,29,097,,1*64
$GLGSV,2,1,08,73,12,233,21,69,07,167,12,68,42,129,19,66,02,012,,1*75
$GLGSV,2,2,08,82,23,090,,75,18,336,,83,71,037,,67,42,053,,1*77
$GAGSV,3,1,09,03,10,130,,05,23,080,,06,01,008,,09,12,028,,7*7B
$GAGSV,3,2,09,13,21,257,,15,75,275,,21,30,307,,27,45,239,,7*74
$GAGSV,3,3,09,30,17,188,,7*4E
$PQGSV,1,1,0,0*43
$PQGSV,3,1,11,05,11,113,,08,09,032,,11,87,344,,12,35,105,,0*7A
$PQGSV,3,2,11,13,21,039,,14,08,182,,21,50,101,,22,23,040,,0*7C
$PQGSV,3,3,11,23,16,264,,25,00,000,,28,01,286,,0*45
$GPGGA,141044.00,5211.720301,N,00008.715031,E,1,04,1.8,14.9,M,47.0,M,,*53
$GPVTG,0.0,T,3.3,M,0.0,N,0.0,K,A*23
$GPRMC,141044.00,A,5211.720301,N,00008.715031,E,0.0,0.0,160426,3.3,W,A*2D
$GPGSA,A,2,01,03,08,27,,,,,,,,,2.1,1.8,1.0*37
$GNGSA,A,3,01,03,08,27,,,,,,,,,2.1,1.8,1.0,1*35
$GNGSA,A,2,68,69,73,,,,,,,,,,2.1,1.8,1.0,2*3D
$GNVTG,,T,,M,0.0,N,0.0,K,A*3D
$GNRMC,141044.00,A,5211.720301,N,00008.715031,E,0.0,,160426,3.2,W,A,V*66
$GNGGA,141044.00,5211.720301,N,00008.715031,E,1,07,1.8,14.9,M,47.0,M,,*4E
$GPGSV,3,1,12,01,46,264,23,03,11,210,30,08,60,161,23,27,29,140,22*7B
$GPGSV,3,2,12,02,81,298,,10,35,052,,14,25,307,,17,01,306,*77
$GPGSV,3,3,12,22,17,320,,23,01,042,,24,00,019,,32,29,097,*71
$GPGSV,3,1,12,01,46,264,19,03,11,210,26,08,60,161,20,27,29,140,18,1*62
$GPGSV,3,2,12,02,81,298,,10,35,052,,14,25,307,,17,01,306,,1*6A
$GPGSV,3,3,12,22,17,320,,23,01,042,,24,00,000,,32,29,097,,1*64
$GLGSV,2,1,08,73,12,233,20,69,07,167,12,68,42,129,18,66,02,012,,1*75
$GLGSV,2,2,08,82,23,090,,75,18,336,,83,71,037,,67,42,053,,1*77
$GAGSV,3,1,09,03,10,130,,05,23,080,,06,01,008,,09,12,028,,7*7B
$GAGSV,3,2,09,13,21,257,,15,75,275,,21,30,307,,27,45,239,,7*74
$GAGSV,3,3,09,30,17,188,,7*4E
$PQGSV,1,1,0,0*43
$PQGSV,3,1,11,05,11,113,,08,09,032,,11,87,344,,12,35,105,,0*7A
$PQGSV,3,2,11,13,21,039,,14,08,182,,21,50,101,,22,23,040,,0*7C
$PQGSV,3,3,11,23,16,264,,25,00,000,,28,01,286,,0*45
$GPGGA,141045.00,5211.720301,N,00008.715033,E,1,04,1.8,14.9,M,47.0,M,,*50
$GPVTG,0.0,T,3.3,M,0.0,N,0.0,K,A*23
$GPRMC,141045.00,A,5211.720301,N,00008.715033,E,0.0,0.0,160426,3.3,W,A*2E
$GPGSA,A,2,01,03,08,27,,,,,,,,,2.1,1.8,1.0*37
$GNGSA,A,3,01,03,08,27,,,,,,,,,2.1,1.8,1.0,1*35
$GNGSA,A,2,68,69,73,,,,,,,,,,2.1,1.8,1.0,2*3D
$GNVTG,,T,,M,0.0,N,0.0,K,A*3D
$GNRMC,141045.00,A,5211.720301,N,00008.715034,E,0.0,,160426,3.2,W,A,V*62
$GNGGA,141045.00,5211.720301,N,00008.715034,E,1,07,1.8,14.9,M,47.0,M,,*4A
$GPGSV,3,1,12,01,46,264,24,03,11,210,29,08,60,161,23,27,29,140,21*77
$GPGSV,3,2,12,02,81,298,,10,35,052,,14,25,307,,17,01,306,*77
$GPGSV,3,3,12,22,17,320,,23,01,042,,24,00,019,,32,29,097,*71
$GPGSV,3,1,12,01,46,264,20,03,11,210,26,08,60,161,19,27,29,140,18,1*62
$GPGSV,3,2,12,02,81,298,,10,35,052,,14,25,307,,17,01,306,,1*6A
$GPGSV,3,3,12,22,17,320,,23,01,042,,24,00,000,,32,29,097,,1*64
$GLGSV,2,1,08,73,12,233,21,69,07,167,12,68,42,129,18,66,02,012,,1*74
$GLGSV,2,2,08,82,23,090,,75,18,336,,83,71,037,,67,42,053,,1*77
$GAGSV,3,1,09,03,10,130,,05,23,080,,06,01,008,,09,12,028,,7*7B
$GAGSV,3,2,09,13,21,257,,15,75,275,,21,30,307,,27,45,239,,7*74
$GAGSV,3,3,09,30,17,188,,7*4E
$PQGSV,1,1,0,0*43
$PQGSV,3,1,11,05,11,113,,08,09,032,,11,87,344,,12,35,105,,0*7A
$PQGSV,3,2,11,13,21,039,,14,08,182,,21,50,101,,22,23,040,,0*7C
$PQGSV,3,3,11,23,16,264,,25,00,000,,28,01,286,,0*45
$GPGGA,141046.00,5211.720301,N,00008.715034,E,1,04,1.8,14.9,M,47.0,M,,*54
$GPVTG,0.0,T,3.3,M,0.0,N,0.0,K,A*23
$GPRMC,141046.00,A,5211.720301,N,00008.715034,E,0.0,0.0,160426,3.3,W,A*2A
$GPGSA,A,2,01,03,08,27,,,,,,,,,2.1,1.8,1.0*37
$GNGSA,A,3,01,03,08,27,,,,,,,,,2.1,1.8,1.0,1*35
$GNGSA,A,2,68,69,73,,,,,,,,,,2.1,1.8,1.0,2*3D
$GNVTG,,T,,M,0.0,N,0.0,K,A*3D
$GNRMC,141046.00,A,5211.720301,N,00008.715034,E,0.0,,160426,3.2,W,A,V*61
$GNGGA,141046.00,5211.720301,N,00008.715034,E,1,07,1.8,14.9,M,47.0,M,,*49
$GPGSV,3,1,12,01,46,264,23,03,11,210,29,08,60,161,24,27,29,140,22*74
$GPGSV,3,2,12,02,81,298,,10,35,052,,14,25,307,,17,01,306,*77
$GPGSV,3,3,12,22,17,320,,23,01,042,,24,00,019,,32,29,097,*71
$GPGSV,3,1,12,01,46,264,19,03,11,210,26,08,60,161,21,27,29,140,19,1*62
$GPGSV,3,2,12,02,81,298,,10,35,052,,14,25,307,,17,01,306,,1*6A
$GPGSV,3,3,12,22,17,320,,23,01,042,,24,00,000,,32,29,097,,1*64
$GLGSV,2,1,08,73,12,233,20,69,07,167,12,68,42,129,19,66,02,012,,1*74
$GLGSV,2,2,08,82,23,090,,75,18,336,,83,71,037,,67,42,053,,1*77
$GAGSV,3,1,09,03,10,130,,05,23,080,,06,01,008,,09,12,028,,7*7B
$GAGSV,3,2,09,13,21,257,,15,75,275,,21,30,307,,27,45,239,,7*74
$GAGSV,3,3,09,30,17,188,,7*4E
$PQGSV,1,1,0,0*43
$PQGSV,3,1,11,05,11,113,,08,09,032,,11,87,344,,12,35,105,,0*7A
$PQGSV,3,2,11,13,21,039,,14,08,182,,21,50,101,,22,23,040,,0*7C
$PQGSV,3,3,11,23,16,264,,25,00,000,,28,01,286,,0*45
$GPGGA,141047.00,5211.720301,N,00008.715033,E,1,04,1.8,14.9,M,47.0,M,,*52
$GPVTG,0.0,T,3.3,M,0.0,N,0.0,K,A*23
$GPRMC,141047.00,A,5211.720301,N,00008.715033,E,0.0,0.0,160426,3.3,W,A*2C
$GPGSA,A,2,01,03,08,27,,,,,,,,,2.1,1.8,1.0*37
$GNGSA,A,3,01,03,08,27,,,,,,,,,2.1,1.8,1.0,1*35
$GNGSA,A,2,68,69,73,,,,,,,,,,2.1,1.8,1.0,2*3D
$GNVTG,,T,,M,0.0,N,0.0,K,A*3D
$GNRMC,141047.00,A,5211.720301,N,00008.715033,E,0.0,,160426,3.2,W,A,V*67
$GNGGA,141047.00,5211.720301,N,00008.715033,E,1,07,1.8,14.9,M,47.0,M,,*4F
$GPGSV,3,1,12,01,46,264,22,03,11,210,29,08,60,161,23,27,29,140,21*71
$GPGSV,3,2,12,02,81,298,,10,35,052,,14,25,307,,17,01,306,*77
$GPGSV,3,3,12,22,17,320,,23,01,042,,24,00,019,,32,29,097,*71
$GPGSV,3,1,12,01,46,264,18,03,11,210,26,08,60,161,19,27,29,140,18,1*69
$GPGSV,3,2,12,02,81,298,,10,35,052,,14,25,307,,17,01,306,,1*6A
$GPGSV,3,3,12,22,17,320,,23,01,042,,24,00,000,,32,29,097,,1*64
$GLGSV,2,1,08,73,12,233,21,69,07,167,12,68,42,129,19,66,02,012,,1*75
$GLGSV,2,2,08,82,23,090,,75,18,336,,83,71,037,,67,42,053,,1*77
$GAGSV,3,1,09,03,10,130,,05,23,080,,06,01,008,,09,12,028,,7*7B
$GAGSV,3,2,09,13,21,257,,15,75,275,,21,30,307,,27,45,239,,7*74
$GAGSV,3,3,09,30,17,188,,7*4E
$PQGSV,1,1,0,0*43
$PQGSV,3,1,11,05,11,113,,08,09,032,,11,87,344,,12,35,105,,0*7A
$PQGSV,3,2,11,13,21,039,,14,08,182,,21,50,101,,22,23,040,,0*7C
$PQGSV,3,3,11,23,16,264,,25,00,000,,28,01,286,,0*45
$GPGGA,141048.00,5211.720301,N,00008.715034,E,1,04,2.0,14.9,M,47.0,M,,*51
$GPVTG,0.0,T,3.3,M,0.0,N,0.0,K,A*23
$GPRMC,141048.00,A,5211.720301,N,00008.715034,E,0.0,0.0,160426,3.3,W,A*24
$GPGSA,A,2,01,03,08,27,,,,,,,,,2.2,2.0,1.0*3F
$GNGSA,A,3,01,03,08,27,,,,,,,,,2.2,2.0,1.0,1*3D
$GNGSA,A,2,68,73,,,,,,,,,,,2.2,2.0,1.0,2*3A
$GNVTG,,T,,M,0.0,N,0.0,K,A*3D
$GNRMC,141048.00,A,5211.720302,N,00008.715034,E,0.0,,160426,3.2,W,A,V*6C
$GNGGA,141048.00,5211.720302,N,00008.715034,E,1,06,2.0,14.9,M,47.0,M,,*4E
$GPGSV,3,1,12,01,46,264,21,03,11,210,29,08,60,161,23,27,29,140,23*70
$GPGSV,3,2,12,02,81,298,,10,35,052,,14,25,307,,17,01,306,*77
$GPGSV,3,3,12,22,17,320,,23,01,042,,24,00,019,,32,29,097,*71
$GPGSV,3,1,12,01,46,264,18,03,11,210,26,08,60,161,19,27,29,140,19,1*68
$GPGSV,3,2,12,02,81,298,,10,35,052,,14,25,307,,17,01,306,,1*6A
$GPGSV,3,3,12,22,17,320,,23,01,042,,24,00,000,,32,29,097,,1*64
$GLGSV,2,1,08,73,12,233,21,69,07,167,12,68,42,129,19,66,02,012,,1*75
$GLGSV,2,2,08,82,23,090,,75,18,336,,83,71,037,,67,42,053,,1*77
$GAGSV,3,1,09,03,10,130,,05,23,080,,06,01,008,,09,12,028,,7*7B
$GAGSV,3,2,09,13,21,257,,15,75,275,,21,30,307,,27,45,239,,7*74
$GAGSV,3,3,09,30,17,188,,7*4E
$PQGSV,1,1,0,0*43
$PQGSV,3,1,11,05,11,113,,08,09,032,,11,87,344,,12,35,105,,0*7A
$PQGSV,3,2,11,13,21,039,,14,08,182,,21,50,101,,22,23,040,,0*7C
$PQGSV,3,3,11,23,16,264,,25,00,000,,28,01,286,,0*45
$GPGGA,141049.00,5211.720302,N,00008.715034,E,1,04,2.0,14.9,M,47.0,M,,*53
$GPVTG,0.0,T,3.3,M,0.0,N,0.0,K,A*23
$GPRMC,141049.00,A,5211.720302,N,00008.715034,E,0.0,0.0,160426,3.3,W,A*26
$GPGSA,A,2,01,03,08,27,,,,,,,,,2.2,2.0,1.0*3F
$GNGSA,A,3,01,03,08,27,,,,,,,,,2.2,2.0,1.0,1*3D
$GNGSA,A,2,68,73,,,,,,,,,,,2.2,2.0,1.0,2*3A
$GNVTG,,T,,M,0.0,N,0.0,K,A*3D
$GNRMC,141049.00,A,5211.720302,N,00008.715034,E,0.0,,160426,3.2,W,A,V*6D
$GNGGA,141049.00,5211.720302,N,00008.715034,E,1,06,2.0,14.9,M,47.0,M,,*4F
$GPGSV,3,1,12,01,46,264,22,03,11,210,30,08,60,161,24,27,29,140,23*7C
$GPGSV,3,2,12,02,81,298,,10,35,052,,14,25,307,,17,01,306,*77
$GPGSV,3,3,12,22,17,320,,23,01,042,,24,00,019,,32,29,097,*71
$GPGSV,3,1,12,01,46,264,19,03,11,210,27,08,60,161,21,27,29,140,19,1*63
$GPGSV,3,2,12,02,81,298,,10,35,052,,14,25,307,,17,01,306,,1*6A
$GPGSV,3,3,12,22,17,320,,23,01,042,,24,00,000,,32,29,097,,1*64
$GLGSV,2,1,08,73,12,233,21,69,07,167,12,68,42,129,18,66,02,012,,1*74
$GLGSV,2,2,08,82,23,090,,75,18,336,,83,71,037,,67,42,053,,1*77
$GAGSV,3,1,09,03,10,130,,05,23,080,,06,01,008,,09,12,028,,7*7B
$GAGSV,3,2,09,13,21,257,,15,75,275,,21,30,307,,27,45,239,,7*74
$GAGSV,3,3,09,30,17,188,,7*4E
$PQGSV,1,1,0,0*43
$PQGSV,3,1,11,05,11,113,,08,09,032,,11,87,344,,12,35,105,,0*7A
$PQGSV,3,2,11,13,21,039,,14,08,182,,21,50,101,,22,23,040,,0*7C
$PQGSV,3,3,11,23,16,264,,25,00,000,,28,01,286,,0*45
$GPGGA,141050.00,5211.720301,N,00008.715035,E,1,04,2.0,14.9,M,47.0,M,,*59
$GPVTG,0.0,T,3.3,M,0.0,N,0.0,K,A*23
$GPRMC,141050.00,A,5211.720301,N,00008.715035,E,0.0,0.0,160426,3.3,W,A*2C
$GPGSA,A,2,01,03,08,27,,,,,,,,,2.2,2.0,1.0*3F
$GNGSA,A,3,01,03,08,27,,,,,,,,,2.2,2.0,1.0,1*3D
$GNGSA,A,2,68,73,,,,,,,,,,,2.2,2.0,1.0,2*3A
$GNVTG,,T,,M,0.0,N,0.0,K,A*3D
$GNRMC,141050.00,A,5211.720301,N,00008.715035,E,0.0,,160426,3.2,W,A,V*67
$GNGGA,141050.00,5211.720301,N,00008.715035,E,1,06,2.0,14.9,M,47.0,M,,*45
$GPGSV,3,1,12,01,46,264,22,03,11,210,29,08,60,161,23,27,29,140,20*70
$GPGSV,3,2,12,02,81,298,,10,35,052,,14,25,307,,17,01,306,*77
$GPGSV,3,3,12,22,17,320,,23,01,042,,24,00,019,,32,29,097,*71
$GPGSV,3,1,12,01,46,264,19,03,11,210,26,08,60,161,20,27,29,140,17,1*6D
$GPGSV,3,2,12,02,81,298,,10,35,052,,14,25,307,,17,01,306,,1*6A
$GPGSV,3,3,12,22,17,320,,23,01,042,,24,00,000,,32,29,097,,1*64
$GLGSV,2,1,08,73,12,233,21,69,07,167,12,68,42,129,19,66,02,012,,1*75
$GLGSV,2,2,08,82,23,090,,75,18,336,,83,71,037,,67,42,053,,1*77
$GAGSV,3,1,09,03,10,130,,05,23,080,,06,01,008,,09,12,028,,7*7B
$GAGSV,3,2,09,13,21,257,,15,75,275,,21,30,307,,27,45,239,,7*74
$GAGSV,3,3,09,30,17,188,,7*4E
$PQGSV,1,1,0,0*43
$PQGSV,3,1,11,05,11,113,,08,09,032,,11,87,344,,12,35,105,,0*7A
$PQGSV,3,2,11,13,21,039,,14,08,182,,21,50,101,,22,23,040,,0*7C
$PQGSV,3,3,11,23,16,264,,25,00,000,,28,01,286,,0*45
$GPGGA,141051.00,5211.720301,N,00008.715037,E,1,04,2.0,14.9,M,47.0,M,,*5A
$GPVTG,0.0,T,3.3,M,0.0,N,0.0,K,A*23
$GPRMC,141051.00,A,5211.720301,N,00008.715037,E,0.0,0.0,160426,3.3,W,A*2F
$GPGSA,A,2,01,03,08,27,,,,,,,,,2.2,2.0,1.0*3F
$GNGSA,A,3,01,03,08,27,,,,,,,,,2.2,2.0,1.0,1*3D
$GNGSA,A,2,68,73,,,,,,,,,,,2.2,2.0,1.0,2*3A
$GNVTG,,T,,M,0.0,N,0.0,K,A*3D
$GNRMC,141051.00,A,5211.720302,N,00008.715037,E,0.0,,160426,3.2,W,A,V*67
$GNGGA,141051.00,5211.720302,N,00008.715037,E,1,06,2.0,14.9,M,47.0,M,,*45
$GPGSV,3,1,12,01,46,264,21,03,11,210,29,08,60,161,23,27,29,140,22*71
$GPGSV,3,2,12,02,81,298,,10,35,052,,14,25,307,,17,01,306,*77
$GPGSV,3,3,12,22,17,320,,23,01,042,,24,00,019,,32,29,097,*71
$GPGSV,3,1,12,01,46,264,18,03,11,210,26,08,60,161,20,27,29,140,18,1*63
$GPGSV,3,2,12,02,81,298,,10,35,052,,14,25,307,,17,01,306,,1*6A
$GPGSV,3,3,12,22,17,320,,23,01,042,,24,00,000,,32,29,097,,1*64
$GLGSV,2,1,08,73,12,233,22,69,07,167,12,68,42,129,19,66,02,012,,1*76
$GLGSV,2,2,08,82,23,090,,75,18,336,,83,71,037,,67,42,053,,1*77
$GAGSV,3,1,09,03,10,130,,05,23,080,,06,01,008,,09,12,028,,7*7B
$GAGSV,3,2,09,13,21,257,,15,75,275,,21,30,307,,27,45,239,,7*74
$GAGSV,3,3,09,30,17,188,,7*4E
$PQGSV,1,1,0,0*43
$PQGSV,3,1,11,05,11,113,,08,09,032,,11,87,344,,12,35,105,,0*7A
$PQGSV,3,2,11,13,21,039,,14,08,182,,21,50,101,,22,23,040,,0*7C
$PQGSV,3,3,11,23,16,264,,25,00,000,,28,01,286,,0*45
$GPGGA,141052.00,5211.720302,N,00008.715037,E,1,04,2.0,14.9,M,47.0,M,,*5A
$GPVTG,0.0,T,3.3,M,0.0,N,0.0,K,A*23
$GPRMC,141052.00,A,5211.720302,N,00008.715037,E,0.0,0.0,160426,3.3,W,A*2F
$GPGSA,A,2,01,03,08,27,,,,,,,,,2.2,2.0,1.0*3F
$GNGSA,A,3,01,03,08,27,,,,,,,,,2.2,2.0,1.0,1*3D
$GNGSA,A,2,68,73,,,,,,,,,,,2.2,2.0,1.0,2*3A
$GNVTG,,T,,M,0.0,N,0.0,K,A*3D
$GNRMC,141052.00,A,5211.720302,N,00008.715037,E,0.0,,160426,3.2,W,A,V*64
$GNGGA,141052.00,5211.720302,N,00008.715037,E,1,06,2.0,14.9,M,47.0,M,,*46
$GPGSV,3,1,12,01,46,264,22,03,11,210,29,08,60,161,23,27,29,140,22*72
$GPGSV,3,2,12,02,81,298,,10,35,052,,14,25,307,,17,01,306,*77
$GPGSV,3,3,12,22,17,320,,23,01,042,,24,00,019,,32,29,097,*71
$GPGSV,3,1,12,01,46,264,19,03,11,210,26,08,60,161,19,27,29,140,18,1*68
$GPGSV,3,2,12,02,81,298,,10,35,052,,14,25,307,,17,01,306,,1*6A
$GPGSV,3,3,12,22,17,320,,23,01,042,,24,00,000,,32,29,097,,1*64
$GLGSV,2,1,08,73,12,233,22,69,07,167,12,68,42,129,17,66,02,012,,1*78
$GLGSV,2,2,08,82,23,090,,75,18,336,,83,71,037,,67,42,053,,1*77
$GAGSV,3,1,09,03,10,130,,05,23,080,,06,01,008,,09,12,028,,7*7B
$GAGSV,3,2,09,13,21,257,,15,75,275,,21,30,307,,27,45,239,,7*74
$GAGSV,3,3,09,30,17,188,,7*4E
$PQGSV,1,1,0,0*43
$PQGSV,3,1,11,05,11,113,,08,09,032,,11,87,344,,12,35,105,,0*7A
$PQGSV,3,2,11,13,21,039,,14,08,182,,21,50,101,,22,23,040,,0*7C
$PQGSV,3,3,11,23,16,264,,25,00,000,,28,01,286,,0*45
$GPGGA,141053.00,5211.720302,N,00008.715038,E,1,04,2.0,14.9,M,47.0,M,,*54
$GPVTG,0.0,T,3.3,M,0.0,N,0.0,K,A*23
$GPRMC,141053.00,A,5211.720302,N,00008.715038,E,0.0,0.0,160426,3.3,W,A*21
$GPGSA,A,2,01,03,08,27,,,,,,,,,2.2,2.0,1.0*3F
$GNGSA,A,3,01,03,08,27,,,,,,,,,2.2,2.0,1.0,1*3D
$GNGSA,A,2,68,73,,,,,,,,,,,2.2,2.0,1.0,2*3A
$GNVTG,,T,,M,0.0,N,0.0,K,A*3D
$GNRMC,141053.00,A,5211.720302,N,00008.715038,E,0.0,,160426,3.2,W,A,V*6A
$GNGGA,141053.00,5211.720302,N,00008.715038,E,1,06,2.0,14.9,M,47.0,M,,*48
$GPGSV,3,1,12,01,46,264,24,03,11,210,30,08,60,161,24,27,29,140,22*7B
$GPGSV,3,2,12,02,81,298,,10,35,052,,14,25,307,,17,01,306,*77
$GPGSV,3,3,12,22,17,320,,23,01,042,,24,00,019,,32,29,097,*71
$GPGSV,3,1,12,01,46,264,20,03,11,210,27,08,60,161,21,27,29,140,18,1*68
$GPGSV,3,2,12,02,81,298,,10,35,052,,14,25,307,,17,01,306,,1*6A
$GPGSV,3,3,12,22,17,320,,23,01,042,,24,00,000,,32,29,097,,1*64
$GLGSV,2,1,08,73,12,233,20,69,07,167,10,68,42,129,18,66,02,012,,1*77
$GLGSV,2,2,08,82,23,090,,75,18,336,,83,71,037,,67,42,053,,1*77
$GAGSV,3,1,09,03,10,130,,05,23,080,,06,01,008,,09,12,028,,7*7B
$GAGSV,3,2,09,13,21,257,,15,75,275,,21,30,307,,27,45,239,,7*74
$GAGSV,3,3,09,30,17,188,,7*4E
$PQGSV,1,1,0,0*43
$PQGSV,3,1,11,05,11,113,,08,09,032,,11,87,344,,12,35,105,,0*7A
$PQGSV,3,2,11,13,21,039,,14,08,182,,21,50,101,,22,23,040,,0*7C
$PQGSV,3,3,11,23,16,264,,25,00,000,,28,01,286,,0*45
$GPGGA,141054.00,5211.720301,N,00008.715039,E,1,04,1.8,14.9,M,47.0,M,,*5A
$GPVTG,0.0,T,3.3,M,0.0,N,0.0,K,A*23
$GPRMC,141054.00,A,5211.720301,N,00008.715039,E,0.0,0.0,160426,3.3,W,A*24
$GPGSA,A,2,01,03,08,27,,,,,,,,,2.1,1.8,1.0*37
$GNGSA,A,3,01,03,08,27,,,,,,,,,2.1,1.8,1.0,1*35
$GNGSA,A,2,68,69,73,,,,,,,,,,2.1,1.8,1.0,2*3D
$GNVTG,,T,,M,0.0,N,0.0,K,A*3D
$GNRMC,141054.00,A,5211.720301,N,00008.715039,E,0.0,,160426,3.2,W,A,V*6F
$GNGGA,141054.00,5211.720301,N,00008.715039,E,1,07,1.8,14.9,M,47.0,M,,*47
$GPGSV,3,1,12,01,46,264,23,03,11,210,30,08,60,161,25,27,29,140,22*7D
$GPGSV,3,2,12,02,81,298,,10,35,052,,14,25,307,,17,01,306,*77
$GPGSV,3,3,12,22,17,320,,23,01,042,,24,00,019,,32,29,097,*71
$GPGSV,3,1,12,01,46,264,19,03,11,210,26,08,60,161,21,27,29,140,19,1*62
$GPGSV,3,2,12,02,81,298,,10,35,052,,14,25,307,,17,01,306,,1*6A
$GPGSV,3,3,12,22,17,320,,23,01,042,,24,00,000,,32,29,097,,1*64
$GLGSV,2,1,08,73,12,233,20,69,07,167,10,68,42,129,18,66,02,012,,1*77
$GLGSV,2,2,08,82,23,090,,75,18,336,,83,71,037,,67,42,053,,1*77
$GAGSV,3,1,09,03,10,130,,05,23,080,,06,01,008,,09,12,028,,7*7B
$GAGSV,3,2,09,13,21,257,,15,75,275,,21,30,307,,27,45,239,,7*74
$GAGSV,3,3,09,30,17,188,,7*4E
$PQGSV,1,1,0,0*43
$PQGSV,3,1,11,05,11,113,,08,09,032,,11,87,344,,12,35,105,,0*7A
$PQGSV,3,2,11,13,21,039,,14,08,182,,21,50,101,,22,23,040,,0*7C
$PQGSV,3,3,11,23,16,264,,25,00,000,,28,01,286,,0*45
$GPGGA,141055.00,5211.720301,N,00008.715040,E,1,04,1.8,14.9,M,47.0,M,,*55
$GPVTG,0.0,T,3.3,M,0.0,N,0.0,K,A*23
$GPRMC,141055.00,A,5211.720301,N,00008.715040,E,0.0,0.0,160426,3.3,W,A*2B
$GPGSA,A,2,01,03,08,27,,,,,,,,,2.1,1.8,1.0*37
$GNGSA,A,3,01,03,08,27,,,,,,,,,2.1,1.8,1.0,1*35
$GNGSA,A,2,68,69,73,,,,,,,,,,2.1,1.8,1.0,2*3D
$GNVTG,,T,,M,0.0,N,0.0,K,A*3D
$GNRMC,141055.00,A,5211.720301,N,00008.715040,E,0.0,,160426,3.2,W,A,V*60
$GNGGA,141055.00,5211.720301,N,00008.715040,E,1,07,1.8,14.9,M,47.0,M,,*48
$GPGSV,3,1,12,01,46,264,24,03,11,210,30,08,60,161,24,27,29,140,22*7B
$GPGSV,3,2,12,02,81,298,,10,35,052,,14,25,307,,17,01,306,*77
$GPGSV,3,3,12,22,17,320,,23,01,042,,24,00,019,,32,29,097,*71
$GPGSV,3,1,12,01,46,264,21,03,11,210,26,08,60,161,20,27,29,140,18,1*69
$GPGSV,3,2,12,02,81,298,,10,35,052,,14,25,307,,17,01,306,,1*6A
$GPGSV,3,3,12,22,17,320,,23,01,042,,24,00,000,,32,29,097,,1*64
$GLGSV,2,1,08,73,12,233,20,69,07,167,10,68,42,129,19,66,02,012,,1*76
$GLGSV,2,2,08,82,23,090,,75,18,336,,83,71,037,,67,42,053,,1*77
$GAGSV,3,1,09,03,10,130,,05,23,080,,06,01,008,,09,12,028,,7*7B
$GAGSV,3,2,09,13,21,257,,15,75,275,,21,30,307,,27,45,239,,7*74
$GAGSV,3,3,09,30,17,188,,7*4E
$PQGSV,1,1,0,0*43
$PQGSV,3,1,11,05,11,113,,08,09,032,,11,87,344,,12,35,105,,0*7A
$PQGSV,3,2,11,13,21,039,,14,08,182,,21,50,101,,22,23,040,,0*7C
$PQGSV,3,3,11,23,16,264,,25,00,000,,28,01,286,,0*45
$GPGGA,141056.00,5211.720301,N,00008.715040,E,1,04,1.8,14.9,M,47.0,M,,*56
$GPVTG,0.0,T,3.3,M,0.0,N,0.0,K,A*23
$GPRMC,141056.00,A,5211.720301,N,00008.715040,E,0.0,0.0,160426,3.3,W,A*28
$GPGSA,A,2,01,03,08,27,,,,,,,,,2.1,1.8,1.0*37
$GNGSA,A,3,01,03,08,27,,,,,,,,,2.1,1.8,1.0,1*35
$GNGSA,A,2,68,69,73,,,,,,,,,,2.1,1.8,1.0,2*3D
$GNVTG,,T,,M,0.0,N,0.0,K,A*3D
$GNRMC,141056.00,A,5211.720301,N,00008.715040,E,0.0,,160426,3.2,W,A,V*63
$GNGGA,141056.00,5211.720301,N,00008.715040,E,1,07,1.8,14.9,M,47.0,M,,*4B
$GPGSV,3,1,12,01,46,264,22,03,11,210,30,08,60,161,24,27,29,140,21*7E
$GPGSV,3,2,12,02,81,298,,10,35,052,,14,25,307,,17,01,306,*77
$GPGSV,3,3,12,22,17,320,,23,01,042,,24,00,019,,32,29,097,*71
$GPGSV,3,1,12,01,46,264,19,03,11,210,27,08,60,161,20,27,29,140,18,1*63
$GPGSV,3,2,12,02,81,298,,10,35,052,,14,25,307,,17,01,306,,1*6A
$GPGSV,3,3,12,22,17,320,,23,01,042,,24,00,000,,32,29,097,,1*64
$GLGSV,2,1,08,73,12,233,20,69,07,167,10,68,42,129,19,66,02,012,,1*76
$GLGSV,2,2,08,82,23,090,,75,18,336,,83,71,037,,67,42,053,,1*77
$GAGSV,3,1,09,03,10,130,,05,23,080,,06,01,008,,09,12,028,,7*7B
$GAGSV,3,2,09,13,21,257,,15,75,275,,21,30,307,,27,45,239,,7*74
$GAGSV,3,3,09,30,17,188,,7*4E
$PQGSV,1,1,0,0*43
$PQGSV,3,1,11,05,11,113,,08,09,032,,11,87,344,,12,35,105,,0*7A
$PQGSV,3,2,11,13,21,039,,14,08,182,,21,50,101,,22,23,040,,0*7C
$PQGSV,3,3,11,23,16,264,,25,00,000,,28,01,286,,0*45
$GPGGA,141057.00,5211.720301,N,00008.715040,E,1,04,1.8,14.9,M,47.0,M,,*57
$GPVTG,0.0,T,3.3,M,0.0,N,0.0,K,A*23
$GPRMC,141057.00,A,5211.720301,N,00008.715040,E,0.0,0.0,160426,3.3,W,A*29
$GPGSA,A,2,01,03,08,27,,,,,,,,,2.1,1.8,1.0*37
$GNGSA,A,3,01,03,08,27,,,,,,,,,2.1,1.8,1.0,1*35
$GNGSA,A,2,68,69,73,,,,,,,,,,2.1,1.8,1.0,2*3D
$GNVTG,,T,,M,0.0,N,0.0,K,A*3D
$GNRMC,141057.00,A,5211.720301,N,00008.715040,E,0.0,,160426,3.2,W,A,V*62
$GNGGA,141057.00,5211.720301,N,00008.715040,E,1,07,1.8,14.9,M,47.0,M,,*4A
$GPGSV,3,1,12,01,46,264,23,03,11,210,29,08,60,161,22,27,29,140,22*72
$GPGSV,3,2,12,02,81,298,,10,35,052,,14,25,307,,17,01,306,*77
$GPGSV,3,3,12,22,17,320,,23,01,042,,24,00,019,,32,29,097,*71
$GPGSV,3,1,12,01,46,264,19,03,11,210,26,08,60,161,19,27,29,140,19,1*69
$GPGSV,3,2,12,02,81,298,,10,35,052,,14,25,307,,17,01,306,,1*6A
$GPGSV,3,3,12,22,17,320,,23,01,042,,24,00,000,,32,29,097,,1*64
$GLGSV,2,1,08,73,12,233,20,69,07,167,13,68,42,129,18,66,02,012,,1*74
$GLGSV,2,2,08,82,23,090,,75,18,336,,83,71,037,,67,42,053,,1*77
$GAGSV,3,1,09,03,10,130,,05,23,080,,06,01,008,,09,12,028,,7*7B
$GAGSV,3,2,09,13,21,257,,15,75,275,,21,30,307,,27,45,239,,7*74
$GAGSV,3,3,09,30,17,188,,7*4E
$PQGSV,1,1,0,0*43
$PQGSV,3,1,11,05,11,113,,08,09,032,,11,87,344,,12,35,105,,0*7A
$PQGSV,3,2,11,13,21,039,,14,08,182,,21,50,101,,22,23,040,,0*7C
$PQGSV,3,3,11,23,16,264,,25,00,000,,28,01,286,,0*45
$GPGGA,141058.00,5211.720301,N,00008.715041,E,1,04,1.8,14.9,M,47.0,M,,*59
$GPVTG,0.0,T,3.3,M,0.0,N,0.0,K,A*23
$GPRMC,141058.00,A,5211.720301,N,00008.715041,E,0.0,0.0,160426,3.3,W,A*27
$GPGSA,A,2,01,03,08,27,,,,,,,,,2.1,1.8,1.0*37
$GNGSA,A,3,01,03,08,27,,,,,,,,,2.1,1.8,1.0,1*35
$GNGSA,A,2,68,69,73,,,,,,,,,,2.1,1.8,1.0,2*3D
$GNVTG,,T,,M,0.0,N,0.0,K,A*3D
$GNRMC,141058.00,A,5211.720300,N,00008.715041,E,0.0,,160426,3.2,W,A,V*6D
$GNGGA,141058.00,5211.720300,N,00008.715041,E,1,07,1.8,14.9,M,47.0,M,,*45
$GPGSV,3,1,12,01,46,264,24,03,11,210,29,08,60,161,23,27,29,140,23*75
$GPGSV,3,2,12,02,81,298,,10,35,052,,14,25,307,,17,01,306,*77
$GPGSV,3,3,12,22,17,320,,23,01,042,,24,00,019,,32,29,097,*71
$GPGSV,3,1,12,01,46,264,20,03,11,210,26,08,60,161,20,27,29,140,19,1*69
$GPGSV,3,2,12,02,81,298,,10,35,052,,14,25,307,,17,01,306,,1*6A
$GPGSV,3,3,12,22,17,320,,23,01,042,,24,00,000,,32,29,097,,1*64
$GLGSV,2,1,08,73,12,233,21,69,07,167,13,68,42,129,19,66,02,012,,1*74
$GLGSV,2,2,08,82,23,090,,75,18,336,,83,71,037,,67,42,053,,1*77
$GAGSV,3,1,09,03,10,130,,05,23,080,,06,01,008,,09,12,028,,7*7B
$GAGSV,3,2,09,13,21,257,,15,75,275,,21,30,307,,27,45,239,,7*74
$GAGSV,3,3,09,30,17,188,,7*4E
$PQGSV,1,1,0,0*43
$PQGSV,3,1,11,05,11,113,,08,09,032,,11,87,344,,12,35,105,,0*7A
$PQGSV,3,2,11,13,21,039,,14,08,182,,21,50,101,,22,23,040,,0*7C
$PQGSV,3,3,11,23,16,264,,25,00,000,,28,01,286,,0*45
$GPGGA,141059.00,5211.720300,N,00008.715038,E,1,04,1.8,14.9,M,47.0,M,,*57
$GPVTG,0.0,T,3.3,M,0.0,N,0.0,K,A*23
$GPRMC,141059.00,A,5211.720300,N,00008.715038,E,0.0,0.0,160426,3.3,W,A*29
$GPGSA,A,2,01,03,08,27,,,,,,,,,2.1,1.8,1.0*37
$GNGSA,A,3,01,03,08,27,,,,,,,,,2.1,1.8,1.0,1*35
$GNGSA,A,2,68,69,73,,,,,,,,,,2.1,1.8,1.0,2*3D
$GNVTG,,T,,M,0.0,N,0.0,K,A*3D
$GNRMC,141059.00,A,5211.720300,N,00008.715038,E,0.0,,160426,3.2,W,A,V*62
$GNGGA,141059.00,5211.720300,N,00008.715038,E,1,07,1.8,14.9,M,47.0,M,,*4A
$GPGSV,3,1,12,01,46,264,21,03,11,210,29,08,60,161,23,27,29,140,23*70
$GPGSV,3,2,12,02,81,298,,10,35,052,,14,25,307,,17,01,306,*77
$GPGSV,3,3,12,22,17,320,,23,01,042,,24,00,019,,32,29,097,*71
$GPGSV,3,1,12,01,46,264,18,03,11,210,26,08,60,161,19,27,29,140,19,1*68
$GPGSV,3,2,12,02,81,298,,10,35,052,,14,25,307,,17,01,306,,1*6A
$GPGSV,3,3,12,22,17,320,,23,01,042,,24,00,000,,32,29,097,,1*64
$GLGSV,2,1,08,73,12,233,20,69,07,167,13,68,42,129,17,66,02,012,,1*7B
$GLGSV,2,2,08,82,23,090,,75,18,336,,83,71,037,,67,42,053,,1*77
$GAGSV,3,1,09,03,10,130,,05,23,080,,06,01,008,,09,12,028,,7*7B
$GAGSV,3,2,09,13,21,257,,15,75,275,,21,30,307,,27,45,239,,7*74
$GAGSV,3,3,09,30,17,188,,7*4E
$PQGSV,1,1,0,0*43
$PQGSV,3,1,11,05,11,113,,08,09,032,,11,87,344,,12,35,105,,0*7A
$PQGSV,3,2,11,13,21,039,,14,08,182,,21,50,101,,22,23,040,,0*7C
$PQGSV,3,3,11,23,16,264,,25,00,000,,28,01,286,,0*45
$GPGGA,141100.00,5211.720300,N,00008.715037,E,1,04,1.8,14.9,M,47.0,M,,*55
$GPVTG,0.0,T,3.3,M,0.0,N,0.0,K,A*23
$GPRMC,141100.00,A,5211.720300,N,00008.715037,E,0.0,0.0,160426,3.3,W,A*2B
$GPGSA,A,2,01,03,08,27,,,,,,,,,2.1,1.8,1.0*37
$GNGSA,A,3,01,03,08,27,,,,,,,,,2.1,1.8,1.0,1*35
$GNGSA,A,2,68,69,73,,,,,,,,,,2.1,1.8,1.0,2*3D
$GNVTG,,T,,M,0.0,N,0.0,K,A*3D
$GNRMC,141100.00,A,5211.720300,N,00008.715037,E,0.0,,160426,3.2,W,A,V*60
$GNGGA,141100.00,5211.720300,N,00008.715037,E,1,07,1.8,14.9,M,47.0,M,,*48
$GPGSV,3,1,12,01,46,264,21,03,11,210,29,08,60,161,22,27,29,140,19*78
$GPGSV,3,2,12,02,81,298,,10,35,052,,14,25,307,,17,01,306,*77
$GPGSV,3,3,12,22,17,320,,23,01,042,,24,00,019,,32,29,097,*71
$GPGSV,3,1,12,01,46,264,18,03,11,210,26,08,60,161,18,27,29,140,16,1*66
$GPGSV,3,2,12,02,81,298,,10,35,052,,14,25,307,,17,01,306,,1*6A
$GPGSV,3,3,12,22,17,320,,23,01,042,,24,00,000,,32,29,097,,1*64
$GLGSV,2,1,08,73,12,233,20,69,07,167,13,68,42,129,17,66,02,012,,1*7B
$GLGSV,2,2,08,82,23,090,,75,18,336,,83,71,037,,67,42,053,,1*77
$GAGSV,3,1,09,03,10,130,,05,23,080,,06,01,008,,09,12,028,,7*7B
$GAGSV,3,2,09,13,21,257,,15,75,275,,21,30,307,,27,45,239,,7*74
$GAGSV,3,3,09,30,17,188,,7*4E
$PQGSV,1,1,0,0*43
$PQGSV,3,1,11,05,11,113,,08,09,032,,11,87,344,,12,35,105,,0*7A
$PQGSV,3,2,11,13,21,039,,14,08,182,,21,50,101,,22,23,040,,0*7C
$PQGSV,3,3,11,23,16,264,,25,00,000,,28,01,286,,0*45
$GPGGA,141101.00,5211.720300,N,00008.715037,E,1,04,1.8,14.9,M,47.0,M,,*54
$GPVTG,0.0,T,3.3,M,0.0,N,0.0,K,A*23
$GPRMC,141101.00,A,5211.720300,N,00008.715037,E,0.0,0.0,160426,3.3,W,A*2A
$GPGSA,A,2,01,03,08,27,,,,,,,,,2.1,1.8,1.0*37
$GNGSA,A,3,01,03,08,27,,,,,,,,,2.1,1.8,1.0,1*35
$GNGSA,A,2,68,69,73,,,,,,,,,,2.1,1.8,1.0,2*3D
$GNVTG,,T,,M,0.0,N,0.0,K,A*3D
$GNRMC,141101.00,A,5211.720300,N,00008.715037,E,0.0,,160426,3.2,W,A,V*61
$GNGGA,141101.00,5211.720300,N,00008.715037,E,1,07,1.8,14.9,M,47.0,M,,*49
$GPGSV,3,1,12,01,46,264,23,03,11,210,29,08,60,161,23,27,29,140,22*73
$GPGSV,3,2,12,02,81,298,,10,35,052,,14,25,307,,17,01,306,*77
$GPGSV,3,3,12,22,17,320,,23,01,042,,24,00,019,,32,29,097,*71
$GPGSV,3,1,12,01,46,264,19,03,11,210,26,08,60,161,19,27,29,140,18,1*68
$GPGSV,3,2,12,02,81,298,,10,35,052,,14,25,307,,17,01,306,,1*6A
$GPGSV,3,3,12,22,17,320,,23,01,042,,24,00,000,,32,29,097,,1*64
$GLGSV,2,1,08,73,12,233,21,69,07,167,13,68,42,129,16,66,02,012,,1*7B
$GLGSV,2,2,08,82,23,090,,75,18,336,,83,71,037,,67,42,053,,1*77
$GAGSV,3,1,09,03,10,130,,05,23,080,,06,01,008,,09,12,028,,7*7B
$GAGSV,3,2,09,13,21,257,,15,75,275,,21,30,307,,27,45,239,,7*74
$GAGSV,3,3,09,30,17,188,,7*4E
$PQGSV,1,1,0,0*43
$PQGSV,3,1,11,05,11,113,,08,09,032,,11,87,344,,12,35,105,,0*7A
$PQGSV,3,2,11,13,21,039,,14,08,182,,21,50,101,,22,23,040,,0*7C
$PQGSV,3,3,11,23,16,264,,25,00,000,,28,01,286,,0*45
$GPGGA,141102.00,5211.720300,N,00008.715038,E,1,04,1.8,14.9,M,47.0,M,,*58
$GPVTG,0.0,T,3.3,M,0.0,N,0.0,K,A*23
$GPRMC,141102.00,A,5211.720300,N,00008.715038,E,0.0,0.0,160426,3.3,W,A*26
$GPGSA,A,2,01,03,08,27,,,,,,,,,2.1,1.8,1.0*37
$GNGSA,A,3,01,03,08,27,,,,,,,,,2.1,1.8,1.0,1*35
$GNGSA,A,2,68,69,73,,,,,,,,,,2.1,1.8,1.0,2*3D
$GNVTG,,T,,M,0.0,N,0.0,K,A*3D
$GNRMC,141102.00,A,5211.720300,N,00008.715038,E,0.0,,160426,3.2,W,A,V*6D
$GNGGA,141102.00,5211.720300,N,00008.715038,E,1,07,1.8,14.9,M,47.0,M,,*45
$GPGSV,3,1,12,01,46,264,22,03,11,210,29,08,60,161,24,27,29,140,21*76
$GPGSV,3,2,12,02,81,298,,10,35,052,,14,25,307,,17,01,306,*77
$GPGSV,3,3,12,22,17,320,,23,01,042,,24,00,019,,32,29,097,*71
$GPGSV,3,1,12,01,46,264,19,03,11,210,25,08,60,161,20,27,29,140,18,1*61
$GPGSV,3,2,12,02,81,298,,10,35,052,,14,25,307,,17,01,306,,1*6A
$GPGSV,3,3,12,22,17,320,,23,01,042,,24,00,000,,32,29,097,,1*64
$GLGSV,2,1,08,73,12,233,22,69,07,167,13,68,42,129,16,66,02,012,,1*78
$GLGSV,2,2,08,82,23,090,,75,18,336,,83,71,037,,67,42,053,,1*77
$GAGSV,3,1,09,03,10,130,,05,23,080,,06,01,008,,09,12,028,,7*7B
$GAGSV,3,2,09,13,21,257,,15,75,275,,21,30,307,,27,45,239,,7*74
$GAGSV,3,3,09,30,17,188,,7*4E
$PQGSV,1,1,0,0*43
$PQGSV,3,1,11,05,11,113,,08,09,032,,11,87,344,,12,35,105,,0*7A
$PQGSV,3,2,11,13,21,039,,14,08,182,,21,50,101,,22,23,040,,0*7C
$PQGSV,3,3,11,23,16,264,,25,00,000,,28,01,286,,0*45
$GPGGA,141103.00,5211.720299,N,00008.715038,E,1,04,1.8,14.9,M,47.0,M,,*58
$GPVTG,0.0,T,3.3,M,0.0,N,0.0,K,A*23
$GPRMC,141103.00,A,5211.720299,N,00008.715038,E,0.0,0.0,160426,3.3,W,A*26
$GPGSA,A,2,01,03,08,27,,,,,,,,,2.1,1.8,1.0*37
$GNGSA,A,3,01,03,08,27,,,,,,,,,2.1,1.8,1.0,1*35
$GNGSA,A,2,68,69,73,,,,,,,,,,2.1,1.8,1.0,2*3D
$GNVTG,,T,,M,0.0,N,0.0,K,A*3D
$GNRMC,141103.00,A,5211.720299,N,00008.715038,E,0.0,,160426,3.2,W,A,V*6D
$GNGGA,141103.00,5211.720299,N,00008.715038,E,1,07,1.8,14.9,M,47.0,M,,*45
$GPGSV,3,1,12,01,46,264,22,03,11,210,29,08,60,161,24,27,29,140,21*76
$GPGSV,3,2,12,02,81,298,,10,35,052,,14,25,307,,17,01,306,*77
$GPGSV,3,3,12,22,17,320,,23,01,042,,24,00,019,,32,29,097,*71
$GPGSV,3,1,12,01,46,264,18,03,11,210,25,08,60,161,20,27,29,140,18,1*60
$GPGSV,3,2,12,02,81,298,,10,35,052,,14,25,307,,17,01,306,,1*6A
$GPGSV,3,3,12,22,17,320,,23,01,042,,24,00,000,,32,29,097,,1*64
$GLGSV,2,1,08,73,12,233,20,69,07,167,13,68,42,129,15,66,02,012,,1*79
$GLGSV,2,2,08,82,23,090,,75,18,336,,83,71,037,,67,42,053,,1*77
$GAGSV,3,1,09,03,10,130,,05,23,080,,06,01,008,,09,12,028,,7*7B
$GAGSV,3,2,09,13,21,257,,15,75,275,,21,30,307,,27,45,239,,7*74
$GAGSV,3,3,09,30,17,188,,7*4E
$PQGSV,1,1,0,0*43
$PQGSV,3,1,11,05,11,113,,08,09,032,,11,87,344,,12,35,105,,0*7A
$PQGSV,3,2,11,13,21,039,,14,08,182,,21,50,101,,22,23,040,,0*7C
$PQGSV,3,3,11,23,16,264,,25,00,000,,28,01,286,,0*45
$GPGGA,141104.00,5211.720299,N,00008.715040,E,1,04,2.0,14.9,M,47.0,M,,*5B
$GPVTG,0.0,T,3.3,M,0.0,N,0.0,K,A*23
$GPRMC,141104.00,A,5211.720299,N,00008.715040,E,0.0,0.0,160426,3.3,W,A*2E
$GPGSA,A,2,01,03,08,27,,,,,,,,,2.2,2.0,1.0*3F
$GNGSA,A,3,01,03,08,27,,,,,,,,,2.2,2.0,1.0,1*3D
$GNGSA,A,2,68,73,,,,,,,,,,,2.2,2.0,1.0,2*3A
$GNVTG,,T,,M,0.0,N,0.0,K,A*3D
$GNRMC,141104.00,A,5211.720299,N,00008.715040,E,0.0,,160426,3.2,W,A,V*65
$GNGGA,141104.00,5211.720299,N,00008.715040,E,1,06,2.0,14.9,M,47.0,M,,*47
$GPGSV,3,1,12,01,46,264,23,03,11,210,29,08,60,161,23,27,29,140,20*71
$GPGSV,3,2,12,02,81,298,,10,35,052,,14,25,307,,17,01,306,*77
$GPGSV,3,3,12,22,17,320,,23,01,042,,24,00,019,,32,29,097,*71
$GPGSV,3,1,12,01,46,264,19,03,11,210,25,08,60,161,19,27,29,140,17,1*64
$GPGSV,3,2,12,02,81,298,,10,35,052,,14,25,307,,17,01,306,,1*6A
$GPGSV,3,3,12,22,17,320,,23,01,042,,24,00,000,,32,29,097,,1*64
$GLGSV,2,1,08,73,12,233,20,69,07,167,13,68,42,129,15,66,02,012,,1*79
$GLGSV,2,2,08,82,23,090,,75,18,336,,83,71,037,,67,42,053,,1*77
$GAGSV,3,1,09,03,10,130,,05,23,080,,06,01,008,,09,12,028,,7*7B
$GAGSV,3,2,09,13,21,257,,15,75,275,,21,30,307,,27,45,239,,7*74
$GAGSV,3,3,09,30,17,188,,7*4E
$PQGSV,1,1,0,0*43
$PQGSV,3,1,11,05,11,113,,08,09,032,,11,87,344,,12,35,105,,0*7A
$PQGSV,3,2,11,13,21,039,,14,08,182,,21,50,101,,22,23,040,,0*7C
$PQGSV,3,3,11,23,16,264,,25,00,000,,28,01,286,,0*45
$GPGGA,141105.00,5211.720299,N,00008.715040,E,1,04,2.0,14.9,M,47.0,M,,*5A
$GPVTG,0.0,T,3.3,M,0.0,N,0.0,K,A*23
$GPRMC,141105.00,A,5211.720299,N,00008.715040,E,0.0,0.0,160426,3.3,W,A*2F
$GPGSA,A,2,01,03,08,27,,,,,,,,,2.2,2.0,1.0*3F
$GNGSA,A,3,01,03,08,27,,,,,,,,,2.2,2.0,1.0,1*3D
$GNGSA,A,2,68,73,,,,,,,,,,,2.2,2.0,1.0,2*3A
$GNVTG,,T,,M,0.0,N,0.0,K,A*3D
$GNRMC,141105.00,A,5211.720299,N,00008.715040,E,0.0,,160426,3.2,W,A,V*64
$GNGGA,141105.00,5211.720299,N,00008.715040,E,1,06,2.0,14.9,M,47.0,M,,*46
$GPGSV,3,1,12,01,46,264,23,03,11,210,29,08,60,161,22,27,29,140,20*70
$GPGSV,3,2,12,02,81,298,,10,35,052,,14,25,307,,17,01,306,*77
$GPGSV,3,3,12,22,17,320,,23,01,042,,24,00,019,,32,29,097,*71
$GPGSV,3,1,12,01,46,264,19,03,11,210,25,08,60,161,18,27,29,140,17,1*65
$GPGSV,3,2,12,02,81,298,,10,35,052,,14,25,307,,17,01,306,,1*6A
$GPGSV,3,3,12,22,17,320,,23,01,042,,24,00,000,,32,29,097,,1*64
$GLGSV,2,1,08,73,12,233,20,69,07,167,13,68,42,129,15,66,02,012,,1*79
$GLGSV,2,2,08,82,23,090,,75,18,336,,83,71,037,,67,42,053,,1*77
$GAGSV,3,1,09,03,10,130,,05,23,080,,06,01,008,,09,12,028,,7*7B
$GAGSV,3,2,09,13,21,257,,15,75,275,,21,30,307,,27,45,239,,7*74
$GAGSV,3,3,09,30,17,188,,7*4E
$PQGSV,1,1,0,0*43
$PQGSV,3,1,11,05,11,113,,08,09,032,,11,87,344,,12,35,105,,0*7A
$PQGSV,3,2,11,13,21,039,,14,08,182,,21,50,101,,22,23,040,,0*7C
$PQGSV,3,3,11,23,16,264,,25,00,000,,28,01,286,,0*45
$GPGGA,141106.00,5211.720298,N,00008.715041,E,1,04,2.0,14.9,M,47.0,M,,*59
$GPVTG,0.0,T,3.3,M,0.0,N,0.0,K,A*23
$GPRMC,141106.00,A,5211.720298,N,00008.715041,E,0.0,0.0,160426,3.3,W,A*2C
$GPGSA,A,2,01,03,08,27,,,,,,,,,2.2,2.0,1.0*3F
$GNGSA,A,3,01,03,08,27,,,,,,,,,2.2,2.0,1.0,1*3D
$GNGSA,A,2,68,73,,,,,,,,,,,2.2,2.0,1.0,2*3A
$GNVTG,,T,,M,0.0,N,0.0,K,A*3D
$GNRMC,141106.00,A,5211.720298,N,00008.715041,E,0.0,,160426,3.2,W,A,V*67
$GNGGA,141106.00,5211.720298,N,00008.715041,E,1,06,2.0,14.9,M,47.0,M,,*45
$GPGSV,3,1,12,01,46,264,23,03,11,210,28,08,60,161,22,27,29,140,20*71
$GPGSV,3,2,12,02,81,298,,10,35,052,,14,25,307,,17,01,306,*77
$GPGSV,3,3,12,22,17,320,,23,01,042,,24,00,019,,32,29,097,*71
$GPGSV,3,1,12,01,46,264,20,03,11,210,25,08,60,161,18,27,29,140,16,1*6E
$GPGSV,3,2,12,02,81,298,,10,35,052,,14,25,307,,17,01,306,,1*6A
$GPGSV,3,3,12,22,17,320,,23,01,042,,24,00,000,,32,29,097,,1*64
$GLGSV,2,1,08,73,12,233,20,69,07,167,13,68,42,129,14,66,02,012,,1*78
$GLGSV,2,2,08,82,23,090,,75,18,336,,83,71,037,,67,42,053,,1*77
$GAGSV,3,1,09,03,10,130,,05,23,080,,06,01,008,,09,12,028,,7*7B
$GAGSV,3,2,09,13,21,257,,15,75,275,,21,30,307,,27,45,239,,7*74
$GAGSV,3,3,09,30,17,188,,7*4E
$PQGSV,1,1,0,0*43
$PQGSV,3,1,11,05,11,113,,08,09,032,,11,87,344,,12,35,105,,0*7A
$PQGSV,3,2,11,13,21,039,,14,08,182,,21,50,101,,22,23,040,,0*7C
$PQGSV,3,3,11,23,16,264,,25,00,000,,28,01,286,,0*45
$GPGGA,141107.00,5211.720298,N,00008.715042,E,1,04,2.0,14.9,M,47.0,M,,*5B
$GPVTG,0.0,T,3.3,M,0.0,N,0.0,K,A*23
$GPRMC,141107.00,A,5211.720298,N,00008.715042,E,0.0,0.0,160426,3.3,W,A*2E
$GPGSA,A,2,01,03,08,27,,,,,,,,,2.2,2.0,1.0*3F
$GNGSA,A,3,01,03,08,27,,,,,,,,,2.2,2.0,1.0,1*3D
$GNGSA,A,2,68,73,,,,,,,,,,,2.2,2.0,1.0,2*3A
$GNVTG,,T,,M,0.0,N,0.0,K,A*3D
$GNRMC,141107.00,A,5211.720298,N,00008.715042,E,0.0,,160426,3.2,W,A,V*65
$GNGGA,141107.00,5211.720298,N,00008.715042,E,1,06,2.0,14.9,M,47.0,M,,*47
$GPGSV,3,1,12,01,47,265,23,03,13,210,29,08,59,161,23,27,28,142,20*7A
$GPGSV,3,2,12,02,82,305,,10,34,052,,14,25,306,,17,02,307,*73
$GPGSV,3,3,12,22,18,320,,23,00,042,,24,00,018,,32,30,095,*74
$GPGSV,3,1,12,01,47,265,20,03,13,210,26,08,59,161,20,27,28,142,16,1*6D
$GPGSV,3,2,12,02,82,305,,10,34,052,,14,25,306,,17,02,307,,1*6E
$GPGSV,3,3,12,22,18,320,,23,00,000,,24,00,000,,32,30,095,,1*66
$GLGSV,2,1,08,73,12,233,21,69,07,167,13,68,42,129,14,66,02,012,,1*79
$GLGSV,2,2,08,82,23,090,,75,18,336,,83,71,037,,67,42,053,,1*77
$GAGSV,3,1,09,03,11,130,,05,24,078,,06,00,000,,09,12,026,,7*7D
$GAGSV,3,2,09,13,23,258,,15,77,279,,21,30,306,,27,44,237,,7*79
$GAGSV,3,3,09,30,16,188,,7*4F
$PQGSV,1,1,0,0*43
$PQGSV,3,1,11,05,11,113,,08,09,033,,11,00,000,,12,34,105,,0*76
$PQGSV,3,2,11,13,20,039,,14,09,182,,21,51,098,,22,22,040,,0*7D
$PQGSV,3,3,11,23,15,262,,25,00,000,,28,02,288,,0*4D
$GPGGA,141108.00,5211.720298,N,00008.715042,E,1,04,2.0,14.9,M,47.0,M,,*54
$GPVTG,0.0,T,3.3,M,0.0,N,0.0,K,A*23
$GPRMC,141108.00,A,5211.720298,N,00008.715042,E,0.0,0.0,160426,3.3,W,A*21
$GPGSA,A,2,01,03,08,27,,,,,,,,,2.2,2.0,1.0*3F
$GNGSA,A,3,01,03,08,27,,,,,,,,,2.2,2.0,1.0,1*3D
$GNGSA,A,2,68,73,,,,,,,,,,,2.2,2.0,1.0,2*3A
$GNVTG,,T,,M,0.0,N,0.0,K,A*3D
$GNRMC,141108.00,A,5211.720298,N,00008.715042,E,0.0,,160426,3.2,W,A,V*6A
$GNGGA,141108.00,5211.720298,N,00008.715042,E,1,06,2.0,14.9,M,47.0,M,,*48
$GPGSV,3,1,12,01,47,265,21,03,13,210,29,08,59,161,24,27,28,142,20*7F
$GPGSV,3,2,12,02,82,305,,10,34,052,,14,25,306,,17,02,307,*73
$GPGSV,3,3,12,22,18,320,,23,00,042,,24,00,018,,32,30,095,*74
$GPGSV,3,1,12,01,47,265,17,03,13,210,25,08,59,161,20,27,28,142,16,1*6A
$GPGSV,3,2,12,02,82,305,,10,34,052,,14,25,306,,17,02,307,,1*6E
$GPGSV,3,3,12,22,18,320,,23,00,000,,24,00,000,,32,30,095,,1*66
$GLGSV,2,1,08,82,23,090,10,73,12,233,21,69,07,167,13,68,42,129,14,1*7B
$GLGSV,2,2,08,66,02,012,,75,18,336,,83,71,037,,67,42,053,,1*74
$GAGSV,3,1,09,03,11,130,,05,24,078,,06,00,000,,09,12,026,,7*7D
$GAGSV,3,2,09,13,23,258,,15,77,279,,21,30,306,,27,44,237,,7*79
$GAGSV,3,3,09,30,16,188,,7*4F
$PQGSV,1,1,0,0*43
$PQGSV,3,1,11,05,11,113,,08,09,033,,11,00,000,,12,34,105,,0*76
$PQGSV,3,2,11,13,20,039,,14,09,182,,21,51,098,,22,22,040,,0*7D
$PQGSV,3,3,11,23,15,262,,25,00,000,,28,02,288,,0*4D
$GPGGA,141109.00,5211.720298,N,00008.715042,E,1,04,1.5,14.9,M,47.0,M,,*53
$GPVTG,0.0,T,3.3,M,0.0,N,0.0,K,A*23
$GPRMC,141109.00,A,5211.720298,N,00008.715042,E,0.0,0.0,160426,3.3,W,A*20
$GPGSA,A,2,01,03,08,27,,,,,,,,,1.8,1.5,0.9*38
$GNGSA,A,3,01,03,08,27,,,,,,,,,1.8,1.5,0.9,1*3A
$GNGSA,A,2,68,73,82,,,,,,,,,,1.8,1.5,0.9,2*37
$GNVTG,,T,,M,0.0,N,0.0,K,A*3D
$GNRMC,141109.00,A,5211.720298,N,00008.715042,E,0.0,,160426,3.2,W,A,V*6B
$GNGGA,141109.00,5211.720298,N,00008.715042,E,1,07,1.5,14.9,M,47.0,M,,*4E
$GPGSV,3,1,12,01,47,265,21,03,13,210,29,08,59,161,24,27,28,142,19*75
$GPGSV,3,2,12,02,82,305,,10,34,052,,14,25,306,,17,02,307,*73
$GPGSV,3,3,12,22,18,320,,23,00,042,,24,00,018,,32,30,095,*74
$GPGSV,3,1,12,01,47,265,17,03,13,210,26,08,59,161,21,27,28,142,15,1*6B
$GPGSV,3,2,12,02,82,305,,10,34,052,,14,25,306,,17,02,307,,1*6E
$GPGSV,3,3,12,22,18,320,,23,00,000,,24,00,000,,32,30,095,,1*66
$GLGSV,2,1,08,82,23,090,10,73,12,233,21,69,07,167,10,68,42,129,14,1*78
$GLGSV,2,2,08,66,02,012,,75,18,336,,83,71,037,,67,42,053,,1*74
$GAGSV,3,1,09,03,11,130,,05,24,078,,06,00,000,,09,12,026,,7*7D
$GAGSV,3,2,09,13,23,258,,15,77,279,,21,30,306,,27,44,237,,7*79
$GAGSV,3,3,09,30,16,188,,7*4F
$PQGSV,1,1,0,0*43
$PQGSV,3,1,11,05,11,113,,08,09,033,,11,00,000,,12,34,105,,0*76
$PQGSV,3,2,11,13,20,039,,14,09,182,,21,51,098,,22,22,040,,0*7D
$PQGSV,3,3,11,23,15,262,,25,00,000,,28,02,288,,0*4D
$GPGGA,141110.00,5211.720298,N,00008.715042,E,1,04,1.3,14.9,M,47.0,M,,*5D
$GPVTG,0.0,T,3.3,M,0.0,N,0.0,K,A*23
$GPRMC,141110.00,A,5211.720298,N,00008.715042,E,0.0,0.0,160426,3.3,W,A*28
$GPGSA,A,2,01,03,08,27,,,,,,,,,1.6,1.3,0.9*30
$GNGSA,A,3,01,03,08,27,,,,,,,,,1.6,1.3,0.9,1*32
$GNGSA,A,3,68,69,73,82,,,,,,,,,1.6,1.3,0.9,2*31
$GNVTG,,T,,M,0.0,N,0.0,K,A*3D
$GNRMC,141110.00,A,5211.720298,N,00008.715042,E,0.0,,160426,3.2,W,A,V*63
$GNGGA,141110.00,5211.720298,N,00008.715042,E,1,08,1.3,14.9,M,47.0,M,,*4F
$GPGSV,3,1,12,01,47,265,21,03,13,210,29,08,59,161,23,27,28,142,19*72
$GPGSV,3,2,12,02,82,305,,10,34,052,,14,25,306,,17,02,307,*73
$GPGSV,3,3,12,22,18,320,,23,00,042,,24,00,018,,32,30,095,*74
$GPGSV,3,1,12,01,47,265,18,03,13,210,25,08,59,161,19,27,28,142,15,1*6C
$GPGSV,3,2,12,02,82,305,,10,34,052,,14,25,306,,17,02,307,,1*6E
$GPGSV,3,3,12,22,18,320,,23,00,000,,24,00,000,,32,30,095,,1*66
$GLGSV,2,1,08,82,23,090,10,73,12,233,22,69,07,167,10,68,42,129,18,1*77
$GLGSV,2,2,08,66,02,012,,75,18,336,,83,71,037,,67,42,053,,1*74
$GAGSV,3,1,09,03,11,130,,05,24,078,,06,00,000,,09,12,026,,7*7D
$GAGSV,3,2,09,13,23,258,,15,77,279,,21,30,306,,27,44,237,,7*79
$GAGSV,3,3,09,30,16,188,,7*4F
$PQGSV,1,1,0,0*43
$PQGSV,3,1,11,05,11,113,,08,09,033,,11,00,000,,12,34,105,,0*76
$PQGSV,3,2,11,13,20,039,,14,09,182,,21,51,098,,22,22,040,,0*7D
$PQGSV,3,3,11,23,15,262,,25,00,000,,28,02,288,,0*4D
$GPGGA,141111.00,5211.720298,N,00008.715043,E,1,04,1.3,14.9,M,47.0,M,,*5D
$GPVTG,0.0,T,3.3,M,0.0,N,0.0,K,A*23
$GPRMC,141111.00,A,5211.720298,N,00008.715043,E,0.0,0.0,160426,3.3,W,A*28
$GPGSA,A,2,01,03,08,27,,,,,,,,,1.6,1.3,0.9*30
$GNGSA,A,3,01,03,08,27,,,,,,,,,1.6,1.3,0.9,1*32
$GNGSA,A,3,68,69,73,82,,,,,,,,,1.6,1.3,0.9,2*31
$GNVTG,,T,,M,0.0,N,0.0,K,A*3D
$GNRMC,141111.00,A,5211.720298,N,00008.715043,E,0.0,,160426,3.2,W,A,V*63
$GNGGA,141111.00,5211.720298,N,00008.715043,E,1,08,1.3,14.9,M,47.0,M,,*4F
$GPGSV,3,1,12,01,47,265,21,03,13,210,28,08,59,161,23,27,28,142,19*73
$GPGSV,3,2,12,02,82,305,,10,34,052,,14,25,306,,17,02,307,*73
$GPGSV,3,3,12,22,18,320,,23,00,042,,24,00,018,,32,30,095,*74
$GPGSV,3,1,12,01,47,265,18,03,13,210,25,08,59,161,20,27,28,142,15,1*66
$GPGSV,3,2,12,02,82,305,,10,34,052,,14,25,306,,17,02,307,,1*6E
$GPGSV,3,3,12,22,18,320,,23,00,000,,24,00,000,,32,30,095,,1*66
$GLGSV,2,1,08,82,23,090,10,73,12,233,22,69,07,167,10,68,42,129,17,1*78
$GLGSV,2,2,08,66,02,012,,75,18,336,,83,71,037,,67,42,053,,1*74
$GAGSV,3,1,09,03,11,130,,05,24,078,,06,00,000,,09,12,026,,7*7D
$GAGSV,3,2,09,13,23,258,,15,77,279,,21,30,306,,27,44,237,,7*79
$GAGSV,3,3,09,30,16,188,,7*4F
$PQGSV,1,1,0,0*43
$PQGSV,3,1,11,05,11,113,,08,09,033,,11,00,000,,12,34,105,,0*76
$PQGSV,3,2,11,13,20,039,,14,09,182,,21,51,098,,22,22,040,,0*7D
$PQGSV,3,3,11,23,15,262,,25,00,000,,28,02,288,,0*4D
$GPGGA,141112.00,5211.720297,N,00008.715044,E,1,04,1.3,14.9,M,47.0,M,,*56
$GPVTG,0.0,T,3.3,M,0.0,N,0.0,K,A*23
$GPRMC,141112.00,A,5211.720297,N,00008.715044,E,0.0,0.0,160426,3.3,W,A*23
$GPGSA,A,2,01,03,08,27,,,,,,,,,1.6,1.3,0.9*30
$GNGSA,A,3,01,03,08,27,,,,,,,,,1.6,1.3,0.9,1*32
$GNGSA,A,3,68,69,73,82,,,,,,,,,1.6,1.3,0.9,2*31
$GNVTG,,T,,M,0.0,N,0.0,K,A*3D
$GNRMC,141112.00,A,5211.720297,N,00008.715044,E,0.0,,160426,3.2,W,A,V*68
$GNGGA,141112.00,5211.720297,N,00008.715044,E,1,08,1.3,14.9,M,47.0,M,,*44
$GPGSV,3,1,12,01,47,265,22,03,13,210,29,08,59,161,21,27,28,142,19*73
$GPGSV,3,2,12,02,82,305,,10,34,052,,14,25,306,,17,02,307,*73
$GPGSV,3,3,12,22,18,320,,23,00,042,,24,00,018,,32,30,095,*74
$GPGSV,3,1,12,01,47,265,19,03,13,210,25,08,59,161,18,27,28,142,15,1*6C
$GPGSV,3,2,12,02,82,305,,10,34,052,,14,25,306,,17,02,307,,1*6E
$GPGSV,3,3,12,22,18,320,,23,00,000,,24,00,000,,32,30,095,,1*66
$GLGSV,2,1,08,82,23,090,10,73,12,233,21,69,07,167,10,68,42,129,18,1*74
$GLGSV,2,2,08,66,02,012,,75,18,336,,83,71,037,,67,42,053,,1*74
$GAGSV,3,1,09,03,11,130,,05,24,078,,06,00,000,,09,12,026,,7*7D
$GAGSV,3,2,09,13,23,258,,15,77,279,,21,30,306,,27,44,237,,7*79
$GAGSV,3,3,09,30,16,188,,7*4F
$PQGSV,1,1,0,0*43
$PQGSV,3,1,11,05,11,113,,08,09,033,,11,00,000,,12,34,105,,0*76
$PQGSV,3,2,11,13,20,039,,14,09,182,,21,51,098,,22,22,040,,0*7D
$PQGSV,3,3,11,23,15,262,,25,00,000,,28,02,288,,0*4D
$GPGGA,141113.00,5211.720297,N,00008.715047,E,1,04,1.3,14.9,M,47.0,M,,*54
