$GPGGA,141500.00,,,,,0,,,,,,,,*49
$GPVTG,,T,,M,,N,,K,N*2C
$GPGSA,A,1,,,,,,,,,,,,,,,*1E
$GPRMC,,V,,,,,,,,,,N*53
$GPGSA,A,1,,,,,,,,,,,,,,,*1E
$GNGSA,A,1,,,,,,,,,,,,,,,*00
$PQGSA,A,1,,,,,,,,,,,,,,,*08
$GPVTG,,T,,M,,N,,K,N*2C
$GPRMC,,V,,,,,,,,,,N,V*29
$GPGGA,,,,,,0,,,,,,,,*66
$GPGSV,1,1,0,1*54
$GLGSV,2,1,08,66,00,000,,82,21,091,,73,10,232,,75,20,333,,1*77
$GLGSV,2,2,08,69,10,167,,83,71,047,,67,41,050,,68,45,126,,1*7B
$GAGSV,3,1,09,03,12,129,,05,25,077,,09,11,025,,13,24,260,,7*7E
$GAGSV,3,2,09,15,78,284,,21,31,305,,27,42,236,,30,14,188,,7*7A
$GAGSV,3,3,09,34,43,071,,7*4C
$PQGSV,1,1,0,0*43
$PQGSV,3,1,10,05,11,113,,08,08,033,,11,87,042,,12,33,106,,0*7B
$PQGSV,3,2,10,13,19,039,,14,11,182,,21,51,095,,22,21,039,,0*7F
$PQGSV,3,3,10,23,14,261,,28,04,288,,0*7F
$GPGGA,141501.00,,,,,0,,,,,,,,*48
$GPVTG,,T,,M,,N,,K,N*2C
$GPGSA,A,1,,,,,,,,,,,,,,,*1E
$GPRMC,,V,,,,,,,,,,N*53
$GPGSA,A,1,,,,,,,,,,,,,,,*1E
$GNGSA,A,1,,,,,,,,,,,,,,,*00
$PQGSA,A,1,,,,,,,,,,,,,,,*08
$GPVTG,,T,,M,,N,,K,N*2C
$GPRMC,,V,,,,,,,,,,N,V*29
$GPGGA,,,,,,0,,,,,,,,*66
$GPGSV,1,1,0,1*54
$GLGSV,2,1,08,75,20,333,21,66,00,000,,82,21,091,,73,10,232,,1*74
$GLGSV,2,2,08,69,10,167,,83,71,047,,67,41,050,,68,45,126,,1*7B
$GAGSV,3,1,09,03,12,129,,05,25,077,,09,11,025,,13,24,260,,7*7E
$GAGSV,3,2,09,15,78,284,,21,31,305,,27,42,236,,30,14,188,,7*7A
$GAGSV,3,3,09,34,43,071,,7*4C
$PQGSV,1,1,0,0*43
$PQGSV,3,1,10,05,11,113,,08,08,033,,11,87,042,,12,33,106,,0*7B
$PQGSV,3,2,10,13,19,039,,14,11,182,,21,51,095,,22,21,039,,0*7F
$PQGSV,3,3,10,23,14,261,,28,04,288,,0*7F
$GPGGA,141502.00,,,,,0,,,,,,,,*4B
$GPVTG,,T,,M,,N,,K,N*2C
$GPGSA,A,1,,,,,,,,,,,,,,,*1E
$GPRMC,,V,,,,,,,,,,N*53
$GPGSA,A,1,,,,,,,,,,,,,,,*1E
$GNGSA,A,1,,,,,,,,,,,,,,,*00
$PQGSA,A,1,,,,,,,,,,,,,,,*08
$GPVTG,,T,,M,,N,,K,N*2C
$GPRMC,,V,,,,,,,,,,N,V*29
$GPGGA,,,,,,0,,,,,,,,*66
$GPGGA,141503.00,,,,,0,,,,,,,,*4A
$GPVTG,,T,,M,,N,,K,N*2C
$GPGSA,A,1,,,,,,,,,,,,,,,*1E
$GPRMC,,V,,,,,,,,,,N*53
$GPGSA,A,1,,,,,,,,,,,,,,,*1E
$GNGSA,A,1,,,,,,,,,,,,,,,*00
$PQGSA,A,1,,,,,,,,,,,,,,,*08
$GPVTG,,T,,M,,N,,K,N*2C
$GPRMC,,V,,,,,,,,,,N,V*29
$GPGGA,,,,,,0,,,,,,,,*66
$GPGSV,1,1,0,1*54
$GLGSV,2,1,08,75,20,333,22,66,00,000,,82,21,091,,73,10,232,,1*77
$GLGSV,2,2,08,69,10,167,,83,71,047,,67,41,050,,68,45,126,,1*7B
$GAGSV,3,1,09,03,12,129,,05,25,077,,09,11,025,,13,24,260,,7*7E
$GAGSV,3,2,09,15,78,284,,21,31,305,,27,42,236,,30,14,188,,7*7A
$GAGSV,3,3,09,34,43,071,,7*4C
$PQGSV,1,1,0,0*43
$PQGSV,3,1,10,05,11,113,,08,08,033,,11,87,042,,12,33,106,,0*7B
$PQGSV,3,2,10,13,19,039,,14,11,182,,21,51,095,,22,21,039,,0*7F
$PQGSV,3,3,10,23,14,261,,28,04,288,,0*7F
$GPGGA,141504.00,,,,,0,,,,,,,,*4D
$GPVTG,,T,,M,,N,,K,N*2C
$GPGSA,A,1,,,,,,,,,,,,,,,*1E
$GPRMC,,V,,,,,,,,,,N*53
$GPGSA,A,1,,,,,,,,,,,,,,,*1E
$GNGSA,A,1,,,,,,,,,,,,,,,*00
$PQGSA,A,1,,,,,,,,,,,,,,,*08
$GPVTG,,T,,M,,N,,K,N*2C
$GPRMC,,V,,,,,,,,,,N,V*29
$GPGGA,,,,,,0,,,,,,,,*66
$GPGSV,1,1,0,1*54
$GLGSV,2,1,08,75,20,333,22,66,00,000,,82,21,091,,73,10,232,,1*77
$GLGSV,2,2,08,69,10,167,,83,71,047,,67,41,050,,68,45,126,,1*7B
$GAGSV,3,1,09,03,12,129,,05,25,077,,09,11,025,,13,24,260,,7*7E
$GAGSV,3,2,09,15,78,284,,21,31,305,,27,42,236,,30,14,188,,7*7A
$GAGSV,3,3,09,34,43,071,,7*4C
$PQGSV,1,1,0,0*43
$PQGSV,3,1,10,05,11,113,,08,08,033,,11,87,042,,12,33,106,,0*7B
$PQGSV,3,2,10,13,19,039,,14,11,182,,21,51,095,,22,21,039,,0*7F
$PQGSV,3,3,10,23,14,261,,28,04,288,,0*7F
$GPGGA,141505.00,,,,,0,,,,,,,,*4C
$GPVTG,,T,,M,,N,,K,N*2C
$GPGSA,A,1,,,,,,,,,,,,,,,*1E
$GPRMC,,V,,,,,,,,,,N*53
$GPGSA,A,1,,,,,,,,,,,,,,,*1E
$GNGSA,A,1,,,,,,,,,,,,,,,*00
$PQGSA,A,1,,,,,,,,,,,,,,,*08
$GPVTG,,T,,M,,N,,K,N*2C
$GPRMC,,V,,,,,,,,,,N,V*29
$GPGGA,,,,,,0,,,,,,,,*66
$GPGSV,1,1,0,1*54
$GLGSV,2,1,08,75,20,333,14,66,00,000,,82,21,091,,73,10,232,,1*72
$GLGSV,2,2,08,69,10,167,,83,71,047,,67,41,050,,68,45,126,,1*7B
$GAGSV,3,1,09,03,12,129,,05,25,077,,09,11,025,,13,24,260,,7*7E
$GAGSV,3,2,09,15,78,284,,21,31,305,,27,42,236,,30,14,188,,7*7A
$GAGSV,3,3,09,34,43,071,,7*4C
$PQGSV,1,1,0,0*43
$PQGSV,3,1,10,05,11,113,,08,08,033,,11,87,042,,12,33,106,,0*7B
$PQGSV,3,2,10,13,19,039,,14,11,182,,21,51,095,,22,21,039,,0*7F
$PQGSV,3,3,10,23,14,261,,28,04,288,,0*7F
$GPGGA,141506.00,,,,,0,,,,,,,,*4F
$GPVTG,,T,,M,,N,,K,N*2C
$GPGSA,A,1,,,,,,,,,,,,,,,*1E
$GPRMC,,V,,,,,,,,,,N*53
$GPGSA,A,1,,,,,,,,,,,,,,,*1E
$GNGSA,A,1,,,,,,,,,,,,,,,*00
$PQGSA,A,1,,,,,,,,,,,,,,,*08
$GPVTG,,T,,M,,N,,K,N*2C
$GPRMC,,V,,,,,,,,,,N,V*29
$GPGGA,,,,,,0,,,,,,,,*66
$GPGSV,1,1,0,1*54
$GLGSV,2,1,08,75,20,333,14,66,00,000,,82,21,091,,73,10,232,,1*72
$GLGSV,2,2,08,69,10,167,,83,71,047,,67,41,050,,68,45,126,,1*7B
$GAGSV,3,1,09,03,12,129,,05,25,077,,09,11,025,,13,24,260,,7*7E
$GAGSV,3,2,09,15,78,284,,21,31,305,,27,42,236,,30,14,188,,7*7A
$GAGSV,3,3,09,34,43,071,,7*4C
$PQGSV,1,1,0,0*43
$PQGSV,3,1,10,05,11,113,,08,08,033,,11,87,042,,12,33,106,,0*7B
$PQGSV,3,2,10,13,19,039,,14,11,182,,21,51,095,,22,21,039,,0*7F
$PQGSV,3,3,10,23,14,261,,28,04,288,,0*7F
$GPGGA,141507.00,,,,,0,,,,,,,,*4E
$GPVTG,,T,,M,,N,,K,N*2C
$GPGSA,A,1,,,,,,,,,,,,,,,*1E
$GPRMC,,V,,,,,,,,,,N*53
$GPGSA,A,1,,,,,,,,,,,,,,,*1E
$GNGSA,A,1,,,,,,,,,,,,,,,*00
$PQGSA,A,1,,,,,,,,,,,,,,,*08
$GPVTG,,T,,M,,N,,K,N*2C
$GPRMC,,V,,,,,,,,,,N,V*29
$GPGGA,,,,,,0,,,,,,,,*66
$GPGSV,1,1,0,1*54
$GLGSV,2,1,08,75,20,333,14,67,41,050,13,66,00,000,,82,21,091,,1*77
$GLGSV,2,2,08,73,10,232,,69,10,167,,83,71,047,,68,45,126,,1*7C
$GAGSV,3,1,09,03,12,129,,05,25,077,,09,11,025,,13,24,260,,7*7E
$GAGSV,3,2,09,15,78,284,,21,31,305,,27,42,236,,30,14,188,,7*7A
$GAGSV,3,3,09,34,43,071,,7*4C
$PQGSV,1,1,0,0*43
$PQGSV,3,1,10,05,11,113,,08,08,033,,11,87,042,,12,33,106,,0*7B
$PQGSV,3,2,10,13,19,039,,14,11,182,,21,51,095,,22,21,039,,0*7F
$PQGSV,3,3,10,23,14,261,,28,04,288,,0*7F
$GPGGA,141507.43,,,,,0,,,,,,,,*49
$GPVTG,,T,,M,,N,,K,N*2C
$GPGSA,A,1,,,,,,,,,,,,,,,*1E
$GPRMC,,V,,,,,,,,,,N*53
$GPGSA,A,1,,,,,,,,,,,,,,,*1E
$GNGSA,A,1,,,,,,,,,,,,,,,*00
$PQGSA,A,1,,,,,,,,,,,,,,,*08
$GPVTG,,T,,M,,N,,K,N*2C
$GPRMC,,V,,,,,,,,,,N,V*29
$GPGGA,,,,,,0,,,,,,,,*66
$GPGGA,141508.00,,,,,0,,,,,,,,*41
$GPVTG,,T,,M,,N,,K,N*2C
$GPGSA,A,1,,,,,,,,,,,,,,,*1E
$GPRMC,,V,,,,,,,,,,N*53
$GPGSA,A,1,,,,,,,,,,,,,,,*1E
$GNGSA,A,1,,,,,,,,,,,,,,,*00
$PQGSA,A,1,,,,,,,,,,,,,,,*08
$GPVTG,,T,,M,,N,,K,N*2C
$GPRMC,,V,,,,,,,,,,N,V*29
$GPGGA,,,,,,0,,,,,,,,*66
$GPGSV,1,1,0,1*54
$GLGSV,2,1,08,75,20,333,14,67,41,050,13,66,00,000,,82,21,091,,1*77
$GLGSV,2,2,08,73,10,232,,69,10,167,,83,71,047,,68,45,126,,1*7C
$GAGSV,3,1,09,03,12,129,,05,25,077,,09,11,025,,13,24,260,,7*7E
$GAGSV,3,2,09,15,78,284,,21,31,305,,27,42,236,,30,14,188,,7*7A
$GAGSV,3,3,09,34,43,071,,7*4C
$PQGSV,1,1,0,0*43
$PQGSV,3,1,10,05,11,113,,08,08,033,,11,87,042,,12,33,106,,0*7B
$PQGSV,3,2,10,13,19,039,,14,11,182,,21,51,095,,22,21,039,,0*7F
$PQGSV,3,3,10,23,14,261,,28,04,288,,0*7F
$GPGGA,141509.00,,,,,0,,,,,,,,*40
$GPVTG,,T,,M,,N,,K,N*2C
$GPGSA,A,1,,,,,,,,,,,,,,,*1E
$GPRMC,,V,,,,,,,,,,N*53
$GPGSA,A,1,,,,,,,,,,,,,,,*1E
$GNGSA,A,1,,,,,,,,,,,,,,,*00
$PQGSA,A,1,,,,,,,,,,,,,,,*08
$GPVTG,,T,,M,,N,,K,N*2C
$GPRMC,,V,,,,,,,,,,N,V*29
$GPGGA,,,,,,0,,,,,,,,*66
$GPGSV,3,1,11,01,49,267,,02,84,316,,03,14,212,,08,56,161,*74
$GPGSV,3,2,11,10,33,050,,14,26,305,,17,04,307,,22,18,319,*7F
$GPGSV,3,3,11,24,01,016,,27,26,142,,32,31,094,*41
$GPGSV,3,1,11,01,49,267,,02,84,316,,03,14,212,,08,56,161,,1*69
$GPGSV,3,2,11,10,33,050,,14,26,305,,17,04,307,,22,18,319,,1*62
$GPGSV,3,3,11,24,01,016,,27,26,142,,32,31,094,,1*5C
$GLGSV,2,1,08,75,20,333,14,67,41,050,13,66,00,000,,82,21,091,,1*77
$GLGSV,2,2,08,73,10,232,,69,10,167,,83,71,047,,68,45,126,,1*7C
$GAGSV,3,1,09,03,12,129,,05,25,077,,09,11,025,,13,24,260,,7*7E
$GAGSV,3,2,09,15,78,284,,21,31,305,,27,42,236,,30,14,188,,7*7A
$GAGSV,3,3,09,34,43,071,,7*4C
$PQGSV,1,1,0,0*43
$PQGSV,3,1,10,05,11,113,,08,08,033,,11,87,043,,12,33,106,,0*7A
$PQGSV,3,2,10,13,19,039,,14,11,182,,21,51,095,,22,21,039,,0*7F
$PQGSV,3,3,10,23,14,261,,28,04,288,,0*7F
$GPGGA,141510.00,,,,,0,,,,,,,,*48
$GPVTG,,T,,M,,N,,K,N*2C
$GPGSA,A,1,,,,,,,,,,,,,,,*1E
$GPRMC,,V,,,,,,,,,,N*53
$GPGSA,A,1,,,,,,,,,,,,,,,*1E
$GNGSA,A,1,,,,,,,,,,,,,,,*00
$PQGSA,A,1,,,,,,,,,,,,,,,*08
$GPVTG,,T,,M,,N,,K,N*2C
$GPRMC,,V,,,,,,,,,,N,V*29
$GPGGA,,,,,,0,,,,,,,,*66
$GPGSV,3,1,11,01,49,267,,02,84,316,,03,14,212,,08,56,161,*74
$GPGSV,3,2,11,10,33,050,,14,26,305,,17,04,307,,22,18,319,*7F
$GPGSV,3,3,11,24,01,016,,27,26,142,,32,31,094,*41
$GPGSV,3,1,11,01,49,267,,02,84,316,,03,14,212,,08,56,161,,1*69
$GPGSV,3,2,11,10,33,050,,14,26,305,,17,04,307,,22,18,319,,1*62
$GPGSV,3,3,11,24,01,016,,27,26,142,,32,31,094,,1*5C
$GLGSV,2,1,08,75,20,333,14,83,70,047,12,67,41,049,13,66,00,000,,1*72
$GLGSV,2,2,08,82,21,092,,73,10,232,,69,10,167,,68,45,126,,1*70
$GAGSV,3,1,09,03,13,129,,05,25,077,,09,11,025,,13,24,260,,7*7F
$GAGSV,3,2,09,15,78,284,,21,31,305,,27,42,236,,30,14,188,,7*7A
$GAGSV,3,3,09,34,43,071,,7*4C
$PQGSV,1,1,0,0*43
$PQGSV,3,1,10,05,11,113,,08,08,033,,11,87,043,,12,33,106,,0*7A
$PQGSV,3,2,10,13,19,039,,14,11,182,,21,51,095,,22,21,039,,0*7F
$PQGSV,3,3,10,23,14,261,,28,04,288,,0*7F
$GPGGA,141511.00,,,,,0,,,,,,,,*49
$GPVTG,,T,,M,,N,,K,N*2C
$GPGSA,A,1,,,,,,,,,,,,,,,*1E
$GPRMC,,V,,,,,,,,,,N*53
$GPGSA,A,1,,,,,,,,,,,,,,,*1E
$GNGSA,A,1,,,,,,,,,,,,,,,*00
$PQGSA,A,1,,,,,,,,,,,,,,,*08
$GPVTG,,T,,M,,N,,K,N*2C
$GPRMC,,V,,,,,,,,,,N,V*29
$GPGGA,,,,,,0,,,,,,,,*66
$GPGSV,3,1,11,01,49,267,,02,84,316,,03,14,212,,08,56,161,*74
$GPGSV,3,2,11,10,33,050,,14,26,305,,17,04,307,,22,18,319,*7F
$GPGSV,3,3,11,24,01,016,,27,26,142,,32,31,094,*41
$GPGSV,3,1,11,01,49,267,,02,84,316,,03,14,212,,08,56,161,,1*69
$GPGSV,3,2,11,10,33,050,,14,26,305,,17,04,307,,22,18,319,,1*62
$GPGSV,3,3,11,24,01,016,,27,26,142,,32,31,094,,1*5C
$GLGSV,2,1,08,75,20,333,14,83,70,047,13,67,41,049,13,66,00,000,,1*73
$GLGSV,2,2,08,82,21,092,,73,10,232,,69,10,167,,68,45,126,,1*70
$GAGSV,3,1,09,03,13,129,,05,25,077,,09,11,025,,13,24,260,,7*7F
$GAGSV,3,2,09,15,78,284,,21,31,305,,27,42,236,,30,14,188,,7*7A
$GAGSV,3,3,09,34,43,071,,7*4C
$PQGSV,1,1,0,0*43
$PQGSV,3,1,10,05,11,113,,08,08,033,,11,87,043,,12,33,106,,0*7A
$PQGSV,3,2,10,13,19,039,,14,11,182,,21,51,095,,22,21,039,,0*7F
$PQGSV,3,3,10,23,14,261,,28,04,288,,0*7F
$GPGGA,141512.00,,,,,0,,,,,,,,*4A
$GPVTG,,T,,M,,N,,K,N*2C
$GPGSA,A,1,,,,,,,,,,,,,,,*1E
$GPRMC,,V,,,,,,,,,,N*53
$GPGSA,A,1,,,,,,,,,,,,,,,*1E
$GNGSA,A,1,,,,,,,,,,,,,,,*00
$PQGSA,A,1,,,,,,,,,,,,,,,*08
$GPVTG,,T,,M,,N,,K,N*2C
$GPRMC,,V,,,,,,,,,,N,V*29
$GPGGA,,,,,,0,,,,,,,,*66
$GPGSV,3,1,11,02,84,316,18,01,49,267,,03,14,212,,08,56,161,*7D
$GPGSV,3,2,11,10,33,050,,14,26,305,,17,04,307,,22,18,319,*7F
$GPGSV,3,3,11,24,01,016,,27,26,142,,32,31,094,*41
$GPGSV,3,1,11,02,84,316,14,01,49,267,,03,14,212,,08,56,161,,1*6C
$GPGSV,3,2,11,10,33,050,,14,26,305,,17,04,307,,22,18,319,,1*62
$GPGSV,3,3,11,24,01,016,,27,26,142,,32,31,094,,1*5C
$GLGSV,2,1,08,75,20,333,14,83,70,047,14,67,41,049,13,68,45,126,12,1*7D
$GLGSV,2,2,08,66,00,000,,82,21,092,,73,10,232,,69,10,167,,1*7A
$GAGSV,3,1,09,03,13,129,,05,25,077,,09,11,025,,13,24,260,,7*7F
$GAGSV,3,2,09,15,78,284,,21,31,305,,27,42,236,,30,14,188,,7*7A
$GAGSV,3,3,09,34,43,071,,7*4C
$PQGSV,1,1,0,0*43
$PQGSV,3,1,10,05,11,113,,08,08,033,,11,87,043,,12,33,106,,0*7A
$PQGSV,3,2,10,13,19,039,,14,11,182,,21,51,095,,22,21,039,,0*7F
$PQGSV,3,3,10,23,14,261,,28,04,288,,0*7F
$GPGGA,141513.00,,,,,0,,,,,,,,*4B
$GPVTG,,T,,M,,N,,K,N*2C
$GPGSA,A,1,,,,,,,,,,,,,,,*1E
$GPRMC,,V,,,,,,,,,,N*53
$GPGSA,A,1,,,,,,,,,,,,,,,*1E
$GNGSA,A,1,,,,,,,,,,,,,,,*00
$PQGSA,A,1,,,,,,,,,,,,,,,*08
$GPVTG,,T,,M,,N,,K,N*2C
$GPRMC,,V,,,,,,,,,,N,V*29
$GPGGA,,,,,,0,,,,,,,,*66
$GPGSV,3,1,11,02,84,316,18,01,49,267,,03,14,212,,08,56,161,*7D
$GPGSV,3,2,11,10,33,050,,14,26,305,,17,04,307,,22,18,319,*7F
$GPGSV,3,3,11,24,01,016,,27,26,142,,32,31,094,*41
$GPGSV,3,1,11,02,84,316,14,01,49,267,,03,14,212,,08,56,161,,1*6C
$GPGSV,3,2,11,10,33,050,,14,26,305,,17,04,307,,22,18,319,,1*62
$GPGSV,3,3,11,24,01,016,,27,26,142,,32,31,094,,1*5C
$GLGSV,2,1,08,82,21,092,12,75,20,333,14,83,70,047,14,67,41,049,13,1*75
$GLGSV,2,2,08,68,45,126,12,66,00,000,,73,10,232,,69,10,167,,1*71
$GAGSV,3,1,09,03,13,129,,05,25,077,,09,11,025,,13,24,260,,7*7F
$GAGSV,3,2,09,15,78,284,,21,31,305,,27,42,236,,30,14,188,,7*7A
$GAGSV,3,3,09,34,43,071,,7*4C
$PQGSV,1,1,0,0*43
$PQGSV,3,1,10,05,11,113,,08,08,033,,11,87,043,,12,33,106,,0*7A
$PQGSV,3,2,10,13,19,039,,14,11,182,,21,51,095,,22,21,039,,0*7F
$PQGSV,3,3,10,23,14,261,,28,04,288,,0*7F
$GPGGA,141514.00,,,,,0,,,,,,,,*4C
$GPVTG,,T,,M,,N,,K,N*2C
$GPGSA,A,1,,,,,,,,,,,,,,,*1E
$GPRMC,,V,,,,,,,,,,N*53
$GPGSA,A,1,,,,,,,,,,,,,,,*1E
$GNGSA,A,1,,,,,,,,,,,,,,,*00
$PQGSA,A,1,,,,,,,,,,,,,,,*08
$GPVTG,,T,,M,,N,,K,N*2C
$GPRMC,,V,,,,,,,,,,N,V*29
$GPGGA,,,,,,0,,,,,,,,*66
$GPGSV,3,1,11,02,84,316,18,01,49,267,,03,14,212,,08,56,161,*7D
$GPGSV,3,2,11,10,33,050,,14,26,305,,17,04,307,,22,18,319,*7F
$GPGSV,3,3,11,24,01,016,,27,26,142,,32,31,094,*41
$GPGSV,3,1,11,02,84,316,14,01,49,267,,03,14,212,,08,56,161,,1*6C
$GPGSV,3,2,11,10,33,050,,14,26,305,,17,04,307,,22,18,319,,1*62
$GPGSV,3,3,11,24,01,016,,27,26,142,,32,31,094,,1*5C
$GLGSV,2,1,08,82,21,092,17,75,20,333,14,83,70,047,14,67,41,049,13,1*70
$GLGSV,2,2,08,68,45,126,18,66,00,000,,73,10,232,,69,10,167,,1*7B
$GAGSV,3,1,09,03,13,129,,05,25,077,,09,11,025,,13,24,260,,7*7F
$GAGSV,3,2,09,15,78,284,,21,31,305,,27,42,236,,30,14,188,,7*7A
$GAGSV,3,3,09,34,43,071,,7*4C
$PQGSV,1,1,0,0*43
$PQGSV,3,1,10,05,11,113,,08,08,033,,11,87,043,,12,33,106,,0*7A
$PQGSV,3,2,10,13,19,039,,14,11,182,,21,51,095,,22,21,039,,0*7F
$PQGSV,3,3,10,23,14,261,,28,04,288,,0*7F
$GPGGA,141515.00,,,,,0,,,,,,,,*4D
$GPVTG,,T,,M,,N,,K,N*2C
$GPGSA,A,1,,,,,,,,,,,,,,,*1E
$GPRMC,,V,,,,,,,,,,N*53
$GPGSA,A,1,,,,,,,,,,,,,,,*1E
$GNGSA,A,1,,,,,,,,,,,,,,,*00
$PQGSA,A,1,,,,,,,,,,,,,,,*08
$GPVTG,,T,,M,,N,,K,N*2C
$GPRMC,,V,,,,,,,,,,N,V*29
$GPGGA,,,,,,0,,,,,,,,*66
$GPGSV,3,1,11,02,84,316,18,01,49,267,,03,15,212,,08,56,161,*7C
$GPGSV,3,2,11,10,33,050,,14,26,305,,17,04,307,,22,18,319,*7F
$GPGSV,3,3,11,24,01,016,,27,26,142,,32,31,094,*41
$GPGSV,3,1,11,02,84,316,14,01,49,267,,03,15,212,,08,56,161,,1*6D
$GPGSV,3,2,11,10,33,050,,14,26,305,,17,04,307,,22,18,319,,1*62
$GPGSV,3,3,11,24,01,016,,27,26,142,,32,31,094,,1*5C
$GLGSV,2,1,08,82,21,092,17,75,20,333,14,83,70,047,16,67,41,049,13,1*72
$GLGSV,2,2,08,68,45,126,18,66,00,000,,73,10,232,,69,10,167,,1*7B
$GAGSV,3,1,09,03,13,129,,05,25,077,,09,11,025,,13,24,260,,7*7F
$GAGSV,3,2,09,15,78,284,,21,31,305,,27,42,236,,30,14,188,,7*7A
$GAGSV,3,3,09,34,43,071,,7*4C
$PQGSV,1,1,0,0*43
$PQGSV,3,1,10,05,11,113,,08,08,033,,11,87,043,,12,33,106,,0*7A
$PQGSV,3,2,10,13,19,039,,14,11,182,,21,51,095,,22,21,039,,0*7F
$PQGSV,3,3,10,23,14,261,,28,04,288,,0*7F
$GPGGA,141516.00,,,,,0,,,,,,,,*4E
$GPVTG,,T,,M,,N,,K,N*2C
$GPGSA,A,1,,,,,,,,,,,,,,,*1E
$GPRMC,,V,,,,,,,,,,N*53
$GPGSA,A,1,,,,,,,,,,,,,,,*1E
$GNGSA,A,1,,,,,,,,,,,,,,,*00
$PQGSA,A,1,,,,,,,,,,,,,,,*08
$GPVTG,,T,,M,,N,,K,N*2C
$GPRMC,,V,,,,,,,,,,N,V*29
$GPGGA,,,,,,0,,,,,,,,*66
$GPGSV,3,1,11,02,84,316,18,01,49,267,,03,15,212,,08,56,161,*7C
$GPGSV,3,2,11,10,33,050,,14,26,305,,17,04,307,,22,18,319,*7F
$GPGSV,3,3,11,24,01,016,,27,26,142,,32,31,094,*41
$GPGSV,3,1,11,02,84,316,14,01,49,267,,03,15,212,,08,56,161,,1*6D
$GPGSV,3,2,11,10,33,050,,14,26,305,,17,04,307,,22,18,319,,1*62
$GPGSV,3,3,11,24,01,016,,27,26,142,,32,31,094,,1*5C
$GLGSV,2,1,08,82,21,092,17,75,20,333,14,83,70,047,16,67,41,049,14,1*75
$GLGSV,2,2,08,68,45,126,15,66,00,000,,73,10,232,,69,10,167,,1*76
$GAGSV,3,1,09,03,13,129,,05,25,077,,09,11,025,,13,24,260,,7*7F
$GAGSV,3,2,09,15,78,284,,21,31,305,,27,42,236,,30,14,188,,7*7A
$GAGSV,3,3,09,34,43,071,,7*4C
$PQGSV,1,1,0,0*43
$PQGSV,3,1,10,05,11,113,,08,08,033,,11,87,043,,12,33,106,,0*7A
$PQGSV,3,2,10,13,19,039,,14,11,182,,21,51,095,,22,21,039,,0*7F
$PQGSV,3,3,10,23,14,261,,28,04,288,,0*7F
$GPGGA,141517.00,,,,,0,,,,,,,,*4F
$GPVTG,,T,,M,,N,,K,N*2C
$GPGSA,A,1,,,,,,,,,,,,,,,*1E
$GPRMC,,V,,,,,,,,,,N*53
$GPGSA,A,1,,,,,,,,,,,,,,,*1E
$GNGSA,A,1,,,,,,,,,,,,,,,*00
$PQGSA,A,1,,,,,,,,,,,,,,,*08
$GPVTG,,T,,M,,N,,K,N*2C
$GPRMC,,V,,,,,,,,,,N,V*29
$GPGGA,,,,,,0,,,,,,,,*66
$GPGSV,3,1,11,02,84,316,18,01,49,267,,03,15,212,,08,56,161,*7C
$GPGSV,3,2,11,10,33,050,,14,26,305,,17,04,307,,22,19,319,*7E
$GPGSV,3,3,11,24,01,016,,27,26,142,,32,31,094,*41
$GPGSV,3,1,11,02,84,316,14,01,49,267,,03,15,212,,08,56,161,,1*6D
$GPGSV,3,2,11,10,33,050,,14,26,305,,17,04,307,,22,19,319,,1*63
$GPGSV,3,3,11,24,01,016,,27,26,142,,32,31,094,,1*5C
$GLGSV,2,1,08,82,21,092,17,75,20,333,14,83,70,047,16,67,41,049,14,1*75
$GLGSV,2,2,08,68,45,126,15,66,00,000,,73,10,232,,69,10,167,,1*76
$GAGSV,3,1,09,03,13,129,,05,25,077,,09,11,025,,13,24,260,,7*7F
$GAGSV,3,2,09,15,78,284,,21,31,305,,27,42,236,,30,14,188,,7*7A
$GAGSV,3,3,09,34,43,071,,7*4C
$PQGSV,1,1,0,0*43
$PQGSV,3,1,10,05,11,113,,08,08,033,,11,87,045,,12,33,106,,0*7C
$PQGSV,3,2,10,13,19,039,,14,11,182,,21,51,095,,22,21,039,,0*7F
$PQGSV,3,3,10,23,14,261,,28,04,288,,0*7F
$GPGGA,141518.00,,,,,0,,,,,,,,*40
$GPVTG,,T,,M,,N,,K,N*2C
$GPGSA,A,1,,,,,,,,,,,,,,,*1E
$GPRMC,,V,,,,,,,,,,N*53
$GPGSA,A,1,,,,,,,,,,,,,,,*1E
$GNGSA,A,1,,,,,,,,,,,,,,,*00
$PQGSA,A,1,,,,,,,,,,,,,,,*08
$GPVTG,,T,,M,,N,,K,N*2C
$GPRMC,,V,,,,,,,,,,N,V*29
$GPGGA,,,,,,0,,,,,,,,*66
$GPGSV,3,1,11,02,84,316,17,10,33,050,16,01,49,267,,03,15,212,*7D
$GPGSV,3,2,11,08,56,161,,14,26,305,,17,04,307,,22,19,319,*77
$GPGSV,3,3,11,24,01,016,,27,26,142,,32,31,094,*41
$GPGSV,3,1,11,02,84,316,13,10,33,050,12,01,49,267,,03,15,212,,1*60
$GPGSV,3,2,11,08,56,161,,14,26,305,,17,04,307,,22,19,319,,1*6A
$GPGSV,3,3,11,24,01,016,,27,26,142,,32,31,094,,1*5C
$GLGSV,2,1,08,82,21,092,17,75,20,333,14,83,70,047,16,67,41,049,16,1*77
$GLGSV,2,2,08,68,45,126,17,66,00,000,,73,10,232,,69,10,167,,1*74
$GAGSV,3,1,09,03,13,129,,05,25,077,,09,11,025,,13,24,260,,7*7F
$GAGSV,3,2,09,15,78,284,,21,31,305,,27,42,236,,30,14,188,,7*7A
$GAGSV,3,3,09,34,43,071,,7*4C
$PQGSV,1,1,0,0*43
$PQGSV,3,1,10,13,19,039,15,05,11,113,,08,08,033,,11,87,045,,0*7C
$PQGSV,3,2,10,12,33,106,,14,11,182,,21,51,095,,22,21,039,,0*7B
$PQGSV,3,3,10,23,14,261,,28,04,288,,0*7F
$GPGGA,141519.00,,,,,0,,,,,,,,*41
$GPVTG,,T,,M,,N,,K,N*2C
$GPGSA,A,1,,,,,,,,,,,,,,,*1E
$GPRMC,,V,,,,,,,,,,N*53
$GPGSA,A,1,,,,,,,,,,,,,,,*1E
$GNGSA,A,1,,,,,,,,,,,,,,,*00
$PQGSA,A,1,,,,,,,,,,,,,,,*08
$GPVTG,,T,,M,,N,,K,N*2C
$GPRMC,,V,,,,,,,,,,N,V*29
$GPGGA,,,,,,0,,,,,,,,*66
$GPGSV,3,1,11,02,84,316,17,10,33,050,16,01,49,267,,03,15,212,*7D
$GPGSV,3,2,11,08,56,161,,14,26,305,,17,04,307,,22,19,319,*77
$GPGSV,3,3,11,24,01,016,,27,26,142,,32,31,094,*41
$GPGSV,3,1,11,02,84,316,13,10,33,050,12,01,49,267,,03,15,212,,1*60
$GPGSV,3,2,11,08,56,161,,14,26,305,,17,04,307,,22,19,319,,1*6A
$GPGSV,3,3,11,24,01,016,,27,26,142,,32,31,094,,1*5C
$GLGSV,2,1,08,82,21,092,17,75,20,333,14,83,70,047,16,67,41,049,16,1*77
$GLGSV,2,2,08,68,45,126,18,66,00,000,,73,10,232,,69,10,167,,1*7B
$GAGSV,3,1,09,03,13,129,,05,25,077,,09,11,025,,13,24,260,,7*7F
$GAGSV,3,2,09,15,78,284,,21,31,305,,27,42,236,,30,14,188,,7*7A
$GAGSV,3,3,09,34,43,071,,7*4C
$PQGSV,1,1,0,0*43
$PQGSV,3,1,10,13,19,039,14,05,11,113,,08,08,033,,11,87,045,,0*7D
$PQGSV,3,2,10,12,33,106,,14,11,182,,21,51,095,,22,21,039,,0*7B
$PQGSV,3,3,10,23,14,261,,28,04,288,,0*7F
$GPGGA,141520.00,,,,,0,,,,,,,,*4B
$GPVTG,,T,,M,,N,,K,N*2C
$GPGSA,A,1,,,,,,,,,,,,,,,*1E
$GPRMC,,V,,,,,,,,,,N*53
$GPGSA,A,1,,,,,,,,,,,,,,,*1E
$GNGSA,A,1,,,,,,,,,,,,,,,*00
$PQGSA,A,1,,,,,,,,,,,,,,,*08
$GPVTG,,T,,M,,N,,K,N*2C
$GPRMC,,V,,,,,,,,,,N,V*29
$GPGGA,,,,,,0,,,,,,,,*66
$GPGSV,3,1,11,02,84,317,17,10,33,050,16,01,49,267,,03,15,212,*7C
$GPGSV,3,2,11,08,56,161,,14,26,305,,17,04,307,,22,19,319,*77
$GPGSV,3,3,11,24,01,016,,27,26,142,,32,31,094,*41
$GPGSV,3,1,11,02,84,317,13,10,33,050,12,01,49,267,,03,15,212,,1*61
$GPGSV,3,2,11,08,56,161,,14,26,305,,17,04,307,,22,19,319,,1*6A
$GPGSV,3,3,11,24,01,016,,27,26,142,,32,31,094,,1*5C
$GLGSV,2,1,08,82,21,092,17,75,20,333,14,83,70,047,16,67,41,049,16,1*77
$GLGSV,2,2,08,68,45,126,18,66,00,000,,73,10,232,,69,10,167,,1*7B
$GAGSV,3,1,09,03,13,129,,05,25,077,,09,11,025,,13,24,260,,7*7F
$GAGSV,3,2,09,15,78,284,,21,31,305,,27,42,236,,30,14,188,,7*7A
$GAGSV,3,3,09,34,43,071,,7*4C
$PQGSV,1,1,0,0*43
$PQGSV,3,1,10,13,19,039,14,05,11,113,,08,08,033,,11,87,045,,0*7D
$PQGSV,3,2,10,12,33,106,,14,11,182,,21,51,095,,22,21,039,,0*7B
$PQGSV,3,3,10,23,14,261,,28,04,288,,0*7F
$GPGGA,141521.00,,,,,0,,,,,,,,*4A
$GPVTG,,T,,M,,N,,K,N*2C
$GPGSA,A,1,,,,,,,,,,,,,,,*1E
$GPRMC,,V,,,,,,,,,,N*53
$GPGSA,A,1,,,,,,,,,,,,,,,*1E
$GNGSA,A,1,,,,,,,,,,,,,,,*00
$PQGSA,A,1,,,,,,,,,,,,,,,*08
$GPVTG,,T,,M,,N,,K,N*2C
$GPRMC,,V,,,,,,,,,,N,V*29
$GPGGA,,,,,,0,,,,,,,,*66
$GPGSV,3,1,11,02,84,317,18,10,33,050,16,01,49,267,,03,15,212,*73
$GPGSV,3,2,11,08,56,161,,14,26,305,,17,04,307,,22,19,319,*77
$GPGSV,3,3,11,24,01,016,,27,26,142,,32,31,094,*41
$GPGSV,3,1,11,02,84,317,15,10,33,050,12,01,49,267,,03,15,212,,1*67
$GPGSV,3,2,11,08,56,161,,14,26,305,,17,04,307,,22,19,319,,1*6A
$GPGSV,3,3,11,24,01,016,,27,26,142,,32,31,094,,1*5C
$GLGSV,2,1,08,82,21,092,17,75,20,333,14,83,70,047,14,67,41,049,15,1*76
$GLGSV,2,2,08,68,45,126,17,66,00,000,,73,10,232,,69,10,167,,1*74
$GAGSV,3,1,09,03,13,129,,05,25,077,,09,11,025,,13,24,260,,7*7F
$GAGSV,3,2,09,15,78,284,,21,31,305,,27,42,236,,30,14,188,,7*7A
$GAGSV,3,3,09,34,43,071,,7*4C
$PQGSV,1,1,0,0*43
$PQGSV,3,1,10,13,19,039,13,05,11,113,,08,08,033,,11,87,045,,0*7A
$PQGSV,3,2,10,12,33,106,,14,11,182,,21,51,095,,22,21,039,,0*7B
$PQGSV,3,3,10,23,14,261,,28,04,288,,0*7F
$GPGGA,141522.00,,,,,0,,,,,,,,*49
$GPVTG,,T,,M,,N,,K,N*2C
$GPGSA,A,1,,,,,,,,,,,,,,,*1E
$GPRMC,,V,,,,,,,,,,N*53
$GPGSA,A,1,,,,,,,,,,,,,,,*1E
$GNGSA,A,1,,,,,,,,,,,,,,,*00
$PQGSA,A,1,,,,,,,,,,,,,,,*08
$GPVTG,,T,,M,,N,,K,N*2C
$GPRMC,,V,,,,,,,,,,N,V*29
$GPGGA,,,,,,0,,,,,,,,*66
$GPGSV,3,1,11,02,84,317,18,10,33,050,16,01,49,267,,03,15,212,*73
$GPGSV,3,2,11,08,56,161,,14,26,305,,17,04,307,,22,19,319,*77
$GPGSV,3,3,11,24,01,016,,27,26,142,,32,31,094,*41
$GPGSV,3,1,11,02,84,317,15,10,33,050,12,01,49,267,,03,15,212,,1*67
$GPGSV,3,2,11,08,56,161,,14,26,305,,17,04,307,,22,19,319,,1*6A
$GPGSV,3,3,11,24,01,016,,27,26,142,,32,31,094,,1*5C
$GLGSV,2,1,08,82,21,092,17,75,20,333,14,83,70,047,14,67,41,049,15,1*76
$GLGSV,2,2,08,68,45,126,17,66,00,000,,73,10,232,,69,10,167,,1*74
$GAGSV,3,1,09,03,13,129,,05,25,077,,09,11,025,,13,24,260,,7*7F
$GAGSV,3,2,09,15,78,284,,21,31,305,,27,42,236,,30,14,188,,7*7A
$GAGSV,3,3,09,34,43,071,,7*4C
$PQGSV,1,1,0,0*43
$PQGSV,3,1,10,13,19,039,13,05,11,113,,08,08,033,,11,87,045,,0*7A
$PQGSV,3,2,10,12,33,106,,14,11,182,,21,51,095,,22,21,039,,0*7B
$PQGSV,3,3,10,23,14,261,,28,04,288,,0*7F
$GPGGA,141523.00,,,,,0,,,,,,,,*48
$GPVTG,,T,,M,,N,,K,N*2C
$GPGSA,A,1,,,,,,,,,,,,,,,*1E
$GPRMC,,V,,,,,,,,,,N*53
$GPGSA,A,1,,,,,,,,,,,,,,,*1E
$GNGSA,A,1,,,,,,,,,,,,,,,*00
$PQGSA,A,1,,,,,,,,,,,,,,,*08
$GPVTG,,T,,M,,N,,K,N*2C
$GPRMC,,V,,,,,,,,,,N,V*29
$GPGGA,,,,,,0,,,,,,,,*66
$GPGSV,3,1,11,02,84,317,18,10,33,050,16,01,49,267,,03,15,212,*73
$GPGSV,3,2,11,08,56,161,,14,26,305,,17,04,307,,22,19,319,*77
$GPGSV,3,3,11,24,01,016,,27,26,142,,32,31,094,*41
$GPGSV,3,1,11,02,84,317,15,10,33,050,12,01,49,267,,03,15,212,,1*67
$GPGSV,3,2,11,08,56,161,,14,26,305,,17,04,307,,22,19,319,,1*6A
$GPGSV,3,3,11,24,01,016,,27,26,142,,32,31,094,,1*5C
$GLGSV,2,1,08,82,21,092,13,75,20,333,14,83,70,047,16,67,41,049,15,1*70
$GLGSV,2,2,08,68,45,126,17,66,00,000,,73,10,232,,69,10,167,,1*74
$GAGSV,3,1,09,03,13,129,,05,25,077,,09,11,025,,13,24,260,,7*7F
$GAGSV,3,2,09,15,78,284,,21,31,305,,27,42,236,,30,14,188,,7*7A
$GAGSV,3,3,09,34,43,071,,7*4C
$PQGSV,1,1,0,0*43
$PQGSV,3,1,10,13,19,039,13,05,11,113,,08,08,033,,11,87,045,,0*7A
$PQGSV,3,2,10,12,33,106,,14,11,182,,21,51,095,,22,21,039,,0*7B
$PQGSV,3,3,10,23,14,261,,28,04,288,,0*7F
$GPGGA,141524.00,,,,,0,,,,,,,,*4F
$GPVTG,,T,,M,,N,,K,N*2C
$GPGSA,A,1,,,,,,,,,,,,,,,*1E
$GPRMC,,V,,,,,,,,,,N*53
$GPGSA,A,1,,,,,,,,,,,,,,,*1E
$GNGSA,A,1,,,,,,,,,,,,,,,*00
$PQGSA,A,1,,,,,,,,,,,,,,,*08
$GPVTG,,T,,M,,N,,K,N*2C
$GPRMC,,V,,,,,,,,,,N,V*29
$GPGGA,,,,,,0,,,,,,,,*66
$GPGSV,3,1,11,02,84,317,19,10,33,050,16,01,49,267,,03,15,212,*72
$GPGSV,3,2,11,08,56,161,,14,26,305,,17,04,307,,22,19,319,*77
$GPGSV,3,3,11,24,01,016,,27,26,142,,32,31,094,*41
$GPGSV,3,1,11,02,84,317,15,10,33,050,12,01,49,267,,03,15,212,,1*67
$GPGSV,3,2,11,08,56,161,,14,26,305,,17,04,307,,22,19,319,,1*6A
$GPGSV,3,3,11,24,01,016,,27,26,142,,32,31,094,,1*5C
$GLGSV,2,1,08,82,21,092,13,75,20,333,14,69,10,167,12,83,70,047,16,1*70
$GLGSV,2,2,08,67,41,049,16,68,45,126,17,66,00,000,,73,10,232,,1*74
$GAGSV,3,1,09,03,13,129,,05,25,077,,09,11,025,,13,24,260,,7*7F
$GAGSV,3,2,09,15,78,284,,21,31,305,,27,42,236,,30,14,188,,7*7A
$GAGSV,3,3,09,34,43,071,,7*4C
$PQGSV,1,1,0,0*43
$PQGSV,3,1,10,13,19,039,13,05,11,113,,08,08,033,,11,87,045,,0*7A
$PQGSV,3,2,10,12,33,106,,14,11,182,,21,51,095,,22,21,039,,0*7B
$PQGSV,3,3,10,23,14,261,,28,04,288,,0*7F
$GPGGA,141525.00,,,,,0,,,,,,,,*4E
$GPVTG,,T,,M,,N,,K,N*2C
$GPGSA,A,1,,,,,,,,,,,,,,,*1E
$GPRMC,,V,,,,,,,,,,N*53
$GPGSA,A,1,,,,,,,,,,,,,,,*1E
$GNGSA,A,1,,,,,,,,,,,,,,,*00
$PQGSA,A,1,,,,,,,,,,,,,,,*08
$GPVTG,,T,,M,,N,,K,N*2C
$GPRMC,,V,,,,,,,,,,N,V*29
$GPGGA,,,,,,0,,,,,,,,*66
$GPGSV,3,1,11,02,84,317,19,10,33,050,16,01,49,267,,03,15,212,*72
$GPGSV,3,2,11,08,56,161,,14,26,305,,17,04,307,,22,19,319,*77
$GPGSV,3,3,11,24,01,016,,27,26,142,,32,31,094,*41
$GPGSV,3,1,11,02,84,317,15,10,33,050,12,01,49,267,,03,15,212,,1*67
$GPGSV,3,2,11,08,56,161,,14,26,305,,17,04,307,,22,19,319,,1*6A
$GPGSV,3,3,11,24,01,016,,27,26,142,,32,31,094,,1*5C
$GLGSV,2,1,08,82,21,092,13,75,20,333,14,69,10,167,12,83,70,047,16,1*70
$GLGSV,2,2,08,67,41,049,16,68,45,126,17,66,00,000,,73,10,232,,1*74
$GAGSV,3,1,09,03,13,129,,05,25,077,,09,11,025,,13,24,260,,7*7F
$GAGSV,3,2,09,15,78,284,,21,31,305,,27,42,236,,30,14,188,,7*7A
$GAGSV,3,3,09,34,43,071,,7*4C
$PQGSV,1,1,0,0*43
$PQGSV,3,1,10,13,19,039,13,05,11,113,,08,08,033,,11,87,046,,0*79
$PQGSV,3,2,10,12,33,106,,14,11,182,,21,51,095,,22,21,039,,0*7B
$PQGSV,3,3,10,23,14,261,,28,04,288,,0*7F
$GPGGA,141526.00,,,,,0,,,,,,,,*4D
$GPVTG,,T,,M,,N,,K,N*2C
$GPGSA,A,1,,,,,,,,,,,,,,,*1E
$GPRMC,,V,,,,,,,,,,N*53
$GPGSA,A,1,,,,,,,,,,,,,,,*1E
$GNGSA,A,1,,,,,,,,,,,,,,,*00
$PQGSA,A,1,,,,,,,,,,,,,,,*08
$GPVTG,,T,,M,,N,,K,N*2C
$GPRMC,,V,,,,,,,,,,N,V*29
$GPGGA,,,,,,0,,,,,,,,*66
$GPGSV,3,1,11,02,84,317,19,10,33,050,16,01,49,267,,03,15,212,*72
$GPGSV,3,2,11,08,56,161,,14,26,305,,17,04,307,,22,19,319,*77
$GPGSV,3,3,11,24,01,016,,27,26,142,,32,31,094,*41
$GPGSV,3,1,11,02,84,317,15,10,33,050,12,01,49,267,,03,15,212,,1*67
$GPGSV,3,2,11,08,56,161,,14,26,305,,17,04,307,,22,19,319,,1*6A
$GPGSV,3,3,11,24,01,016,,27,26,142,,32,31,094,,1*5C
$GLGSV,2,1,08,82,21,092,13,75,20,333,14,69,10,167,12,83,70,047,15,1*73
$GLGSV,2,2,08,67,41,049,16,68,45,126,15,66,00,000,,73,10,232,,1*76
$GAGSV,3,1,09,03,13,129,,05,25,077,,09,11,025,,13,24,260,,7*7F
$GAGSV,3,2,09,15,78,284,,21,31,305,,27,42,236,,30,14,188,,7*7A
$GAGSV,3,3,09,34,43,071,,7*4C
$PQGSV,1,1,0,0*43
$PQGSV,3,1,10,13,19,039,13,05,11,113,,08,08,033,,11,87,046,,0*79
$PQGSV,3,2,10,12,33,106,,14,11,182,,21,51,095,,22,21,039,,0*7B
$PQGSV,3,3,10,23,14,261,,28,04,288,,0*7F
$GPGGA,141527.00,,,,,0,,,,,,,,*4C
$GPVTG,,T,,M,,N,,K,N*2C
$GPGSA,A,1,,,,,,,,,,,,,,,*1E
$GPRMC,,V,,,,,,,,,,N*53
$GPGSA,A,1,,,,,,,,,,,,,,,*1E
$GNGSA,A,1,,,,,,,,,,,,,,,*00
$PQGSA,A,1,,,,,,,,,,,,,,,*08
$GPVTG,,T,,M,,N,,K,N*2C
$GPRMC,,V,,,,,,,,,,N,V*29
$GPGGA,,,,,,0,,,,,,,,*66
$GPGSV,3,1,11,02,84,317,19,10,33,050,16,01,49,267,,03,15,212,*72
$GPGSV,3,2,11,08,56,161,,14,26,305,,17,04,307,,22,19,319,*77
$GPGSV,3,3,11,24,01,016,,27,26,142,,32,31,094,*41
$GPGSV,3,1,11,02,84,317,15,10,33,050,12,01,49,267,,03,15,212,,1*67
$GPGSV,3,2,11,08,56,161,,14,26,305,,17,04,307,,22,19,319,,1*6A
$GPGSV,3,3,11,24,01,016,,27,26,142,,32,31,094,,1*5C
$GLGSV,2,1,08,82,21,092,13,75,20,333,14,69,10,167,12,83,70,047,15,1*73
$GLGSV,2,2,08,67,41,049,15,68,45,126,19,66,00,000,,73,10,232,,1*79
$GAGSV,3,1,09,03,13,129,,05,25,077,,09,11,025,,13,24,260,,7*7F
$GAGSV,3,2,09,15,78,284,,21,31,305,,27,42,236,,30,14,188,,7*7A
$GAGSV,3,3,09,34,43,071,,7*4C
$PQGSV,1,1,0,0*43
$PQGSV,3,1,10,13,19,039,13,05,11,113,,08,08,033,,11,87,046,,0*79
$PQGSV,3,2,10,12,33,106,,14,11,182,,21,51,095,,22,21,039,,0*7B
$PQGSV,3,3,10,23,14,261,,28,04,288,,0*7F
$GPGGA,141528.00,,,,,0,,,,,,,,*43
$GPVTG,,T,,M,,N,,K,N*2C
$GPGSA,A,1,,,,,,,,,,,,,,,*1E
$GPRMC,,V,,,,,,,,,,N*53
$GPGSA,A,1,,,,,,,,,,,,,,,*1E
$GNGSA,A,1,,,,,,,,,,,,,,,*00
$PQGSA,A,1,,,,,,,,,,,,,,,*08
$GPVTG,,T,,M,,N,,K,N*2C
$GPRMC,,V,,,,,,,,,,N,V*29
$GPGGA,,,,,,0,,,,,,,,*66
$GPGSV,3,1,11,02,84,317,18,10,33,050,16,01,49,267,,03,15,212,*73
$GPGSV,3,2,11,08,56,161,,14,26,305,,17,04,307,,22,19,319,*77
$GPGSV,3,3,11,24,01,016,,27,26,142,,32,31,094,*41
$GPGSV,3,1,11,02,84,317,14,10,33,050,12,01,49,267,,03,15,212,,1*66
$GPGSV,3,2,11,08,56,161,,14,26,305,,17,04,307,,22,19,319,,1*6A
$GPGSV,3,3,11,24,01,016,,27,26,142,,32,31,094,,1*5C
$GLGSV,2,1,08,82,21,092,12,75,20,333,14,69,10,167,12,83,70,047,16,1*71
$GLGSV,2,2,08,67,41,049,15,68,45,126,19,66,00,000,,73,10,232,,1*79
$GAGSV,3,1,09,03,13,129,,05,25,077,,09,11,025,,13,24,260,,7*7F
$GAGSV,3,2,09,15,78,284,,21,31,305,,27,42,236,,30,14,188,,7*7A
$GAGSV,3,3,09,34,43,071,,7*4C
$PQGSV,1,1,0,0*43
$PQGSV,3,1,10,13,19,039,13,05,11,113,,08,08,033,,11,87,046,,0*79
$PQGSV,3,2,10,12,33,106,,14,11,182,,21,51,095,,22,21,039,,0*7B
$PQGSV,3,3,10,23,14,261,,28,04,288,,0*7F
$GPGGA,141529.00,,,,,0,,,,,,,,*42
$GPVTG,,T,,M,,N,,K,N*2C
$GPGSA,A,1,,,,,,,,,,,,,,,*1E
$GPRMC,,V,,,,,,,,,,N*53
$GPGSA,A,1,,,,,,,,,,,,,,,*1E
$GNGSA,A,1,,,,,,,,,,,,,,,*00
$PQGSA,A,1,,,,,,,,,,,,,,,*08
$GPVTG,,T,,M,,N,,K,N*2C
$GPRMC,,V,,,,,,,,,,N,V*29
$GPGGA,,,,,,0,,,,,,,,*66
$GPGSV,3,1,11,02,84,317,18,10,33,050,16,01,49,267,,03,15,212,*73
$GPGSV,3,2,11,08,56,161,,14,26,305,,17,04,307,,22,19,319,*77
$GPGSV,3,3,11,24,01,016,,27,26,142,,32,31,094,*41
$GPGSV,3,1,11,02,84,317,14,10,33,050,12,01,49,267,,03,15,212,,1*66
$GPGSV,3,2,11,08,56,161,,14,26,305,,17,04,307,,22,19,319,,1*6A
$GPGSV,3,3,11,24,01,016,,27,26,142,,32,31,094,,1*5C
$GLGSV,2,1,07,82,21,092,12,69,10,167,13,83,70,047,16,67,41,049,15,1*74
$GLGSV,2,2,07,68,45,126,19,66,00,000,,73,10,232,,1*4B
$GAGSV,3,1,09,03,13,129,,05,25,077,,09,11,025,,13,24,260,,7*7F
$GAGSV,3,2,09,15,78,284,,21,31,305,,27,42,236,,30,14,188,,7*7A
$GAGSV,3,3,09,34,43,071,,7*4C
$PQGSV,1,1,0,0*43
$PQGSV,3,1,10,13,19,039,13,05,11,113,,08,08,033,,11,87,046,,0*79
$PQGSV,3,2,10,12,33,106,,14,11,182,,21,51,095,,22,21,039,,0*7B
$PQGSV,3,3,10,23,14,261,,28,04,288,,0*7F
$GPGGA,141530.00,,,,,0,,,,,,,,*4A
$GPVTG,,T,,M,,N,,K,N*2C
$GPGSA,A,1,,,,,,,,,,,,,,,*1E
$GPRMC,,V,,,,,,,,,,N*53
$GPGSA,A,1,,,,,,,,,,,,,,,*1E
$GNGSA,A,1,,,,,,,,,,,,,,,*00
$PQGSA,A,1,,,,,,,,,,,,,,,*08
$GPVTG,,T,,M,,N,,K,N*2C
$GPRMC,,V,,,,,,,,,,N,V*29
$GPGGA,,,,,,0,,,,,,,,*66
$GPGSV,3,1,11,02,84,317,18,10,33,050,16,01,49,267,,03,15,212,*73
$GPGSV,3,2,11,08,56,161,,14,26,305,,17,04,307,,22,19,319,*77
$GPGSV,3,3,11,24,01,016,,27,26,142,,32,31,094,*41
$GPGSV,3,1,11,02,84,317,14,10,33,050,12,01,49,267,,03,15,212,,1*66
$GPGSV,3,2,11,08,56,161,,14,26,305,,17,04,307,,22,19,319,,1*6A
$GPGSV,3,3,11,24,01,016,,27,26,142,,32,31,094,,1*5C
$GLGSV,2,1,08,82,21,092,12,69,10,167,13,83,70,047,16,67,41,049,15,1*7B
$GLGSV,2,2,08,68,45,126,15,66,00,000,,73,09,232,,75,20,333,,1*73
$GAGSV,3,1,09,03,13,129,,05,25,077,,09,11,025,,13,24,260,,7*7F
$GAGSV,3,2,09,15,78,284,,21,31,305,,27,42,236,,30,14,188,,7*7A
$GAGSV,3,3,09,34,43,071,,7*4C
$PQGSV,1,1,0,0*43
$PQGSV,3,1,10,13,19,039,13,05,11,113,,08,08,033,,11,87,046,,0*79
$PQGSV,3,2,10,12,32,106,,14,11,182,,21,51,095,,22,21,039,,0*7A
$PQGSV,3,3,10,23,14,261,,28,04,288,,0*7F
$GPGGA,141531.00,,,,,0,,,,,,,,*4B
$GPVTG,,T,,M,,N,,K,N*2C
$GPGSA,A,1,,,,,,,,,,,,,,,*1E
$GPRMC,,V,,,,,,,,,,N*53
$GPGSA,A,1,,,,,,,,,,,,,,,*1E
$GNGSA,A,1,,,,,,,,,,,,,,,*00
$PQGSA,A,1,,,,,,,,,,,,,,,*08
$GPVTG,,T,,M,,N,,K,N*2C
$GPRMC,,V,,,,,,,,,,N,V*29
$GPGGA,,,,,,0,,,,,,,,*66
$GPGSV,3,1,11,02,84,317,18,10,33,050,16,01,49,267,,03,15,212,*73
$GPGSV,3,2,11,08,56,161,,14,26,305,,17,04,307,,22,19,319,*77
$GPGSV,3,3,11,24,01,016,,27,26,142,,32,31,094,*41
$GPGSV,3,1,11,02,84,317,14,10,33,050,12,01,49,267,,03,15,212,,1*66
$GPGSV,3,2,11,08,56,161,,14,26,305,,17,04,307,,22,19,319,,1*6A
$GPGSV,3,3,11,24,01,016,,27,26,142,,32,31,094,,1*5C
$GLGSV,2,1,08,82,21,092,12,69,10,167,13,83,70,047,16,67,41,049,15,1*7B
$GLGSV,2,2,08,68,45,126,17,66,00,000,,73,09,232,,75,20,333,,1*71
$GAGSV,3,1,09,03,13,129,,05,25,077,,09,11,025,,13,24,260,,7*7F
$GAGSV,3,2,09,15,78,285,,21,31,305,,27,42,236,,30,14,188,,7*7B
$GAGSV,3,3,09,34,43,071,,7*4C
$PQGSV,1,1,0,0*43
$PQGSV,3,1,10,13,19,039,13,05,11,113,,08,08,033,,11,87,046,,0*79
$PQGSV,3,2,10,12,32,106,,14,11,182,,21,51,095,,22,21,039,,0*7A
$PQGSV,3,3,10,23,14,261,,28,04,288,,0*7F
$GPGGA,141532.00,,,,,0,,,,,,,,*48
$GPVTG,,T,,M,,N,,K,N*2C
$GPGSA,A,1,,,,,,,,,,,,,,,*1E
$GPRMC,,V,,,,,,,,,,N*53
$GPGSA,A,1,,,,,,,,,,,,,,,*1E
$GNGSA,A,1,,,,,,,,,,,,,,,*00
$PQGSA,A,1,,,,,,,,,,,,,,,*08
$GPVTG,,T,,M,,N,,K,N*2C
$GPRMC,,V,,,,,,,,,,N,V*29
$GPGGA,,,,,,0,,,,,,,,*66
$GPGSV,3,1,11,02,84,317,18,10,33,050,16,01,49,267,,03,15,212,*73
$GPGSV,3,2,11,08,56,161,,14,26,305,,17,04,307,,22,19,319,*77
$GPGSV,3,3,11,24,01,016,,27,26,142,,32,31,094,*41
$GPGSV,3,1,11,02,84,317,14,10,33,050,12,01,49,267,,03,15,212,,1*66
$GPGSV,3,2,11,08,56,161,,14,26,305,,17,04,307,,22,19,319,,1*6A
$GPGSV,3,3,11,24,01,016,,27,26,142,,32,31,094,,1*5C
$GLGSV,2,1,08,82,21,092,12,69,10,167,13,83,70,047,16,67,41,049,16,1*78
$GLGSV,2,2,08,68,45,126,17,66,00,000,,73,09,232,,75,20,333,,1*71
$GAGSV,3,1,09,03,13,129,,05,25,077,,09,11,025,,13,24,260,,7*7F
$GAGSV,3,2,09,15,78,285,,21,31,305,,27,42,236,,30,14,188,,7*7B
$GAGSV,3,3,09,34,43,071,,7*4C
$PQGSV,1,1,0,0*43
$PQGSV,3,1,10,13,19,039,13,05,11,113,,08,08,033,,11,87,046,,0*79
$PQGSV,3,2,10,12,32,106,,14,11,182,,21,51,095,,22,21,039,,0*7A
$PQGSV,3,3,10,23,14,261,,28,04,288,,0*7F
$GPGGA,141533.00,,,,,0,,,,,,,,*49
$GPVTG,,T,,M,,N,,K,N*2C
$GPGSA,A,1,,,,,,,,,,,,,,,*1E
$GPRMC,,V,,,,,,,,,,N*53
$GPGSA,A,1,,,,,,,,,,,,,,,*1E
$GNGSA,A,1,,,,,,,,,,,,,,,*00
$PQGSA,A,1,,,,,,,,,,,,,,,*08
$GPVTG,,T,,M,,N,,K,N*2C
$GPRMC,,V,,,,,,,,,,N,V*29
$GPGGA,,,,,,0,,,,,,,,*66
$GPGSV,3,1,11,02,84,317,18,10,33,050,16,01,49,267,,03,15,212,*73
$GPGSV,3,2,11,08,56,161,,14,26,305,,17,04,307,,22,19,319,*77
$GPGSV,3,3,11,24,01,016,,27,26,142,,32,31,094,*41
$GPGSV,3,1,11,02,84,317,14,10,33,050,12,01,49,267,,03,15,212,,1*66
$GPGSV,3,2,11,08,56,161,,14,26,305,,17,04,307,,22,19,319,,1*6A
$GPGSV,3,3,11,24,01,016,,27,26,142,,32,31,094,,1*5C
$GLGSV,2,1,08,82,21,092,12,69,10,167,13,83,70,047,15,67,41,049,16,1*7B
$GLGSV,2,2,08,68,45,126,17,66,00,000,,73,09,232,,75,20,333,,1*71
$GAGSV,3,1,09,03,13,129,,05,25,077,,09,11,025,,13,24,260,,7*7F
$GAGSV,3,2,09,15,78,285,,21,31,305,,27,42,236,,30,14,188,,7*7B
$GAGSV,3,3,09,34,43,071,,7*4C
$PQGSV,1,1,0,0*43
$PQGSV,3,1,10,13,19,039,13,05,11,113,,08,08,033,,11,87,046,,0*79
$PQGSV,3,2,10,12,32,106,,14,11,182,,21,51,095,,22,21,039,,0*7A
$PQGSV,3,3,10,23,14,261,,28,04,288,,0*7F
$GPGGA,141534.00,5211.720341,N,00008.715055,E,1,02,1.7,14.7,M,47.0,M,,*50
$GPVTG,0.0,T,3.3,M,0.0,N,0.0,K,A*23
$GPRMC,141534.00,A,5211.720341,N,00008.715055,E,0.0,0.0,160426,3.3,W,A*29
$GPGSA,A,2,02,10,,,,,,,,,,,2.0,1.7,0.9*3D
$GNGSA,A,2,02,10,,,,,,,,,,,2.0,1.7,0.9,1*3E
$GNGSA,A,3,67,68,69,82,83,,,,,,,,2.0,1.7,0.9,2*3E
$GNVTG,,T,,M,0.0,N,0.0,K,A*3D
$GNRMC,141534.00,A,5211.720341,N,00008.715055,E,0.0,,160426,3.2,W,A,V*62
$GNGGA,141534.00,5211.720341,N,00008.715055,E,1,07,1.7,14.7,M,47.0,M,,*4B
$GPGSV,3,1,11,02,84,317,18,10,33,050,16,01,49,267,,03,15,212,*73
$GPGSV,3,2,11,08,56,161,,14,26,305,,17,04,307,,22,19,319,*77
$GPGSV,3,3,11,24,01,016,,27,26,142,,32,31,094,*41
$GPGSV,3,1,11,02,84,317,14,10,33,050,12,01,49,267,,03,15,212,,1*66
$GPGSV,3,2,11,08,56,161,,14,26,305,,17,04,307,,22,19,319,,1*6A
$GPGSV,3,3,11,24,01,016,,27,26,142,,32,31,094,,1*5C
$GLGSV,2,1,08,82,21,092,12,69,10,167,13,83,70,049,15,67,41,049,16,1*75
$GLGSV,2,2,08,68,45,126,17,66,00,000,,73,09,232,,75,20,333,,1*71
$GAGSV,3,1,09,03,13,129,,05,25,077,,09,11,025,,13,24,260,,7*7F
$GAGSV,3,2,09,15,78,285,,21,31,305,,27,42,236,,30,14,188,,7*7B
$GAGSV,3,3,09,34,43,071,,7*4C
$PQGSV,1,1,0,0*43
$PQGSV,3,1,10,13,19,039,13,05,11,113,,08,08,033,,11,87,047,,0*78
$PQGSV,3,2,10,12,32,106,,14,11,182,,21,51,095,,22,21,039,,0*7A
$PQGSV,3,3,10,23,14,261,,28,04,288,,0*7F
$GPGGA,141535.00,5211.720342,N,00008.715056,E,1,02,2.1,14.7,M,47.0,M,,*54
$GPVTG,0.0,T,3.3,M,0.0,N,0.0,K,A*23
$GPRMC,141535.00,A,5211.720342,N,00008.715056,E,0.0,0.0,160426,3.3,W,A*28
$GPGSA,A,2,02,10,,,,,,,,,,,2.3,2.1,0.9*3B
$GNGSA,A,2,02,10,,,,,,,,,,,2.3,2.1,0.9,1*38
$GNGSA,A,3,67,68,69,83,,,,,,,,,2.3,2.1,0.9,2*32
$GNVTG,,T,,M,0.0,N,0.0,K,A*3D
$GNRMC,141535.00,A,5211.720342,N,00008.715056,E,0.0,,160426,3.2,W,A,V*63
$GNGGA,141535.00,5211.720342,N,00008.715056,E,1,06,2.1,14.7,M,47.0,M,,*4E
$GPGSV,3,1,11,02,84,317,18,10,33,050,16,01,49,267,,03,15,212,*73
$GPGSV,3,2,11,08,56,161,,14,26,305,,17,04,307,,22,19,319,*77
$GPGSV,3,3,11,24,01,016,,27,26,142,,32,31,094,*41
$GPGSV,3,1,11,02,84,317,14,10,33,050,12,01,49,267,,03,15,212,,1*66
$GPGSV,3,2,11,08,56,161,,14,26,305,,17,04,307,,22,19,319,,1*6A
$GPGSV,3,3,11,24,01,016,,27,26,142,,32,31,094,,1*5C
$GLGSV,2,1,08,82,21,092,12,69,10,167,13,83,70,049,17,67,41,049,16,1*77
$GLGSV,2,2,08,68,45,126,17,66,00,000,,73,09,232,,75,20,333,,1*71
$GAGSV,3,1,09,03,13,129,,05,25,077,,09,11,025,,13,24,260,,7*7F
$GAGSV,3,2,09,15,78,285,,21,31,305,,27,42,236,,30,14,188,,7*7B
$GAGSV,3,3,09,34,43,071,,7*4C
$PQGSV,1,1,0,0*43
$PQGSV,3,1,10,13,19,039,13,05,11,113,,08,08,033,,11,87,047,,0*78
$PQGSV,3,2,10,12,32,106,,14,11,182,,21,51,095,,22,21,039,,0*7A
$PQGSV,3,3,10,23,14,261,,28,04,288,,0*7F
$GPGGA,141536.00,5211.720342,N,00008.715056,E,1,01,2.9,14.7,M,47.0,M,,*5C
$GPVTG,0.0,T,3.3,M,0.0,N,0.0,K,A*23
$GPRMC,141536.00,A,5211.720342,N,00008.715056,E,0.0,0.0,160426,3.3,W,A*2B
$GPGSA,A,2,02,,,,,,,,,,,,3.0,2.9,1.0*38
$GNGSA,A,2,02,,,,,,,,,,,,3.0,2.9,1.0,1*3B
$GNGSA,A,2,67,68,83,,,,,,,,,,3.0,2.9,1.0,2*3E
$GNVTG,,T,,M,0.0,N,0.0,K,A*3D
$GNRMC,141536.00,A,5211.720342,N,00008.715056,E,0.0,,160426,3.2,W,A,V*60
$GNGGA,141536.00,5211.720342,N,00008.715056,E,1,04,2.9,14.7,M,47.0,M,,*47
$GPGSV,3,1,11,02,84,317,18,10,33,050,16,01,49,267,,03,15,212,*73
$GPGSV,3,2,11,08,56,161,,14,26,305,,17,04,307,,22,19,319,*77
$GPGSV,3,3,11,24,01,016,,27,26,142,,32,31,094,*41
$GPGSV,3,1,11,02,84,317,14,10,33,050,12,01,49,267,,03,15,212,,1*66
$GPGSV,3,2,11,08,56,161,,14,26,305,,17,04,307,,22,19,319,,1*6A
$GPGSV,3,3,11,24,01,016,,27,26,142,,32,31,094,,1*5C
$GLGSV,2,1,08,82,21,092,12,69,10,167,13,83,70,049,17,67,41,049,17,1*76
$GLGSV,2,2,08,68,45,126,13,66,00,000,,73,09,232,,75,20,333,,1*75
$GAGSV,3,1,09,03,13,129,,05,25,077,,09,11,025,,13,24,260,,7*7F
$GAGSV,3,2,09,15,78,285,,21,31,305,,27,42,236,,30,14,188,,7*7B
$GAGSV,3,3,09,34,43,071,,7*4C
$PQGSV,1,1,0,0*43
$PQGSV,3,1,10,13,19,039,13,05,11,113,,08,08,033,,11,87,047,,0*78
$PQGSV,3,2,10,12,32,106,,14,11,182,,21,51,095,,22,21,039,,0*7A
$PQGSV,3,3,10,23,14,261,,28,04,288,,0*7F
$GPGGA,141537.00,5211.720342,N,00008.715056,E,1,01,2.9,14.7,M,47.0,M,,*5D
$GPVTG,0.0,T,3.3,M,0.0,N,0.0,K,A*23
$GPRMC,141537.00,A,5211.720342,N,00008.715056,E,0.0,0.0,160426,3.3,W,A*2A
$GPGSA,A,2,02,,,,,,,,,,,,3.0,2.9,1.0*38
$GNGSA,A,2,02,,,,,,,,,,,,3.0,2.9,1.0,1*3B
$GNGSA,A,2,67,68,83,,,,,,,,,,3.0,2.9,1.0,2*3E
$GNVTG,,T,,M,0.0,N,0.0,K,A*3D
$GNRMC,141537.00,A,5211.720342,N,00008.715056,E,0.0,,160426,3.2,W,A,V*61
$GNGGA,141537.00,5211.720342,N,00008.715056,E,1,04,2.9,14.7,M,47.0,M,,*46
$GPGSV,3,1,11,02,84,317,17,10,33,050,16,01,49,267,,03,15,212,*7C
$GPGSV,3,2,11,08,56,161,,14,26,305,,17,04,307,,22,19,319,*77
$GPGSV,3,3,11,24,01,016,,27,26,142,,32,31,094,*41
$GPGSV,3,1,11,02,84,317,14,10,33,050,12,01,49,267,,03,15,212,,1*66
$GPGSV,3,2,11,08,56,161,,14,26,305,,17,04,307,,22,19,319,,1*6A
$GPGSV,3,3,11,24,01,016,,27,26,142,,32,31,094,,1*5C
$GLGSV,2,1,08,82,21,092,12,69,10,167,13,83,70,049,16,67,41,049,17,1*77
$GLGSV,2,2,08,68,45,126,13,66,00,000,,73,09,232,,75,20,333,,1*75
$GAGSV,3,1,09,03,13,129,,05,25,077,,09,11,025,,13,24,260,,7*7F
$GAGSV,3,2,09,15,78,285,,21,31,305,,27,42,236,,30,14,188,,7*7B
$GAGSV,3,3,09,34,43,071,,7*4C
$PQGSV,1,1,0,0*43
$PQGSV,3,1,10,13,19,039,13,05,11,113,,08,08,033,,11,87,047,,0*78
$PQGSV,3,2,10,12,32,106,,14,11,182,,21,51,095,,22,21,039,,0*7A
$PQGSV,3,3,10,23,14,261,,28,04,288,,0*7F
$GPGGA,141538.00,5211.720343,N,00008.715060,E,1,01,2.9,14.7,M,47.0,M,,*56
$GPVTG,0.0,T,3.3,M,0.0,N,0.0,K,A*23
$GPRMC,141538.00,A,5211.720343,N,00008.715060,E,0.0,0.0,160426,3.3,W,A*21
$GPGSA,A,2,02,,,,,,,,,,,,3.0,2.9,1.0*38
$GNGSA,A,2,02,,,,,,,,,,,,3.0,2.9,1.0,1*3B
$GNGSA,A,2,67,68,83,,,,,,,,,,3.0,2.9,1.0,2*3E
$GNVTG,,T,,M,0.0,N,0.0,K,A*3D
$GNRMC,141538.00,A,5211.720342,N,00008.715060,E,0.0,,160426,3.2,W,A,V*6B
$GNGGA,141538.00,5211.720342,N,00008.715060,E,1,04,2.9,14.7,M,47.0,M,,*4C
$GPGSV,3,1,11,02,84,317,17,10,33,050,16,01,49,267,,03,15,212,*7C
$GPGSV,3,2,11,08,56,161,,14,26,305,,17,04,307,,22,19,319,*77
$GPGSV,3,3,11,24,01,016,,27,26,142,,32,31,094,*41
$GPGSV,3,1,11,02,84,317,14,10,33,050,12,01,49,267,,03,15,212,,1*66
$GPGSV,3,2,11,08,56,161,,14,26,305,,17,04,307,,22,19,319,,1*6A
$GPGSV,3,3,11,24,01,016,,27,26,142,,32,31,094,,1*5C
$GLGSV,2,1,08,82,21,092,12,69,10,167,13,83,70,049,16,67,41,049,17,1*77
$GLGSV,2,2,08,68,45,126,16,66,00,000,,73,09,232,,75,20,333,,1*70
$GAGSV,3,1,09,03,13,129,,05,25,077,,09,11,025,,13,24,260,,7*7F
$GAGSV,3,2,09,15,78,285,,21,31,305,,27,42,236,,30,14,188,,7*7B
$GAGSV,3,3,09,34,43,071,,7*4C
$PQGSV,1,1,0,0*43
$PQGSV,3,1,10,13,19,039,13,05,11,113,,08,08,033,,11,87,047,,0*78
$PQGSV,3,2,10,12,32,106,,14,11,182,,21,51,095,,22,21,039,,0*7A
$PQGSV,3,3,10,23,14,261,,28,04,288,,0*7F
$GPGGA,141539.00,5211.720344,N,00008.715063,E,1,01,2.3,14.7,M,47.0,M,,*59
$GPVTG,0.0,T,3.3,M,0.0,N,0.0,K,A*23
$GPRMC,141539.00,A,5211.720344,N,00008.715063,E,0.0,0.0,160426,3.3,W,A*24
$GPGSA,A,2,02,,,,,,,,,,,,2.5,2.3,1.0*36
$GNGSA,A,2,02,,,,,,,,,,,,2.5,2.3,1.0,1*35
$GNGSA,A,3,67,68,82,83,,,,,,,,,2.5,2.3,1.0,2*3B
$GNVTG,,T,,M,0.0,N,0.0,K,A*3D
$GNRMC,141539.00,A,5211.720344,N,00008.715063,E,0.0,,160426,3.2,W,A,V*6F
$GNGGA,141539.00,5211.720344,N,00008.715063,E,1,05,2.3,14.7,M,47.0,M,,*43
$GPGSV,3,1,11,02,84,317,17,10,33,050,16,01,49,267,,03,15,212,*7C
$GPGSV,3,2,11,08,56,161,,14,26,305,,17,04,307,,22,19,319,*77
$GPGSV,3,3,11,24,01,016,,27,26,142,,32,31,094,*41
$GPGSV,3,1,11,02,84,317,14,10,33,050,12,01,49,267,,03,15,212,,1*66
$GPGSV,3,2,11,08,56,161,,14,26,305,,17,04,307,,22,19,319,,1*6A
$GPGSV,3,3,11,24,01,016,,27,26,142,,32,31,094,,1*5C
$GLGSV,2,1,08,82,21,092,12,69,10,167,12,83,70,049,17,67,41,049,16,1*76
$GLGSV,2,2,08,68,45,126,16,66,00,000,,73,09,232,,75,20,333,,1*70
$GAGSV,3,1,09,03,13,129,,05,25,077,,09,11,025,,13,24,260,,7*7F
$GAGSV,3,2,09,15,78,285,,21,31,305,,27,42,236,,30,14,188,,7*7B
$GAGSV,3,3,09,34,43,071,,7*4C
$PQGSV,1,1,0,0*43
$PQGSV,3,1,10,13,19,039,13,05,11,113,,08,08,033,,11,87,047,,0*78
$PQGSV,3,2,10,12,32,106,,14,11,182,,21,51,095,,22,21,039,,0*7A
$PQGSV,3,3,10,23,14,261,,28,04,288,,0*7F
$GPGGA,141540.00,5211.720344,N,00008.715061,E,1,02,1.7,14.7,M,47.0,M,,*51
$GPVTG,0.0,T,3.3,M,0.0,N,0.0,K,A*23
$GPRMC,141540.00,A,5211.720344,N,00008.715061,E,0.0,0.0,160426,3.3,W,A*28
$GPGSA,A,2,02,10,,,,,,,,,,,2.0,1.7,0.9*3D
$GNGSA,A,2,02,10,,,,,,,,,,,2.0,1.7,0.9,1*3E
$GNGSA,A,3,67,68,69,82,83,,,,,,,,2.0,1.7,0.9,2*3E
$GNVTG,,T,,M,0.0,N,0.0,K,A*3D
$GNRMC,141540.00,A,5211.720344,N,00008.715061,E,0.0,,160426,3.2,W,A,V*63
$GNGGA,141540.00,5211.720344,N,00008.715061,E,1,07,1.7,14.7,M,47.0,M,,*4A
$GPGSV,3,1,11,02,84,317,17,10,33,050,16,01,49,267,,03,15,212,*7C
$GPGSV,3,2,11,08,56,161,,14,26,305,,17,04,307,,22,19,319,*77
$GPGSV,3,3,11,24,01,016,,27,26,142,,32,31,094,*41
$GPGSV,3,1,11,02,84,317,14,10,33,050,12,01,49,267,,03,15,212,,1*66
$GPGSV,3,2,11,08,56,161,,14,26,305,,17,04,307,,22,19,319,,1*6A
$GPGSV,3,3,11,24,01,016,,27,26,142,,32,31,094,,1*5C
$GLGSV,2,1,08,82,21,092,12,69,10,167,12,83,70,049,18,67,41,049,18,1*77
$GLGSV,2,2,08,68,45,126,16,66,00,000,,73,09,232,,75,20,333,,1*70
$GAGSV,3,1,09,03,13,129,,05,25,077,,09,11,025,,13,24,260,,7*7F
$GAGSV,3,2,09,15,78,285,,21,31,305,,27,42,236,,30,14,188,,7*7B
$GAGSV,3,3,09,34,43,071,,7*4C
$PQGSV,1,1,0,0*43
$PQGSV,3,1,10,13,19,039,13,05,11,113,,08,08,033,,11,87,047,,0*78
$PQGSV,3,2,10,12,32,106,,14,11,182,,21,51,095,,22,21,039,,0*7A
$PQGSV,3,3,10,23,14,261,,28,04,288,,0*7F
$GPGGA,141541.00,5211.720344,N,00008.715061,E,1,02,1.7,14.7,M,47.0,M,,*50
$GPVTG,0.0,T,3.3,M,0.0,N,0.0,K,A*23
$GPRMC,141541.00,A,5211.720344,N,00008.715061,E,0.0,0.0,160426,3.3,W,A*29
$GPGSA,A,2,02,10,,,,,,,,,,,2.0,1.7,0.9*3D
$GNGSA,A,2,02,10,,,,,,,,,,,2.0,1.7,0.9,1*3E
$GNGSA,A,3,67,68,69,82,83,,,,,,,,2.0,1.7,0.9,2*3E
$GNVTG,,T,,M,0.0,N,0.0,K,A*3D
$GNRMC,141541.00,A,5211.720344,N,00008.715061,E,0.0,,160426,3.2,W,A,V*62
$GNGGA,141541.00,5211.720344,N,00008.715061,E,1,07,1.7,14.7,M,47.0,M,,*4B
$GPGSV,3,1,11,02,84,317,18,10,33,050,16,01,49,267,,03,15,212,*73
$GPGSV,3,2,11,08,56,161,,14,26,305,,17,04,307,,22,19,319,*77
$GPGSV,3,3,11,24,01,016,,27,26,142,,32,31,094,*41
$GPGSV,3,1,11,02,84,317,14,10,33,050,12,01,49,267,,03,15,212,,1*66
$GPGSV,3,2,11,08,56,161,,14,26,305,,17,04,307,,22,19,319,,1*6A
$GPGSV,3,3,11,24,01,016,,27,26,142,,32,31,094,,1*5C
$GLGSV,2,1,08,82,21,092,12,69,10,167,12,83,70,049,18,67,41,049,18,1*77
$GLGSV,2,2,08,68,45,126,15,66,00,000,,73,09,232,,75,20,333,,1*73
$GAGSV,3,1,09,03,13,129,,05,25,077,,09,11,025,,13,24,260,,7*7F
$GAGSV,3,2,09,15,78,285,,21,31,305,,27,42,236,,30,14,188,,7*7B
$GAGSV,3,3,09,34,43,071,,7*4C
$PQGSV,1,1,0,0*43
$PQGSV,3,1,10,13,19,039,13,05,11,113,,08,08,033,,11,87,047,,0*78
$PQGSV,3,2,10,12,32,106,,14,11,182,,21,51,095,,22,21,039,,0*7A
$PQGSV,3,3,10,23,14,261,,28,04,288,,0*7F
$GPGGA,141542.00,5211.720342,N,00008.715051,E,1,02,1.7,14.7,M,47.0,M,,*56
$GPVTG,0.0,T,3.3,M,0.0,N,0.0,K,A*23
$GPRMC,141542.00,A,5211.720342,N,00008.715051,E,0.0,0.0,160426,3.3,W,A*2F
$GPGSA,A,2,02,10,,,,,,,,,,,2.0,1.7,0.9*3D
$GNGSA,A,2,02,10,,,,,,,,,,,2.0,1.7,0.9,1*3E
$GNGSA,A,3,67,68,69,82,83,,,,,,,,2.0,1.7,0.9,2*3E
$GNVTG,,T,,M,0.0,N,0.0,K,A*3D
$GNRMC,141542.00,A,5211.720342,N,00008.715051,E,0.0,,160426,3.2,W,A,V*64
$GNGGA,141542.00,5211.720342,N,00008.715051,E,1,07,1.7,14.7,M,47.0,M,,*4D
$GPGSV,3,1,11,02,84,317,18,10,33,050,16,01,49,267,,03,15,212,*73
$GPGSV,3,2,11,08,56,161,,14,26,305,,17,04,307,,22,19,319,*77
$GPGSV,3,3,11,24,01,016,,27,26,142,,32,31,094,*41
$GPGSV,3,1,11,02,84,317,14,10,33,050,12,01,49,267,,03,15,212,,1*66
$GPGSV,3,2,11,08,56,161,,14,26,305,,17,04,307,,22,19,319,,1*6A
$GPGSV,3,3,11,24,01,016,,27,26,142,,32,31,094,,1*5C
$GLGSV,2,1,08,82,21,092,12,69,10,167,12,83,70,049,18,67,41,049,16,1*79
$GLGSV,2,2,08,68,45,126,15,66,00,000,,73,09,232,,75,20,333,,1*73
$GAGSV,3,1,09,03,13,129,,05,25,077,,09,11,025,,13,24,260,,7*7F
$GAGSV,3,2,09,15,78,285,,21,31,305,,27,42,236,,30,14,188,,7*7B
$GAGSV,3,3,09,34,43,071,,7*4C
$PQGSV,1,1,0,0*43
$PQGSV,3,1,10,13,19,039,13,05,11,113,,08,08,033,,11,87,049,,0*76
$PQGSV,3,2,10,12,32,106,,14,11,182,,21,51,095,,22,21,039,,0*7A
$PQGSV,3,3,10,23,14,261,,28,04,288,,0*7F
$GPGGA,141543.00,5211.720342,N,00008.715051,E,1,02,1.7,14.7,M,47.0,M,,*57
$GPVTG,0.0,T,3.3,M,0.0,N,0.0,K,A*23
$GPRMC,141543.00,A,5211.720342,N,00008.715051,E,0.0,0.0,160426,3.3,W,A*2E
$GPGSA,A,2,02,10,,,,,,,,,,,2.0,1.7,0.9*3D
$GNGSA,A,2,02,10,,,,,,,,,,,2.0,1.7,0.9,1*3E
$GNGSA,A,3,67,68,69,82,83,,,,,,,,2.0,1.7,0.9,2*3E
$GNVTG,,T,,M,0.0,N,0.0,K,A*3D
$GNRMC,141543.00,A,5211.720342,N,00008.715051,E,0.0,,160426,3.2,W,A,V*65
$GNGGA,141543.00,5211.720342,N,00008.715051,E,1,07,1.7,14.7,M,47.0,M,,*4C
$GPGSV,3,1,11,02,84,319,18,10,33,050,16,01,49,267,,03,15,212,*7D
$GPGSV,3,2,11,08,56,161,,14,26,305,,17,04,307,,22,19,319,*77
$GPGSV,3,3,11,24,01,016,,27,26,142,,32,31,094,*41
$GPGSV,3,1,11,02,84,319,14,10,33,050,12,01,49,267,,03,15,212,,1*68
$GPGSV,3,2,11,08,56,161,,14,26,305,,17,04,307,,22,19,319,,1*6A
$GPGSV,3,3,11,24,01,016,,27,26,142,,32,31,094,,1*5C
$GLGSV,2,1,08,82,21,092,12,69,10,167,12,83,70,049,19,67,41,049,16,1*78
$GLGSV,2,2,08,68,45,126,16,66,00,000,,73,09,232,,75,20,333,,1*70
$GAGSV,3,1,09,03,13,129,,05,25,077,,09,11,025,,13,24,260,,7*7F
$GAGSV,3,2,09,15,78,285,,21,31,305,,27,42,236,,30,14,188,,7*7B
$GAGSV,3,3,09,34,43,071,,7*4C
$PQGSV,1,1,0,0*43
$PQGSV,3,1,10,13,19,039,13,05,11,113,,08,08,033,,11,87,049,,0*76
$PQGSV,3,2,10,12,32,106,,14,11,182,,21,51,095,,22,21,039,,0*7A
$PQGSV,3,3,10,23,14,261,,28,04,288,,0*7F
$GPGGA,141544.00,5211.720343,N,00008.715051,E,1,02,1.7,14.7,M,47.0,M,,*51
$GPVTG,0.0,T,3.3,M,0.0,N,0.0,K,A*23
$GPRMC,141544.00,A,5211.720343,N,00008.715051,E,0.0,0.0,160426,3.3,W,A*28
$GPGSA,A,2,02,10,,,,,,,,,,,2.0,1.7,0.9*3D
$GNGSA,A,2,02,10,,,,,,,,,,,2.0,1.7,0.9,1*3E
$GNGSA,A,3,67,68,69,82,83,,,,,,,,2.0,1.7,0.9,2*3E
$GNVTG,,T,,M,0.0,N,0.0,K,A*3D
$GNRMC,141544.00,A,5211.720342,N,00008.715050,E,0.0,,160426,3.2,W,A,V*63
$GNGGA,141544.00,5211.720342,N,00008.715050,E,1,07,1.7,14.7,M,47.0,M,,*4A
$GPGSV,3,1,11,02,84,319,18,10,33,050,16,01,49,267,,03,15,212,*7D
$GPGSV,3,2,11,08,56,161,,14,26,305,,17,04,307,,22,19,319,*77
$GPGSV,3,3,11,24,01,016,,27,26,142,,32,31,094,*41
$GPGSV,3,1,11,02,84,319,14,10,33,050,12,01,49,267,,03,15,212,,1*68
$GPGSV,3,2,11,08,56,161,,14,26,305,,17,04,307,,22,19,319,,1*6A
$GPGSV,3,3,11,24,01,016,,27,26,142,,32,31,094,,1*5C
$GLGSV,2,1,08,82,21,092,12,69,10,167,12,83,70,049,19,67,41,049,16,1*78
$GLGSV,2,2,08,68,45,126,16,66,00,000,,73,09,232,,75,20,333,,1*70
$GAGSV,3,1,09,03,13,129,,05,25,077,,09,11,025,,13,24,260,,7*7F
$GAGSV,3,2,09,15,78,285,,21,31,305,,27,42,236,,30,14,188,,7*7B
$GAGSV,3,3,09,34,43,071,,7*4C
$PQGSV,1,1,0,0*43
$PQGSV,3,1,10,05,11,113,,08,08,033,,11,87,049,,12,32,106,,0*71
$PQGSV,3,2,10,13,19,039,,14,11,182,,21,51,095,,22,21,039,,0*7F
$PQGSV,3,3,10,23,14,261,,28,04,288,,0*7F
$GPGGA,141545.00,5211.720341,N,00008.715048,E,1,02,1.7,14.7,M,47.0,M,,*5A
$GPVTG,0.0,T,3.3,M,0.0,N,0.0,K,A*23
$GPRMC,141545.00,A,5211.720341,N,00008.715048,E,0.0,0.0,160426,3.3,W,A*23
$GPGSA,A,2,02,10,,,,,,,,,,,2.0,1.7,0.9*3D
$GNGSA,A,2,02,10,,,,,,,,,,,2.0,1.7,0.9,1*3E
$GNGSA,A,3,67,68,69,82,83,,,,,,,,2.0,1.7,0.9,2*3E
$GNVTG,,T,,M,0.0,N,0.0,K,A*3D
$GNRMC,141545.00,A,5211.720341,N,00008.715049,E,0.0,,160426,3.2,W,A,V*69
$GNGGA,141545.00,5211.720341,N,00008.715049,E,1,07,1.7,14.8,M,47.0,M,,*4F
$GPGSV,3,1,11,02,84,319,18,10,33,050,16,01,49,267,,03,15,212,*7D
$GPGSV,3,2,11,08,56,161,,14,26,305,,17,04,307,,22,19,319,*77
$GPGSV,3,3,11,24,01,016,,27,26,142,,32,31,094,*41
$GPGSV,3,1,11,02,84,319,14,10,33,050,12,01,49,267,,03,15,212,,1*68
$GPGSV,3,2,11,08,56,161,,14,26,305,,17,04,307,,22,19,319,,1*6A
$GPGSV,3,3,11,24,01,016,,27,26,142,,32,31,094,,1*5C
$GLGSV,2,1,08,82,21,092,12,69,10,167,12,83,70,049,17,67,41,049,18,1*78
$GLGSV,2,2,08,68,45,126,16,66,00,000,,73,09,232,,75,20,333,,1*70
$GAGSV,3,1,09,03,13,129,,05,25,077,,09,11,025,,13,24,260,,7*7F
$GAGSV,3,2,09,15,78,285,,21,31,305,,27,42,236,,30,14,188,,7*7B
$GAGSV,3,3,09,34,43,071,,7*4C
$PQGSV,1,1,0,0*43
$PQGSV,3,1,10,05,11,113,,08,08,033,,11,87,049,,12,32,106,,0*71
$PQGSV,3,2,10,13,19,039,,14,11,182,,21,51,095,,22,21,039,,0*7F
$PQGSV,3,3,10,23,14,261,,28,04,288,,0*7F
$GPGGA,141546.00,5211.720342,N,00008.715049,E,1,01,2.3,14.7,M,47.0,M,,*5F
$GPVTG,0.0,T,3.3,M,0.0,N,0.0,K,A*23
$GPRMC,141546.00,A,5211.720342,N,00008.715049,E,0.0,0.0,160426,3.3,W,A*22
$GPGSA,A,2,02,,,,,,,,,,,,2.5,2.3,1.0*36
$GNGSA,A,2,02,,,,,,,,,,,,2.5,2.3,1.0,1*35
$GNGSA,A,3,67,68,82,83,,,,,,,,,2.5,2.3,1.0,2*3B
$GNVTG,,T,,M,0.0,N,0.0,K,A*3D
$GNRMC,141546.00,A,5211.720342,N,00008.715049,E,0.0,,160426,3.2,W,A,V*69
$GNGGA,141546.00,5211.720342,N,00008.715049,E,1,05,2.3,14.8,M,47.0,M,,*4A
$GPGSV,3,1,11,02,84,319,17,10,33,050,16,01,49,267,,03,15,212,*72
$GPGSV,3,2,11,08,56,161,,14,26,305,,17,04,307,,22,19,319,*77
$GPGSV,3,3,11,24,01,016,,27,26,142,,32,31,094,*41
$GPGSV,3,1,11,02,84,319,13,10,33,050,12,01,49,267,,03,15,212,,1*6F
$GPGSV,3,2,11,08,56,161,,14,26,305,,17,04,307,,22,19,319,,1*6A
$GPGSV,3,3,11,24,01,016,,27,26,142,,32,31,094,,1*5C
$GLGSV,2,1,08,82,21,092,12,69,10,167,12,83,70,049,17,67,41,049,17,1*77
$GLGSV,2,2,08,68,45,126,15,66,00,000,,73,09,232,,75,20,333,,1*73
$GAGSV,3,1,09,03,13,129,,05,25,077,,09,11,025,,13,24,260,,7*7F
$GAGSV,3,2,09,15,78,285,,21,31,305,,27,42,236,,30,14,188,,7*7B
$GAGSV,3,3,09,34,43,071,,7*4C
$PQGSV,1,1,0,0*43
$PQGSV,3,1,10,05,11,113,,08,08,033,,11,87,049,,12,32,106,,0*71
$PQGSV,3,2,10,13,19,039,,14,11,182,,21,51,095,,22,21,039,,0*7F
$PQGSV,3,3,10,23,14,261,,28,04,288,,0*7F
$GPGGA,141547.00,5211.720341,N,00008.715049,E,1,01,2.3,14.7,M,47.0,M,,*5D
$GPVTG,0.0,T,3.3,M,0.0,N,0.0,K,A*23
$GPRMC,141547.00,A,5211.720341,N,00008.715049,E,0.0,0.0,160426,3.3,W,A*20
$GPGSA,A,2,02,,,,,,,,,,,,2.5,2.3,1.0*36
$GNGSA,A,2,02,,,,,,,,,,,,2.5,2.3,1.0,1*35
$GNGSA,A,3,67,68,82,83,,,,,,,,,2.5,2.3,1.0,2*3B
$GNVTG,,T,,M,0.0,N,0.0,K,A*3D
$GNRMC,141547.00,A,5211.720341,N,00008.715049,E,0.0,,160426,3.2,W,A,V*6B
$GNGGA,141547.00,5211.720341,N,00008.715049,E,1,05,2.3,14.8,M,47.0,M,,*48
$GPGSV,3,1,11,02,84,319,17,10,33,050,16,01,49,267,,03,15,212,*72
$GPGSV,3,2,11,08,56,161,,14,26,305,,17,04,307,,22,19,319,*77
$GPGSV,3,3,11,24,01,016,,27,26,142,,32,31,094,*41
$GPGSV,3,1,11,02,84,319,13,10,33,050,12,01,49,267,,03,15,212,,1*6F
$GPGSV,3,2,11,08,56,161,,14,26,305,,17,04,307,,22,19,319,,1*6A
$GPGSV,3,3,11,24,01,016,,27,26,142,,32,31,094,,1*5C
$GLGSV,2,1,08,82,21,092,12,69,10,167,12,83,70,049,16,67,41,049,19,1*78
$GLGSV,2,2,08,68,45,126,15,66,00,000,,73,09,232,,75,20,333,,1*73
$GAGSV,3,1,09,03,13,129,,05,25,077,,09,11,025,,13,24,260,,7*7F
$GAGSV,3,2,09,15,78,285,,21,31,305,,27,42,236,,30,14,188,,7*7B
$GAGSV,3,3,09,34,43,071,,7*4C
$PQGSV,1,1,0,0*43
$PQGSV,3,1,10,05,11,113,,08,08,033,,11,87,049,,12,32,106,,0*71
$PQGSV,3,2,10,13,19,039,,14,11,182,,21,51,095,,22,21,039,,0*7F
$PQGSV,3,3,10,23,14,261,,28,04,288,,0*7F
$GPGGA,141548.00,5211.720341,N,00008.715049,E,1,01,2.3,14.7,M,47.0,M,,*52
$GPVTG,0.0,T,3.3,M,0.0,N,0.0,K,A*23
$GPRMC,141548.00,A,5211.720341,N,00008.715049,E,0.0,0.0,160426,3.3,W,A*2F
$GPGSA,A,2,02,,,,,,,,,,,,2.5,2.3,1.0*36
$GNGSA,A,2,02,,,,,,,,,,,,2.5,2.3,1.0,1*35
$GNGSA,A,3,67,68,82,83,,,,,,,,,2.5,2.3,1.0,2*3B
$GNVTG,,T,,M,0.0,N,0.0,K,A*3D
$GNRMC,141548.00,A,5211.720341,N,00008.715049,E,0.0,,160426,3.2,W,A,V*64
$GNGGA,141548.00,5211.720341,N,00008.715049,E,1,05,2.3,14.8,M,47.0,M,,*47
$GPGSV,3,1,11,02,84,319,17,10,33,050,15,01,49,267,,03,15,212,*71
$GPGSV,3,2,11,08,56,161,,14,26,305,,17,04,307,,22,19,319,*77
$GPGSV,3,3,11,24,01,016,,27,26,142,,32,31,094,*41
$GPGSV,3,1,11,02,84,319,13,10,33,050,12,01,49,267,,03,15,212,,1*6F
$GPGSV,3,2,11,08,56,161,,14,26,305,,17,04,307,,22,19,319,,1*6A
$GPGSV,3,3,11,24,01,016,,27,26,142,,32,31,094,,1*5C
$GLGSV,2,1,08,82,21,092,12,69,10,167,12,83,70,049,17,67,41,049,18,1*78
$GLGSV,2,2,08,68,45,126,15,66,00,000,,73,09,232,,75,20,333,,1*73
$GAGSV,3,1,09,03,13,129,,05,25,077,,09,11,025,,13,24,260,,7*7F
$GAGSV,3,2,09,15,78,285,,21,31,305,,27,42,236,,30,14,188,,7*7B
$GAGSV,3,3,09,34,43,071,,7*4C
$PQGSV,1,1,0,0*43
$PQGSV,3,1,10,05,11,113,,08,08,033,,11,87,049,,12,32,106,,0*71
$PQGSV,3,2,10,13,19,039,,14,11,182,,21,51,095,,22,21,039,,0*7F
$PQGSV,3,3,10,23,14,261,,28,04,288,,0*7F
$GPGGA,141549.00,5211.720348,N,00008.715055,E,1,02,2.0,14.7,M,47.0,M,,*57
$GPVTG,0.0,T,3.3,M,0.0,N,0.0,K,A*23
$GPRMC,141549.00,A,5211.720348,N,00008.715055,E,0.0,0.0,160426,3.3,W,A*2A
$GPGSA,A,2,02,10,,,,,,,,,,,2.3,2.0,1.0*32
$GNGSA,A,2,02,10,,,,,,,,,,,2.3,2.0,1.0,1*31
$GNGSA,A,3,67,68,82,83,,,,,,,,,2.3,2.0,1.0,2*3E
$GNVTG,,T,,M,0.0,N,0.0,K,A*3D
$GNRMC,141549.00,A,5211.720348,N,00008.715055,E,0.0,,160426,3.2,W,A,V*61
$GNGGA,141549.00,5211.720348,N,00008.715055,E,1,06,2.0,14.7,M,47.0,M,,*4D
$GPGSV,3,1,11,02,84,319,17,10,33,050,15,01,49,267,,03,15,212,*71
$GPGSV,3,2,11,08,56,161,,14,26,305,,17,04,307,,22,19,319,*77
$GPGSV,3,3,11,24,01,016,,27,26,142,,32,31,094,*41
$GPGSV,3,1,11,02,84,319,13,10,33,050,12,01,49,267,,03,15,212,,1*6F
$GPGSV,3,2,11,08,56,161,,14,26,305,,17,04,307,,22,19,319,,1*6A
$GPGSV,3,3,11,24,01,016,,27,26,142,,32,31,094,,1*5C
$GLGSV,2,1,08,82,21,092,12,69,10,167,12,83,70,049,18,67,41,049,20,1*7C
$GLGSV,2,2,08,68,45,126,15,66,00,000,,73,09,232,,75,20,333,,1*73
$GAGSV,3,1,09,03,13,129,,05,25,077,,09,11,025,,13,24,260,,7*7F
$GAGSV,3,2,09,15,78,285,,21,31,305,,27,42,236,,30,14,188,,7*7B
$GAGSV,3,3,09,34,43,071,,7*4C
$PQGSV,1,1,0,0*43
$PQGSV,3,1,10,05,11,113,,08,08,033,,11,87,049,,12,32,106,,0*71
$PQGSV,3,2,10,13,19,039,,14,11,182,,21,51,095,,22,21,039,,0*7F
$PQGSV,3,3,10,23,14,261,,28,04,288,,0*7F
$GPGGA,141550.00,5211.720348,N,00008.715054,E,1,02,2.0,14.7,M,47.0,M,,*5E
$GPVTG,0.0,T,3.3,M,0.0,N,0.0,K,A*23
$GPRMC,141550.00,A,5211.720348,N,00008.715054,E,0.0,0.0,160426,3.3,W,A*23
$GPGSA,A,2,02,10,,,,,,,,,,,2.3,2.0,1.0*32
$GNGSA,A,2,02,10,,,,,,,,,,,2.3,2.0,1.0,1*31
$GNGSA,A,3,67,68,82,83,,,,,,,,,2.3,2.0,1.0,2*3E
$GNVTG,,T,,M,0.0,N,0.0,K,A*3D
$GNRMC,141550.00,A,5211.720348,N,00008.715055,E,0.0,,160426,3.2,W,A,V*69
$GNGGA,141550.00,5211.720348,N,00008.715055,E,1,06,2.0,14.7,M,47.0,M,,*45
$GPGSV,3,1,11,02,84,319,17,10,33,050,15,01,49,267,,03,15,212,*71
$GPGSV,3,2,11,08,56,161,,14,26,305,,17,04,307,,22,19,319,*77
$GPGSV,3,3,11,24,01,016,,27,26,142,,32,31,094,*41
$GPGSV,3,1,11,02,84,319,13,10,33,050,12,01,49,267,,03,15,212,,1*6F
$GPGSV,3,2,11,08,56,161,,14,26,305,,17,04,307,,22,19,319,,1*6A
$GPGSV,3,3,11,24,01,016,,27,26,142,,32,31,094,,1*5C
$GLGSV,2,1,08,82,21,092,12,69,10,167,12,83,70,049,18,67,41,049,18,1*77
$GLGSV,2,2,08,68,45,126,15,66,00,000,,73,09,232,,75,20,333,,1*73
$GAGSV,3,1,09,03,13,129,,05,25,077,,09,11,025,,13,24,260,,7*7F
$GAGSV,3,2,09,15,78,285,,21,31,305,,27,42,236,,30,14,188,,7*7B
$GAGSV,3,3,09,34,43,071,,7*4C
$PQGSV,1,1,0,0*43
$PQGSV,3,1,10,05,11,113,,08,08,033,,11,87,049,,12,32,106,,0*71
$PQGSV,3,2,10,13,19,039,,14,11,182,,21,51,095,,22,21,039,,0*7F
$PQGSV,3,3,10,23,14,261,,28,04,288,,0*7F
$GPGGA,141551.00,5211.720349,N,00008.715055,E,1,02,2.4,14.7,M,47.0,M,,*5B
$GPVTG,0.0,T,3.3,M,0.0,N,0.0,K,A*23
$GPRMC,141551.00,A,5211.720349,N,00008.715055,E,0.0,0.0,160426,3.3,W,A*22
$GPGSA,A,2,02,10,,,,,,,,,,,2.6,2.4,1.0*33
$GNGSA,A,2,02,10,,,,,,,,,,,2.6,2.4,1.0,1*30
$GNGSA,A,2,67,68,83,,,,,,,,,,2.6,2.4,1.0,2*34
$GNVTG,,T,,M,0.0,N,0.0,K,A*3D
$GNRMC,141551.00,A,5211.720349,N,00008.715055,E,0.0,,160426,3.2,W,A,V*69
$GNGGA,141551.00,5211.720349,N,00008.715055,E,1,05,2.4,14.7,M,47.0,M,,*42
$GPGSV,3,1,11,02,84,319,17,10,33,050,15,01,49,267,,03,15,212,*71
$GPGSV,3,2,11,08,56,161,,14,26,305,,17,04,307,,22,19,319,*77
$GPGSV,3,3,11,24,01,016,,27,26,142,,32,31,094,*41
$GPGSV,3,1,11,02,84,319,13,10,33,050,12,01,49,267,,03,15,212,,1*6F
$GPGSV,3,2,11,08,56,161,,14,26,305,,17,04,307,,22,19,319,,1*6A
$GPGSV,3,3,11,24,01,016,,27,26,142,,32,31,094,,1*5C
$GLGSV,2,1,08,82,21,092,12,69,10,167,10,83,70,049,18,67,41,049,19,1*74
$GLGSV,2,2,08,68,45,126,15,66,00,000,,73,09,232,,75,20,333,,1*73
$GAGSV,3,1,09,03,13,129,,05,25,077,,09,11,025,,13,24,260,,7*7F
$GAGSV,3,2,09,15,78,285,,21,31,305,,27,42,236,,30,14,188,,7*7B
$GAGSV,3,3,09,34,43,071,,7*4C
$PQGSV,1,1,0,0*43
$PQGSV,3,1,10,05,11,113,,08,08,033,,11,87,049,,12,32,106,,0*71
$PQGSV,3,2,10,13,19,039,,14,11,182,,21,51,095,,22,21,039,,0*7F
$PQGSV,3,3,10,23,14,261,,28,04,288,,0*7F
$GPGGA,141552.00,5211.720347,N,00008.715054,E,1,02,2.1,14.7,M,47.0,M,,*52
$GPVTG,0.0,T,3.3,M,0.0,N,0.0,K,A*23
$GPRMC,141552.00,A,5211.720347,N,00008.715054,E,0.0,0.0,160426,3.3,W,A*2E
$GPGSA,A,2,02,10,,,,,,,,,,,2.3,2.1,0.9*3B
$GNGSA,A,2,02,10,,,,,,,,,,,2.3,2.1,0.9,1*38
$GNGSA,A,3,67,68,69,83,,,,,,,,,2.3,2.1,0.9,2*32
$GNVTG,,T,,M,0.0,N,0.0,K,A*3D
$GNRMC,141552.00,A,5211.720347,N,00008.715054,E,0.0,,160426,3.2,W,A,V*65
$GNGGA,141552.00,5211.720347,N,00008.715054,E,1,06,2.1,14.7,M,47.0,M,,*48
$GPGSV,3,1,11,02,84,319,17,10,33,050,15,01,49,267,,03,15,212,*71
$GPGSV,3,2,11,08,56,161,,14,26,305,,17,04,307,,22,19,319,*77
$GPGSV,3,3,11,24,01,016,,27,26,142,,32,31,094,*41
$GPGSV,3,1,11,02,84,319,13,10,33,050,12,01,49,267,,03,15,212,,1*6F
$GPGSV,3,2,11,08,56,161,,14,26,305,,17,04,307,,22,19,319,,1*6A
$GPGSV,3,3,11,24,01,016,,27,26,142,,32,31,094,,1*5C
$GLGSV,2,1,08,82,21,092,12,69,10,167,10,83,70,049,18,67,41,049,19,1*74
$GLGSV,2,2,08,68,45,126,15,66,00,000,,73,09,232,,75,20,333,,1*73
$GAGSV,3,1,09,03,13,129,,05,25,077,,09,11,025,,13,24,260,,7*7F
$GAGSV,3,2,09,15,78,285,,21,31,305,,27,42,236,,30,14,188,,7*7B
$GAGSV,3,3,09,34,43,071,,7*4C
$PQGSV,1,1,0,0*43
$PQGSV,3,1,10,05,11,113,,08,08,033,,11,87,049,,12,32,106,,0*71
$PQGSV,3,2,10,13,19,039,,14,11,182,,21,51,095,,22,21,039,,0*7F
$PQGSV,3,3,10,23,14,261,,28,04,288,,0*7F
$GPGGA,141553.00,5211.720353,N,00008.715063,E,1,01,3.3,15.8,M,47.0,M,,*5C
$GPVTG,0.0,T,3.3,M,0.0,N,0.0,K,A*23
$GPRMC,141553.00,A,5211.720353,N,00008.715063,E,0.0,0.0,160426,3.3,W,A*2E
$GPGSA,A,2,10,,,,,,,,,,,,3.5,3.3,0.9*3D
$GNGSA,A,2,10,,,,,,,,,,,,3.5,3.3,0.9,1*3E
$GNGSA,A,3,67,68,69,83,,,,,,,,,3.5,3.3,0.9,2*36
$GNVTG,,T,,M,0.0,N,0.0,K,A*3D
$GNRMC,141553.00,A,5211.720353,N,00008.715063,E,0.0,,160426,3.2,W,A,V*65
