$GPRMC,030256.00,A,5211.720932,N,00008.716954,E,0.0,0.0,110226,,,A,V*2A
$GPRMC,030257.00,A,5211.720932,N,00008.716954,E,0.0,0.0,110226,,,A,V*2B
$GPRMC,030258.00,A,5211.720932,N,00008.716954,E,0.0,0.0,110226,,,A,V*24
$GPRMC,030259.00,A,5211.720932,N,00008.716954,E,0.0,0.0,110226,,,A,V*25
$GPRMC,030300.00,A,5211.720932,N,00008.716954,E,0.0,0.0,110226,,,A,V*28
$GPRMC,030301.00,A,5211.720932,N,00008.716954,E,0.0,0.0,110226,,,A,V*29
$GPRMC,030302.00,A,5211.720932,N,00008.716954,E,0.0,0.0,110226,,,A,V*2A
$GPRMC,030303.00,A,5211.720931,N,00008.716954,E,0.0,0.0,110226,,,A,V*28
$GPRMC,030304.00,A,5211.720931,N,00008.716954,E,0.0,0.0,110226,,,A,V*2F
$GPRMC,030305.00,A,5211.720931,N,00008.716954,E,0.0,0.0,110226,,,A,V*2E
$GPRMC,030306.00,A,5211.720931,N,00008.716954,E,0.0,0.0,110226,,,A,V*2D
$GPRMC,030307.00,A,5211.720931,N,00008.716954,E,0.0,0.0,110226,,,A,V*2C
$GPRMC,030308.00,A,5211.720932,N,00008.716954,E,0.0,0.0,110226,,,A,V*20
$GPRMC,030309.00,A,5211.720932,N,00008.716954,E,0.0,0.0,110226,,,A,V*21
$GPRMC,030310.00,A,5211.720932,N,00008.716954,E,0.0,0.0,110226,,,A,V*29
$GPRMC,040336.00,A,5211.720822,N,00008.717007,E,0.0,0.0,110226,,,A,V*24
$GPRMC,040337.00,A,5211.720822,N,00008.717007,E,0.0,0.0,110226,,,A,V*25
$GPRMC,040338.00,A,5211.720822,N,00008.717007,E,0.0,0.0,110226,,,A,V*2A
$GPRMC,040339.00,A,5211.720822,N,00008.717007,E,0.0,0.0,110226,,,A,V*2B
$GPRMC,040340.00,A,5211.720822,N,00008.717007,E,0.0,0.0,110226,,,A,V*25
$GPRMC,040341.00,A,5211.720822,N,00008.717007,E,0.0,0.0,110226,,,A,V*24
$GPRMC,040342.00,A,5211.720822,N,00008.717006,E,0.0,0.0,110226,,,A,V*26
$GPRMC,040343.00,A,5211.720821,N,00008.717006,E,0.0,0.0,110226,,,A,V*24
$GPRMC,040344.00,A,5211.720821,N,00008.717005,E,0.0,0.0,110226,,,A,V*20
$GPRMC,040345.00,A,5211.720821,N,00008.717005,E,0.0,0.0,110226,,,A,V*21
$GPRMC,040346.00,A,5211.720821,N,00008.717005,E,0.0,0.0,110226,,,A,V*22
$GPRMC,040347.00,A,5211.720820,N,00008.717005,E,0.0,0.0,110226,,,A,V*22
$GPRMC,040348.00,A,5211.720820,N,00008.717005,E,0.0,0.0,110226,,,A,V*2D
$GPRMC,040349.00,A,5211.720820,N,00008.717005,E,0.0,0.0,110226,,,A,V*2C
$GPRMC,040350.00,A,5211.720820,N,00008.717005,E,0.0,0.0,110226,,,A,V*24
$GPRMC,040351.00,A,5211.720820,N,00008.717005,E,0.0,0.0,110226,,,A,V*25
$GPRMC,040352.00,A,5211.720820,N,00008.717005,E,0.0,0.0,110226,,,A,V*26
$GPRMC,040353.00,A,5211.720820,N,00008.717005,E,0.0,0.0,110226,,,A,V*27
$GPRMC,040354.00,A,5211.720820,N,00008.717005,E,0.0,0.0,110226,,,A,V*20
$GPRMC,040355.00,A,5211.720820,N,00008.717005,E,0.0,0.0,110226,,,A,V*21
$GPRMC,040356.00,A,5211.720820,N,00008.717005,E,0.0,0.0,110226,,,A,V*22
$GPRMC,040357.00,A,5211.720820,N,00008.717005,E,0.0,0.0,110226,,,A,V*23
$GPRMC,040358.00,A,5211.720820,N,00008.717005,E,0.0,0.0,110226,,,A,V*2C
$GPRMC,040359.00,A,5211.720820,N,00008.717005,E,0.0,0.0,110226,,,A,V*2D
$GPRMC,040400.00,A,5211.720820,N,00008.717005,E,0.0,0.0,110226,,,A,V*26
$GPRMC,040401.00,A,5211.720820,N,00008.717005,E,0.0,0.0,110226,,,A,V*27
$GPRMC,040402.00,A,5211.720820,N,00008.717005,E,0.0,0.0,110226,,,A,V*24
$GPRMC,040403.00,A,5211.720820,N,00008.717005,E,0.0,0.0,110226,,,A,V*25
$GPRMC,040404.00,A,5211.720820,N,00008.717005,E,0.0,0.0,110226,,,A,V*22
$GPRMC,040405.00,A,5211.720819,N,00008.717005,E,0.0,0.0,110226,,,A,V*29
$GPRMC,040406.00,A,5211.720819,N,00008.717004,E,0.0,0.0,110226,,,A,V*2B
$GPRMC,040407.00,A,5211.720819,N,00008.717004,E,0.0,0.0,110226,,,A,V*2A
$GPRMC,040408.00,A,5211.720819,N,00008.717004,E,0.0,0.0,110226,,,A,V*25
$GPRMC,040409.00,A,5211.720818,N,00008.717004,E,0.0,0.0,110226,,,A,V*25
$GPRMC,040410.00,A,5211.720818,N,00008.717003,E,0.0,0.0,110226,,,A,V*2A
$GPRMC,040411.00,A,5211.720818,N,00008.717003,E,0.0,0.0,110226,,,A,V*2B
$GPRMC,040412.00,A,5211.720818,N,00008.717002,E,0.0,0.0,110226,,,A,V*29
$GPRMC,040413.00,A,5211.720818,N,00008.717002,E,0.0,0.0,110226,,,A,V*28
$GPRMC,040414.00,A,5211.720817,N,00008.717002,E,0.0,0.0,110226,,,A,V*20
$GPRMC,040415.00,A,5211.720817,N,00008.717002,E,0.0,0.0,110226,,,A,V*21
$GPRMC,040416.00,A,5211.720817,N,00008.717002,E,0.0,0.0,110226,,,A,V*22
$GPRMC,040417.00,A,5211.720817,N,00008.717001,E,0.0,0.0,110226,,,A,V*20
$GPRMC,040418.00,A,5211.720816,N,00008.717001,E,0.0,0.0,110226,,,A,V*2E
$GPRMC,040419.00,A,5211.720816,N,00008.717001,E,0.0,0.0,110226,,,A,V*2F
$GPRMC,040420.00,A,5211.720816,N,00008.717001,E,0.0,0.0,110226,,,A,V*25
$GPRMC,040421.00,A,5211.720816,N,00008.717001,E,0.0,0.0,110226,,,A,V*24
$GPRMC,040422.00,A,5211.720816,N,00008.717001,E,0.0,0.0,110226,,,A,V*27
$GPRMC,040423.00,A,5211.720817,N,00008.717001,E,0.0,0.0,110226,,,A,V*27
$GPRMC,040424.00,A,5211.720817,N,00008.717001,E,0.0,0.0,110226,,,A,V*20
$GPRMC,040425.00,A,5211.720817,N,00008.717001,E,0.0,0.0,110226,,,A,V*21
$GPRMC,040426.00,A,5211.720816,N,00008.717001,E,0.0,0.0,110226,,,A,V*23
$GPRMC,040427.00,A,5211.720816,N,00008.717001,E,0.0,0.0,110226,,,A,V*22
$GPRMC,040428.00,A,5211.720816,N,00008.717001,E,0.0,0.0,110226,,,A,V*2D
$GPRMC,040429.00,A,5211.720816,N,00008.717001,E,0.0,0.0,110226,,,A,V*2C
$GPRMC,040430.00,A,5211.720815,N,00008.717001,E,0.0,0.0,110226,,,A,V*27
$GPRMC,040431.00,A,5211.720815,N,00008.717001,E,0.0,0.0,110226,,,A,V*26
$GPRMC,040432.00,A,5211.720815,N,00008.717001,E,0.0,0.0,110226,,,A,V*25
$GPRMC,040433.00,A,5211.720815,N,00008.717001,E,0.0,0.0,110226,,,A,V*24
$GPRMC,040434.00,A,5211.720815,N,00008.717001,E,0.0,0.0,110226,,,A,V*23
$GPRMC,040435.00,A,5211.720815,N,00008.717001,E,0.0,0.0,110226,,,A,V*22
$GPRMC,040436.00,A,5211.720815,N,00008.717001,E,0.0,0.0,110226,,,A,V*21
$GPRMC,040437.00,A,5211.720815,N,00008.717001,E,0.0,0.0,110226,,,A,V*20
$GPRMC,040438.00,A,5211.720815,N,00008.717000,E,0.0,0.0,110226,,,A,V*2E
$GPRMC,040439.00,A,5211.720814,N,00008.717000,E,0.0,0.0,110226,,,A,V*2E
$GPRMC,040440.00,A,5211.720814,N,00008.717000,E,0.0,0.0,110226,,,A,V*20
$GPRMC,040441.00,A,5211.720814,N,00008.717000,E,0.0,0.0,110226,,,A,V*21
$GPRMC,040442.00,A,5211.720814,N,00008.717000,E,0.0,0.0,110226,,,A,V*22
$GPRMC,040443.00,A,5211.720814,N,00008.717000,E,0.0,0.0,110226,,,A,V*23
$GPRMC,040444.00,A,5211.720814,N,00008.717000,E,0.0,0.0,110226,,,A,V*24
$GPRMC,040445.00,A,5211.720813,N,00008.716999,E,0.0,0.0,110226,,,A,V*2A
$GPRMC,040446.00,A,5211.720813,N,00008.716999,E,0.0,0.0,110226,,,A,V*29
$GPRMC,040447.00,A,5211.720813,N,00008.716999,E,0.0,0.0,110226,,,A,V*28
$GPRMC,040448.00,A,5211.720813,N,00008.716999,E,0.0,0.0,110226,,,A,V*27
$GPRMC,040449.00,A,5211.720813,N,00008.716999,E,0.0,0.0,110226,,,A,V*26
$GPRMC,040450.00,A,5211.720813,N,00008.716999,E,0.0,0.0,110226,,,A,V*2E
$GPRMC,040451.00,A,5211.720813,N,00008.716999,E,0.0,0.0,110226,,,A,V*2F
$GPRMC,040452.00,A,5211.720813,N,00008.716999,E,0.0,0.0,110226,,,A,V*2C
$GPRMC,040453.00,A,5211.720813,N,00008.716999,E,0.0,0.0,110226,,,A,V*2D
$GPRMC,040454.00,A,5211.720812,N,00008.716998,E,0.0,0.0,110226,,,A,V*2A
$GPRMC,040455.00,A,5211.720812,N,00008.716998,E,0.0,0.0,110226,,,A,V*2B
$GPRMC,040456.00,A,5211.720812,N,00008.716998,E,0.0,0.0,110226,,,A,V*28
$GPRMC,040457.00,A,5211.720812,N,00008.716998,E,0.0,0.0,110226,,,A,V*29
$GPRMC,040458.00,A,5211.720812,N,00008.716998,E,0.0,0.0,110226,,,A,V*26
$GPRMC,040459.00,A,5211.720812,N,00008.716998,E,0.0,0.0,110226,,,A,V*27
$GPRMC,040500.00,A,5211.720812,N,00008.716998,E,0.0,0.0,110226,,,A,V*2A
$GPRMC,040501.00,A,5211.720812,N,00008.716998,E,0.0,0.0,110226,,,A,V*2B
$GPRMC,040502.00,A,5211.720812,N,00008.716998,E,0.0,0.0,110226,,,A,V*28
$GPRMC,040503.00,A,5211.720812,N,00008.716998,E,0.0,0.0,110226,,,A,V*29
$GPRMC,040504.00,A,5211.720812,N,00008.716998,E,0.0,0.0,110226,,,A,V*2E
$GPRMC,040505.00,A,5211.720812,N,00008.716998,E,0.0,0.0,110226,,,A,V*2F
$GPRMC,040506.00,A,5211.720812,N,00008.716998,E,0.0,0.0,110226,,,A,V*2C
$GPRMC,040507.00,A,5211.720812,N,00008.716998,E,0.0,0.0,110226,,,A,V*2D
$GPRMC,040508.00,A,5211.720812,N,00008.716998,E,0.0,0.0,110226,,,A,V*22
$GPRMC,040509.00,A,5211.720812,N,00008.716998,E,0.0,0.0,110226,,,A,V*23
$GPRMC,040510.00,A,5211.720812,N,00008.716998,E,0.0,0.0,110226,,,A,V*2B
$GPRMC,040511.00,A,5211.720812,N,00008.716998,E,0.0,0.0,110226,,,A,V*2A
$GPRMC,040512.00,A,5211.720812,N,00008.716998,E,0.0,0.0,110226,,,A,V*29
$GPRMC,040513.00,A,5211.720812,N,00008.716998,E,0.0,0.0,110226,,,A,V*28
$GPRMC,040514.00,A,5211.720812,N,00008.716998,E,0.0,0.0,110226,,,A,V*2F
$GPRMC,040515.00,A,5211.720812,N,00008.716997,E,0.0,0.0,110226,,,A,V*21
$GPRMC,040516.00,A,5211.720812,N,00008.716997,E,0.0,0.0,110226,,,A,V*22
$GPRMC,040517.00,A,5211.720812,N,00008.716997,E,0.0,0.0,110226,,,A,V*23
$GPRMC,040518.00,A,5211.720812,N,00008.716997,E,0.0,0.0,110226,,,A,V*2C
$GPRMC,040519.00,A,5211.720812,N,00008.716997,E,0.0,0.0,110226,,,A,V*2D
$GPRMC,040520.00,A,5211.720812,N,00008.716997,E,0.0,0.0,110226,,,A,V*27
$GPRMC,040521.00,A,5211.720812,N,00008.716997,E,0.0,0.0,110226,,,A,V*26
$GPRMC,040522.00,A,5211.720812,N,00008.716997,E,0.0,0.0,110226,,,A,V*25
$GPRMC,040523.00,A,5211.720813,N,00008.716997,E,0.0,0.0,110226,,,A,V*25
$GPRMC,040524.00,A,5211.720813,N,00008.716997,E,0.0,0.0,110226,,,A,V*22
$GPRMC,040525.00,A,5211.720813,N,00008.716997,E,0.0,0.0,110226,,,A,V*23
$GPRMC,040526.00,A,5211.720813,N,00008.716997,E,0.0,0.0,110226,,,A,V*20
$GPRMC,040527.00,A,5211.720813,N,00008.716997,E,0.0,0.0,110226,,,A,V*21
$GPRMC,040528.00,A,5211.720813,N,00008.716997,E,0.0,0.0,110226,,,A,V*2E
$GPRMC,040529.00,A,5211.720813,N,00008.716997,E,0.0,0.0,110226,,,A,V*2F
$GPRMC,040530.00,A,5211.720813,N,00008.716997,E,0.0,0.0,110226,,,A,V*27
$GPRMC,040531.00,A,5211.720813,N,00008.716997,E,0.0,0.0,110226,,,A,V*26
$GPRMC,040532.00,A,5211.720813,N,00008.716997,E,0.0,0.0,110226,,,A,V*25
$GPRMC,040533.00,A,5211.720813,N,00008.716997,E,0.0,0.0,110226,,,A,V*24
$GPRMC,040534.00,A,5211.720813,N,00008.716997,E,0.0,0.0,110226,,,A,V*23
$GPRMC,040535.00,A,5211.720813,N,00008.716997,E,0.0,0.0,110226,,,A,V*22
$GPRMC,040536.00,A,5211.720813,N,00008.716997,E,0.0,0.0,110226,,,A,V*21
$GPRMC,040537.00,A,5211.720812,N,00008.716996,E,0.0,0.0,110226,,,A,V*20
$GPRMC,040538.00,A,5211.720812,N,00008.716996,E,0.0,0.0,110226,,,A,V*2F
$GPRMC,040539.00,A,5211.720812,N,00008.716996,E,0.0,0.0,110226,,,A,V*2E
$GPRMC,040540.00,A,5211.720812,N,00008.716996,E,0.0,0.0,110226,,,A,V*20
$GPRMC,040541.00,A,5211.720812,N,00008.716996,E,0.0,0.0,110226,,,A,V*21
$GPRMC,040542.00,A,5211.720812,N,00008.716996,E,0.0,0.0,110226,,,A,V*22
$GPRMC,040543.00,A,5211.720812,N,00008.716996,E,0.0,0.0,110226,,,A,V*23
$GPRMC,040544.00,A,5211.720812,N,00008.716996,E,0.0,0.0,110226,,,A,V*24
$GPRMC,040545.00,A,5211.720812,N,00008.716996,E,0.0,0.0,110226,,,A,V*25
$GPRMC,040546.00,A,5211.720812,N,00008.716996,E,0.0,0.0,110226,,,A,V*26
$GPRMC,040547.00,A,5211.720812,N,00008.716996,E,0.0,0.0,110226,,,A,V*27
$GPRMC,040548.00,A,5211.720812,N,00008.716996,E,0.0,0.0,110226,,,A,V*28
$GPRMC,040549.00,A,5211.720812,N,00008.716996,E,0.0,0.0,110226,,,A,V*29
$GPRMC,040550.00,A,5211.720812,N,00008.716996,E,0.0,0.0,110226,,,A,V*21
$GPRMC,040551.00,A,5211.720812,N,00008.716996,E,0.0,0.0,110226,,,A,V*20
$GPRMC,040552.00,A,5211.720812,N,00008.716996,E,0.0,0.0,110226,,,A,V*23
$GPRMC,040553.00,A,5211.720812,N,00008.716996,E,0.0,0.0,110226,,,A,V*22
$GPRMC,040554.00,A,5211.720812,N,00008.716996,E,0.0,0.0,110226,,,A,V*25
$GPRMC,040555.00,A,5211.720813,N,00008.716996,E,0.0,0.0,110226,,,A,V*25
$GPRMC,040556.00,A,5211.720813,N,00008.716996,E,0.0,0.0,110226,,,A,V*26
$GPRMC,040557.00,A,5211.720813,N,00008.716996,E,0.0,0.0,110226,,,A,V*27
$GPRMC,040558.00,A,5211.720812,N,00008.716996,E,0.0,0.0,110226,,,A,V*29
$GPRMC,040559.00,A,5211.720813,N,00008.716996,E,0.0,0.0,110226,,,A,V*29
$GPRMC,040600.00,A,5211.720813,N,00008.716996,E,0.0,0.0,110226,,,A,V*26
$GPRMC,040601.00,A,5211.720812,N,00008.716996,E,0.0,0.0,110226,,,A,V*26
$GPRMC,040602.00,A,5211.720812,N,00008.716996,E,0.0,0.0,110226,,,A,V*25
$GPRMC,040603.00,A,5211.720812,N,00008.716995,E,0.0,0.0,110226,,,A,V*27
$GPRMC,040604.00,A,5211.720812,N,00008.716995,E,0.0,0.0,110226,,,A,V*20
$GPRMC,040605.00,A,5211.720812,N,00008.716995,E,0.0,0.0,110226,,,A,V*21
$GPRMC,040606.00,A,5211.720812,N,00008.716995,E,0.0,0.0,110226,,,A,V*22
$GPRMC,040607.00,A,5211.720812,N,00008.716995,E,0.0,0.0,110226,,,A,V*23
$GPRMC,040608.00,A,5211.720812,N,00008.716995,E,0.0,0.0,110226,,,A,V*2C
$GPRMC,040609.00,A,5211.720812,N,00008.716995,E,0.0,0.0,110226,,,A,V*2D
$GPRMC,040610.00,A,5211.720812,N,00008.716995,E,0.0,0.0,110226,,,A,V*25
$GPRMC,040611.00,A,5211.720812,N,00008.716995,E,0.0,0.0,110226,,,A,V*24
$GPRMC,040612.00,A,5211.720812,N,00008.716995,E,0.0,0.0,110226,,,A,V*27
$GPRMC,040613.00,A,5211.720812,N,00008.716995,E,0.0,0.0,110226,,,A,V*26
$GPRMC,040614.00,A,5211.720812,N,00008.716995,E,0.0,0.0,110226,,,A,V*21
$GPRMC,040615.00,A,5211.720812,N,00008.716995,E,0.0,0.0,110226,,,A,V*20
$GPRMC,040616.00,A,5211.720812,N,00008.716995,E,0.0,0.0,110226,,,A,V*23
$GPRMC,040617.00,A,5211.720812,N,00008.716995,E,0.0,0.0,110226,,,A,V*22
$GPRMC,040618.00,A,5211.720813,N,00008.716995,E,0.0,0.0,110226,,,A,V*2C
$GPRMC,040619.00,A,5211.720813,N,00008.716995,E,0.0,0.0,110226,,,A,V*2D
$GPRMC,040620.00,A,5211.720813,N,00008.716995,E,0.0,0.0,110226,,,A,V*27
$GPRMC,040621.00,A,5211.720813,N,00008.716995,E,0.0,0.0,110226,,,A,V*26
$GPRMC,040622.00,A,5211.720813,N,00008.716995,E,0.0,0.0,110226,,,A,V*25
$GPRMC,040623.00,A,5211.720813,N,00008.716995,E,0.0,0.0,110226,,,A,V*24
$GPRMC,040624.00,A,5211.720813,N,00008.716995,E,0.0,0.0,110226,,,A,V*23
$GPRMC,040625.00,A,5211.720813,N,00008.716995,E,0.0,0.0,110226,,,A,V*22
$GPRMC,040626.00,A,5211.720813,N,00008.716995,E,0.0,0.0,110226,,,A,V*21
$GPRMC,040627.00,A,5211.720813,N,00008.716995,E,0.0,0.0,110226,,,A,V*20
$GPRMC,040628.00,A,5211.720813,N,00008.716995,E,0.0,0.0,110226,,,A,V*2F
$GPRMC,040629.00,A,5211.720813,N,00008.716995,E,0.0,0.0,110226,,,A,V*2E
$GPRMC,040630.00,A,5211.720813,N,00008.716995,E,0.0,0.0,110226,,,A,V*26
$GPRMC,040631.00,A,5211.720813,N,00008.716995,E,0.0,0.0,110226,,,A,V*27
$GPRMC,040632.00,A,5211.720813,N,00008.716995,E,0.0,0.0,110226,,,A,V*24
$GPRMC,040633.00,A,5211.720813,N,00008.716995,E,0.0,0.0,110226,,,A,V*25
$GPRMC,040634.00,A,5211.720813,N,00008.716994,E,0.0,0.0,110226,,,A,V*23
$GPRMC,040635.00,A,5211.720813,N,00008.716994,E,0.0,0.0,110226,,,A,V*22
$GPRMC,040636.00,A,5211.720813,N,00008.716994,E,0.0,0.0,110226,,,A,V*21
$GPRMC,040637.00,A,5211.720813,N,00008.716994,E,0.0,0.0,110226,,,A,V*20
$GPRMC,040638.00,A,5211.720812,N,00008.716994,E,0.0,0.0,110226,,,A,V*2E
$GPRMC,040639.00,A,5211.720812,N,00008.716994,E,0.0,0.0,110226,,,A,V*2F
$GPRMC,095948.00,A,5211.720736,N,00008.716833,E,0.0,0.0,110226,,,A,V*2B
$GPRMC,095949.00,A,5211.720736,N,00008.716833,E,0.0,0.0,110226,,,A,V*2A
$GPRMC,095950.00,A,5211.720736,N,00008.716833,E,0.0,0.0,110226,,,A,V*22
$GPRMC,095951.00,A,5211.720736,N,00008.716833,E,0.0,0.0,110226,,,A,V*23
$GPRMC,095952.00,A,5211.720736,N,00008.716832,E,0.0,0.0,110226,,,A,V*21
$GPRMC,095953.00,A,5211.720736,N,00008.716831,E,0.0,0.0,110226,,,A,V*23
$GPRMC,095954.00,A,5211.720736,N,00008.716831,E,0.0,0.0,110226,,,A,V*24
$GPRMC,095955.00,A,5211.720736,N,00008.716831,E,0.0,0.0,110226,,,A,V*25
$GPRMC,095956.00,A,5211.720736,N,00008.716831,E,0.0,0.0,110226,,,A,V*26
$GPRMC,095957.00,A,5211.720735,N,00008.716831,E,0.0,0.0,110226,,,A,V*24
$GPRMC,095958.00,A,5211.720735,N,00008.716831,E,0.0,0.0,110226,,,A,V*2B
$GPRMC,095959.00,A,5211.720734,N,00008.716831,E,0.0,0.0,110226,,,A,V*2B
$GPRMC,100000.00,A,5211.720733,N,00008.716831,E,0.0,0.0,110226,,,A,V*24
$GPRMC,100001.00,A,5211.720732,N,00008.716831,E,0.0,0.0,110226,,,A,V*24
$GPRMC,100002.00,A,5211.720732,N,00008.716831,E,0.0,0.0,110226,,,A,V*27
$GPRMC,100003.00,A,5211.720731,N,00008.716831,E,0.0,0.0,110226,,,A,V*25
$GPRMC,100004.00,A,5211.720731,N,00008.716831,E,0.0,0.0,110226,,,A,V*22
$GPRMC,100005.00,A,5211.720731,N,00008.716831,E,0.0,0.0,110226,,,A,V*23
$GPRMC,100006.00,A,5211.720731,N,00008.716831,E,0.0,0.0,110226,,,A,V*20
$GPRMC,100007.00,A,5211.720731,N,00008.716831,E,0.0,0.0,110226,,,A,V*21
$GPRMC,100008.00,A,5211.720731,N,00008.716830,E,0.0,0.0,110226,,,A,V*2F
$GPRMC,100009.00,A,5211.720731,N,00008.716831,E,0.0,0.0,110226,,,A,V*2F
$GPRMC,100010.00,A,5211.720732,N,00008.716831,E,0.0,0.0,110226,,,A,V*24
$GPRMC,100011.00,A,5211.720732,N,00008.716832,E,0.0,0.0,110226,,,A,V*26
$GPRMC,100012.00,A,5211.720733,N,00008.716832,E,0.0,0.0,110226,,,A,V*24
$GPRMC,100013.00,A,5211.720733,N,00008.716833,E,0.0,0.0,110226,,,A,V*24
$GPRMC,100014.00,A,5211.720734,N,00008.716833,E,0.0,0.0,110226,,,A,V*24
$GPRMC,100015.00,A,5211.720734,N,00008.716833,E,0.0,0.0,110226,,,A,V*25
$GPRMC,100016.00,A,5211.720733,N,00008.716833,E,0.0,0.0,110226,,,A,V*21
$GPRMC,100017.00,A,5211.720733,N,00008.716833,E,0.0,0.0,110226,,,A,V*20
$GPRMC,100018.00,A,5211.720732,N,00008.716833,E,0.0,0.0,110226,,,A,V*2E
$GPRMC,100019.00,A,5211.720732,N,00008.716832,E,0.0,0.0,110226,,,A,V*2E
$GPRMC,100020.00,A,5211.720732,N,00008.716833,E,0.0,0.0,110226,,,A,V*25
$GPRMC,100021.00,A,5211.720732,N,00008.716833,E,0.0,0.0,110226,,,A,V*24
$GPRMC,100022.00,A,5211.720732,N,00008.716832,E,0.0,0.0,110226,,,A,V*26
$GPRMC,100023.00,A,5211.720732,N,00008.716832,E,0.0,0.0,110226,,,A,V*27
$GPRMC,100024.00,A,5211.720731,N,00008.716832,E,0.0,0.0,110226,,,A,V*23
$GPRMC,100025.00,A,5211.720731,N,00008.716831,E,0.0,0.0,110226,,,A,V*21
$GPRMC,100026.00,A,5211.720731,N,00008.716831,E,0.0,0.0,110226,,,A,V*22
$GPRMC,100027.00,A,5211.720731,N,00008.716831,E,0.0,0.0,110226,,,A,V*23
$GPRMC,100028.00,A,5211.720730,N,00008.716831,E,0.0,0.0,110226,,,A,V*2D
$GPRMC,100029.00,A,5211.720730,N,00008.716831,E,0.0,0.0,110226,,,A,V*2C
$GPRMC,100030.00,A,5211.720730,N,00008.716831,E,0.0,0.0,110226,,,A,V*24
$GPRMC,100031.00,A,5211.720729,N,00008.716830,E,0.0,0.0,110226,,,A,V*2C
$GPRMC,100032.00,A,5211.720729,N,00008.716830,E,0.0,0.0,110226,,,A,V*2F
$GPRMC,100033.00,A,5211.720730,N,00008.716830,E,0.0,0.0,110226,,,A,V*26
$GPRMC,100034.00,A,5211.720730,N,00008.716830,E,0.0,0.0,110226,,,A,V*21
$GPRMC,100035.00,A,5211.720729,N,00008.716830,E,0.0,0.0,110226,,,A,V*28
$GPRMC,100036.00,A,5211.720730,N,00008.716830,E,0.0,0.0,110226,,,A,V*23
$GPRMC,100037.00,A,5211.720730,N,00008.716830,E,0.0,0.0,110226,,,A,V*22
$GPRMC,100038.00,A,5211.720730,N,00008.716830,E,0.0,0.0,110226,,,A,V*2D
$GPRMC,100039.00,A,5211.720730,N,00008.716831,E,0.0,0.0,110226,,,A,V*2D
$GPRMC,100040.00,A,5211.720730,N,00008.716831,E,0.0,0.0,110226,,,A,V*23
$GPRMC,100041.00,A,5211.720730,N,00008.716831,E,0.0,0.0,110226,,,A,V*22
$GPRMC,100042.00,A,5211.720730,N,00008.716831,E,0.0,0.0,110226,,,A,V*21
$GPRMC,100043.00,A,5211.720730,N,00008.716831,E,0.0,0.0,110226,,,A,V*20
$GPRMC,100044.00,A,5211.720730,N,00008.716831,E,0.0,0.0,110226,,,A,V*27
$GPRMC,100045.00,A,5211.720730,N,00008.716831,E,0.0,0.0,110226,,,A,V*26
$GPRMC,100046.00,A,5211.720730,N,00008.716832,E,0.0,0.0,110226,,,A,V*26
$GPRMC,100047.00,A,5211.720730,N,00008.716832,E,0.0,0.0,110226,,,A,V*27
$GPRMC,100048.00,A,5211.720730,N,00008.716833,E,0.0,0.0,110226,,,A,V*29
$GPRMC,100049.00,A,5211.720730,N,00008.716833,E,0.0,0.0,110226,,,A,V*28
$GPRMC,100050.00,A,5211.720730,N,00008.716832,E,0.0,0.0,110226,,,A,V*21
$GPRMC,100051.00,A,5211.720730,N,00008.716832,E,0.0,0.0,110226,,,A,V*20
$GPRMC,100052.00,A,5211.720729,N,00008.716832,E,0.0,0.0,110226,,,A,V*2B
$GPRMC,100053.00,A,5211.720729,N,00008.716832,E,0.0,0.0,110226,,,A,V*2A
$GPRMC,100054.00,A,5211.720729,N,00008.716831,E,0.0,0.0,110226,,,A,V*2E
$GPRMC,100055.00,A,5211.720728,N,00008.716831,E,0.0,0.0,110226,,,A,V*2E
$GPRMC,100056.00,A,5211.720727,N,00008.716830,E,0.0,0.0,110226,,,A,V*23
$GPRMC,100057.00,A,5211.720726,N,00008.716830,E,0.0,0.0,110226,,,A,V*23
$GPRMC,100058.00,A,5211.720726,N,00008.716830,E,0.0,0.0,110226,,,A,V*2C
$GPRMC,100059.00,A,5211.720725,N,00008.716829,E,0.0,0.0,110226,,,A,V*26
$GPRMC,100100.00,A,5211.720725,N,00008.716828,E,0.0,0.0,110226,,,A,V*2A
$GPRMC,100101.00,A,5211.720725,N,00008.716828,E,0.0,0.0,110226,,,A,V*2B
$GPRMC,100102.00,A,5211.720725,N,00008.716828,E,0.0,0.0,110226,,,A,V*28
$GPRMC,100103.00,A,5211.720725,N,00008.716827,E,0.0,0.0,110226,,,A,V*26
$GPRMC,100104.00,A,5211.720724,N,00008.716827,E,0.0,0.0,110226,,,A,V*20
$GPRMC,100105.00,A,5211.720724,N,00008.716826,E,0.0,0.0,110226,,,A,V*20
$GPRMC,100106.00,A,5211.720724,N,00008.716826,E,0.0,0.0,110226,,,A,V*23
$GPRMC,100107.00,A,5211.720724,N,00008.716825,E,0.0,0.0,110226,,,A,V*21
$GPRMC,100108.00,A,5211.720723,N,00008.716825,E,0.0,0.0,110226,,,A,V*29
$GPRMC,100109.00,A,5211.720722,N,00008.716824,E,0.0,0.0,110226,,,A,V*28
$GPRMC,100110.00,A,5211.720722,N,00008.716823,E,0.0,0.0,110226,,,A,V*27
$GPRMC,172400.00,A,5211.720768,N,00008.716830,E,0.0,0.0,110226,,,A,V*2A
$GPRMC,172401.00,A,5211.720768,N,00008.716830,E,0.0,0.0,110226,,,A,V*2B
$GPRMC,172402.00,A,5211.720768,N,00008.716830,E,0.0,0.0,110226,,,A,V*28
$GPRMC,172403.00,A,5211.720768,N,00008.716830,E,0.0,0.0,110226,,,A,V*29
$GPRMC,172404.00,A,5211.720768,N,00008.716830,E,0.0,0.0,110226,,,A,V*2E
$GPRMC,172405.00,A,5211.720768,N,00008.716830,E,0.0,0.0,110226,,,A,V*2F
$GPRMC,172406.00,A,5211.720768,N,00008.716830,E,0.0,0.0,110226,,,A,V*2C
$GPRMC,172407.00,A,5211.720768,N,00008.716830,E,0.0,0.0,110226,,,A,V*2D
$GPRMC,172408.00,A,5211.720769,N,00008.716830,E,0.0,0.0,110226,,,A,V*23
$GPRMC,172409.00,A,5211.720769,N,00008.716830,E,0.0,0.0,110226,,,A,V*22
$GPRMC,172410.00,A,5211.720769,N,00008.716829,E,0.0,0.0,110226,,,A,V*22
$GPRMC,172411.00,A,5211.720769,N,00008.716829,E,0.0,0.0,110226,,,A,V*23
$GPRMC,172412.00,A,5211.720769,N,00008.716829,E,0.0,0.0,110226,,,A,V*20
$GPRMC,172413.00,A,5211.720769,N,00008.716829,E,0.0,0.0,110226,,,A,V*21
$GPRMC,172414.00,A,5211.720769,N,00008.716829,E,0.0,0.0,110226,,,A,V*26
$GPRMC,172415.00,A,5211.720769,N,00008.716829,E,0.0,0.0,110226,,,A,V*27
$GPRMC,172416.00,A,5211.720769,N,00008.716829,E,0.0,0.0,110226,,,A,V*24
$GPRMC,172417.00,A,5211.720769,N,00008.716829,E,0.0,0.0,110226,,,A,V*25
$GPRMC,172418.00,A,5211.720769,N,00008.716829,E,0.0,0.0,110226,,,A,V*2A
$GPRMC,172419.00,A,5211.720769,N,00008.716830,E,0.0,0.0,110226,,,A,V*23
$GPRMC,172420.00,A,5211.720769,N,00008.716829,E,0.0,0.0,110226,,,A,V*21
$GPRMC,172421.00,A,5211.720769,N,00008.716829,E,0.0,0.0,110226,,,A,V*20
$GPRMC,172422.00,A,5211.720769,N,00008.716829,E,0.0,0.0,110226,,,A,V*23
$GPRMC,172423.00,A,5211.720768,N,00008.716829,E,0.0,0.0,110226,,,A,V*23
$GPRMC,172424.00,A,5211.720768,N,00008.716829,E,0.0,0.0,110226,,,A,V*24
$GPRMC,172425.00,A,5211.720768,N,00008.716828,E,0.0,0.0,110226,,,A,V*24
$GPRMC,172426.00,A,5211.720769,N,00008.716828,E,0.0,0.0,110226,,,A,V*26
$GPRMC,172427.00,A,5211.720769,N,00008.716828,E,0.0,0.0,110226,,,A,V*27
$GPRMC,172428.00,A,5211.720768,N,00008.716828,E,0.0,0.0,110226,,,A,V*29
$GPRMC,172429.00,A,5211.720768,N,00008.716828,E,0.0,0.0,110226,,,A,V*28
$GPRMC,172430.00,A,5211.720768,N,00008.716828,E,0.0,0.0,110226,,,A,V*20
$GPRMC,172431.00,A,5211.720768,N,00008.716828,E,0.0,0.0,110226,,,A,V*21
$GPRMC,172432.00,A,5211.720768,N,00008.716828,E,0.0,0.0,110226,,,A,V*22
$GPRMC,172433.00,A,5211.720768,N,00008.716828,E,0.0,0.0,110226,,,A,V*23
$GPRMC,172434.00,A,5211.720768,N,00008.716828,E,0.0,0.0,110226,,,A,V*24
$GPRMC,172435.00,A,5211.720768,N,00008.716828,E,0.0,0.0,110226,,,A,V*25
$GPRMC,172436.00,A,5211.720768,N,00008.716828,E,0.0,0.0,110226,,,A,V*26
$GPRMC,172437.00,A,5211.720768,N,00008.716828,E,0.0,0.0,110226,,,A,V*27
$GPRMC,172438.00,A,5211.720768,N,00008.716828,E,0.0,0.0,110226,,,A,V*28
$GPRMC,172439.00,A,5211.720768,N,00008.716828,E,0.0,0.0,110226,,,A,V*29
$GPRMC,172440.00,A,5211.720768,N,00008.716827,E,0.0,0.0,110226,,,A,V*28
$GPRMC,172441.00,A,5211.720768,N,00008.716827,E,0.0,0.0,110226,,,A,V*29
$GPRMC,233642.00,A,5211.720439,N,00008.716466,E,0.0,0.0,110226,,,A,V*20
$GPRMC,233643.00,A,5211.720439,N,00008.716466,E,0.0,0.0,110226,,,A,V*21
$GPRMC,233644.00,A,5211.720439,N,00008.716466,E,0.0,0.0,110226,,,A,V*26
$GPRMC,233645.00,A,5211.720439,N,00008.716467,E,0.0,0.0,110226,,,A,V*26
$GPRMC,233646.00,A,5211.720439,N,00008.716467,E,0.0,0.0,110226,,,A,V*25
$GPRMC,233647.00,A,5211.720439,N,00008.716467,E,0.0,0.0,110226,,,A,V*24
$GPRMC,233648.00,A,5211.720439,N,00008.716467,E,0.0,0.0,110226,,,A,V*2B
$GPRMC,233649.00,A,5211.720439,N,00008.716467,E,0.0,0.0,110226,,,A,V*2A
$GPRMC,233650.00,A,5211.720439,N,00008.716467,E,0.0,0.0,110226,,,A,V*22
$GPRMC,233651.00,A,5211.720439,N,00008.716467,E,0.0,0.0,110226,,,A,V*23
$GPRMC,233652.00,A,5211.720439,N,00008.716467,E,0.0,0.0,110226,,,A,V*20
$GPRMC,233653.00,A,5211.720439,N,00008.716467,E,0.0,0.0,110226,,,A,V*21
$GPRMC,233654.00,A,5211.720439,N,00008.716467,E,0.0,0.0,110226,,,A,V*26
$GPRMC,233655.00,A,5211.720439,N,00008.716467,E,0.0,0.0,110226,,,A,V*27
$GPRMC,233656.00,A,5211.720439,N,00008.716466,E,0.0,0.0,110226,,,A,V*25
$GPRMC,233657.00,A,5211.720439,N,00008.716467,E,0.0,0.0,110226,,,A,V*25
$GPRMC,233658.00,A,5211.720439,N,00008.716467,E,0.0,0.0,110226,,,A,V*2A
$GPRMC,233659.00,A,5211.720440,N,00008.716467,E,0.0,0.0,110226,,,A,V*25
$GPRMC,233700.00,A,5211.720440,N,00008.716467,E,0.0,0.0,110226,,,A,V*28
$GPRMC,233701.00,A,5211.720440,N,00008.716467,E,0.0,0.0,110226,,,A,V*29
$GPRMC,233702.00,A,5211.720440,N,00008.716467,E,0.0,0.0,110226,,,A,V*2A
$GPRMC,233703.00,A,5211.720440,N,00008.716467,E,0.0,0.0,110226,,,A,V*2B
$GPRMC,233704.00,A,5211.720440,N,00008.716467,E,0.0,0.0,110226,,,A,V*2C
$GPRMC,233705.00,A,5211.720440,N,00008.716467,E,0.0,0.0,110226,,,A,V*2D
$GPRMC,233706.00,A,5211.720440,N,00008.716467,E,0.0,0.0,110226,,,A,V*2E
$GPRMC,233707.00,A,5211.720440,N,00008.716467,E,0.0,0.0,110226,,,A,V*2F
$GPRMC,233708.00,A,5211.720440,N,00008.716467,E,0.0,0.0,110226,,,A,V*20
$GPRMC,233709.00,A,5211.720440,N,00008.716467,E,0.0,0.0,110226,,,A,V*21
$GPRMC,233710.00,A,5211.720440,N,00008.716467,E,0.0,0.0,110226,,,A,V*29
$GPRMC,233711.00,A,5211.720440,N,00008.716467,E,0.0,0.0,110226,,,A,V*28
$GPRMC,233712.00,A,5211.720440,N,00008.716467,E,0.0,0.0,110226,,,A,V*2B
$GPRMC,233713.00,A,5211.720440,N,00008.716467,E,0.0,0.0,110226,,,A,V*2A
$GPRMC,233714.00,A,5211.720440,N,00008.716467,E,0.0,0.0,110226,,,A,V*2D
$GPRMC,233715.00,A,5211.720440,N,00008.716467,E,0.0,0.0,110226,,,A,V*2C
$GPRMC,233716.00,A,5211.720440,N,00008.716467,E,0.0,0.0,110226,,,A,V*2F
$GPRMC,233717.00,A,5211.720440,N,00008.716467,E,0.0,0.0,110226,,,A,V*2E
$GPRMC,233718.00,A,5211.720440,N,00008.716467,E,0.0,0.0,110226,,,A,V*21
$GPRMC,233719.00,A,5211.720440,N,00008.716467,E,0.0,0.0,110226,,,A,V*20
$GPRMC,233720.00,A,5211.720440,N,00008.716467,E,0.0,0.0,110226,,,A,V*2A
$GPRMC,233721.00,A,5211.720440,N,00008.716467,E,0.0,0.0,110226,,,A,V*2B
$GPRMC,233722.00,A,5211.720440,N,00008.716467,E,0.0,0.0,110226,,,A,V*28
$GPRMC,233723.00,A,5211.720440,N,00008.716467,E,0.0,0.0,110226,,,A,V*29
$GPRMC,233724.00,A,5211.720440,N,00008.716467,E,0.0,0.0,110226,,,A,V*2E
$GPRMC,233725.00,A,5211.720440,N,00008.716467,E,0.0,0.0,110226,,,A,V*2F
$GPRMC,233726.00,A,5211.720440,N,00008.716467,E,0.0,0.0,110226,,,A,V*2C
$GPRMC,233727.00,A,5211.720440,N,00008.716467,E,0.0,0.0,110226,,,A,V*2D
$GPRMC,233728.00,A,5211.720439,N,00008.716467,E,0.0,0.0,110226,,,A,V*2C
$GPRMC,233729.00,A,5211.720439,N,00008.716467,E,0.0,0.0,110226,,,A,V*2D
$GPRMC,233730.00,A,5211.720438,N,00008.716467,E,0.0,0.0,110226,,,A,V*24
$GPRMC,233731.00,A,5211.720438,N,00008.716467,E,0.0,0.0,110226,,,A,V*25
$GPRMC,233732.00,A,5211.720438,N,00008.716466,E,0.0,0.0,110226,,,A,V*27
$GPRMC,233733.00,A,5211.720438,N,00008.716466,E,0.0,0.0,110226,,,A,V*26
$GPRMC,233734.00,A,5211.720438,N,00008.716466,E,0.0,0.0,110226,,,A,V*21
$GPRMC,233735.00,A,5211.720437,N,00008.716466,E,0.0,0.0,110226,,,A,V*2F
$GPRMC,233736.00,A,5211.720437,N,00008.716466,E,0.0,0.0,110226,,,A,V*2C
$GPRMC,233900.00,A,5211.720438,N,00008.716467,E,0.0,0.0,110226,,,A,V*29
$GPRMC,233901.00,A,5211.720438,N,00008.716467,E,0.0,0.0,110226,,,A,V*28
$GPRMC,233902.00,A,5211.720438,N,00008.716467,E,0.0,0.0,110226,,,A,V*2B
$GPRMC,233903.00,A,5211.720438,N,00008.716467,E,0.0,0.0,110226,,,A,V*2A
$GPRMC,233904.00,A,5211.720438,N,00008.716467,E,0.0,0.0,110226,,,A,V*2D
$GPRMC,233905.00,A,5211.720438,N,00008.716467,E,0.0,0.0,110226,,,A,V*2C
$GPRMC,233906.00,A,5211.720438,N,00008.716467,E,0.0,0.0,110226,,,A,V*2F
$GPRMC,233907.00,A,5211.720438,N,00008.716467,E,0.0,0.0,110226,,,A,V*2E
$GPRMC,233908.00,A,5211.720438,N,00008.716467,E,0.0,0.0,110226,,,A,V*21
$GPRMC,233909.00,A,5211.720438,N,00008.716467,E,0.0,0.0,110226,,,A,V*20
$GPRMC,233910.00,A,5211.720438,N,00008.716467,E,0.0,0.0,110226,,,A,V*28
$GPRMC,233911.00,A,5211.720438,N,00008.716467,E,0.0,0.0,110226,,,A,V*29
$GPRMC,233912.00,A,5211.720438,N,00008.716467,E,0.0,0.0,110226,,,A,V*2A
$GPRMC,233913.00,A,5211.720438,N,00008.716467,E,0.0,0.0,110226,,,A,V*2B
$GPRMC,233914.00,A,5211.720438,N,00008.716467,E,0.0,0.0,110226,,,A,V*2C
$GPRMC,233915.00,A,5211.720438,N,00008.716467,E,0.0,0.0,110226,,,A,V*2D
$GPRMC,233916.00,A,5211.720437,N,00008.716467,E,0.0,0.0,110226,,,A,V*21
$GPRMC,233917.00,A,5211.720437,N,00008.716467,E,0.0,0.0,110226,,,A,V*20
$GPRMC,233918.00,A,5211.720437,N,00008.716467,E,0.0,0.0,110226,,,A,V*2F
$GPRMC,233919.00,A,5211.720437,N,00008.716467,E,0.0,0.0,110226,,,A,V*2E
$GPRMC,233920.00,A,5211.720437,N,00008.716467,E,0.0,0.0,110226,,,A,V*24
$GPRMC,233921.00,A,5211.720437,N,00008.716467,E,0.0,0.0,110226,,,A,V*25
$GPRMC,233922.00,A,5211.720437,N,00008.716467,E,0.0,0.0,110226,,,A,V*26
$GPRMC,233923.00,A,5211.720437,N,00008.716467,E,0.0,0.0,110226,,,A,V*27
$GPRMC,233924.00,A,5211.720437,N,00008.716467,E,0.0,0.0,110226,,,A,V*20
$GPRMC,233925.00,A,5211.720437,N,00008.716467,E,0.0,0.0,110226,,,A,V*21
$GPRMC,233926.00,A,5211.720437,N,00008.716467,E,0.0,0.0,110226,,,A,V*22
$GPRMC,233927.00,A,5211.720437,N,00008.716467,E,0.0,0.0,110226,,,A,V*23
$GPRMC,233928.00,A,5211.720437,N,00008.716467,E,0.0,0.0,110226,,,A,V*2C
$GPRMC,233929.00,A,5211.720437,N,00008.716467,E,0.0,0.0,110226,,,A,V*2D
$GPRMC,233930.00,A,5211.720437,N,00008.716467,E,0.0,0.0,110226,,,A,V*25
$GPRMC,233931.00,A,5211.720437,N,00008.716467,E,0.0,0.0,110226,,,A,V*24
$GPRMC,233932.00,A,5211.720437,N,00008.716467,E,0.0,0.0,110226,,,A,V*27
$GPRMC,233933.00,A,5211.720437,N,00008.716467,E,0.0,0.0,110226,,,A,V*26
$GPRMC,233934.00,A,5211.720437,N,00008.716467,E,0.0,0.0,110226,,,A,V*21
$GPRMC,233935.00,A,5211.720437,N,00008.716467,E,0.0,0.0,110226,,,A,V*20
$GPRMC,233936.00,A,5211.720437,N,00008.716467,E,0.0,0.0,110226,,,A,V*23
$GPRMC,233937.00,A,5211.720437,N,00008.716466,E,0.0,0.0,110226,,,A,V*23
$GPRMC,233938.00,A,5211.720437,N,00008.716466,E,0.0,0.0,110226,,,A,V*2C
$GPRMC,233939.00,A,5211.720437,N,00008.716466,E,0.0,0.0,110226,,,A,V*2D
$GPRMC,233940.00,A,5211.720437,N,00008.716466,E,0.0,0.0,110226,,,A,V*23
$GPRMC,233941.00,A,5211.720437,N,00008.716466,E,0.0,0.0,110226,,,A,V*22
$GPRMC,233942.00,A,5211.720437,N,00008.716466,E,0.0,0.0,110226,,,A,V*21
$GPRMC,233943.00,A,5211.720437,N,00008.716466,E,0.0,0.0,110226,,,A,V*20
$GPRMC,233944.00,A,5211.720437,N,00008.716466,E,0.0,0.0,110226,,,A,V*27
$GPRMC,233945.00,A,5211.720437,N,00008.716466,E,0.0,0.0,110226,,,A,V*26
$GPRMC,233946.00,A,5211.720437,N,00008.716466,E,0.0,0.0,110226,,,A,V*25
$GPRMC,233947.00,A,5211.720437,N,00008.716466,E,0.0,0.0,110226,,,A,V*24
$GPRMC,233948.00,A,5211.720437,N,00008.716466,E,0.0,0.0,110226,,,A,V*2B
$GPRMC,233949.00,A,5211.720437,N,00008.716466,E,0.0,0.0,110226,,,A,V*2A
$GPRMC,233950.00,A,5211.720437,N,00008.716466,E,0.0,0.0,110226,,,A,V*22
$GPRMC,233951.00,A,5211.720437,N,00008.716466,E,0.0,0.0,110226,,,A,V*23
$GPRMC,233952.00,A,5211.720437,N,00008.716466,E,0.0,0.0,110226,,,A,V*20
$GPRMC,233953.00,A,5211.720437,N,00008.716466,E,0.0,0.0,110226,,,A,V*21
$GPRMC,233954.00,A,5211.720438,N,00008.716466,E,0.0,0.0,110226,,,A,V*29
$GPRMC,233955.00,A,5211.720438,N,00008.716466,E,0.0,0.0,110226,,,A,V*28
$GPRMC,233956.00,A,5211.720438,N,00008.716466,E,0.0,0.0,110226,,,A,V*2B
$GPRMC,233957.00,A,5211.720438,N,00008.716466,E,0.0,0.0,110226,,,A,V*2A
$GPRMC,233958.00,A,5211.720438,N,00008.716466,E,0.0,0.0,110226,,,A,V*25
$GPRMC,233959.00,A,5211.720438,N,00008.716466,E,0.0,0.0,110226,,,A,V*24
$GPRMC,234000.00,A,5211.720438,N,00008.716466,E,0.0,0.0,110226,,,A,V*26
$GPRMC,234001.00,A,5211.720438,N,00008.716466,E,0.0,0.0,110226,,,A,V*27
$GPRMC,234002.00,A,5211.720438,N,00008.716466,E,0.0,0.0,110226,,,A,V*24
$GPRMC,234003.00,A,5211.720438,N,00008.716466,E,0.0,0.0,110226,,,A,V*25
$GPRMC,234004.00,A,5211.720438,N,00008.716466,E,0.0,0.0,110226,,,A,V*22
$GPRMC,234005.00,A,5211.720438,N,00008.716466,E,0.0,0.0,110226,,,A,V*23
$GPRMC,234006.00,A,5211.720438,N,00008.716466,E,0.0,0.0,110226,,,A,V*20
$GPRMC,234007.00,A,5211.720438,N,00008.716466,E,0.0,0.0,110226,,,A,V*21
$GPRMC,234008.00,A,5211.720438,N,00008.716466,E,0.0,0.0,110226,,,A,V*2E
$GPRMC,234009.00,A,5211.720438,N,00008.716466,E,0.0,0.0,110226,,,A,V*2F
$GPRMC,234010.00,A,5211.720438,N,00008.716466,E,0.0,0.0,110226,,,A,V*27
$GPRMC,234011.00,A,5211.720438,N,00008.716466,E,0.0,0.0,110226,,,A,V*26
$GPRMC,234012.00,A,5211.720438,N,00008.716466,E,0.0,0.0,110226,,,A,V*25
$GPRMC,234013.00,A,5211.720438,N,00008.716466,E,0.0,0.0,110226,,,A,V*24
$GPRMC,234014.00,A,5211.720438,N,00008.716466,E,0.0,0.0,110226,,,A,V*23
$GPRMC,234015.00,A,5211.720438,N,00008.716466,E,0.0,0.0,110226,,,A,V*22
$GPRMC,234016.00,A,5211.720438,N,00008.716466,E,0.0,0.0,110226,,,A,V*21
$GPRMC,234017.00,A,5211.720438,N,00008.716466,E,0.0,0.0,110226,,,A,V*20
$GPRMC,234018.00,A,5211.720439,N,00008.716466,E,0.0,0.0,110226,,,A,V*2E
$GPRMC,234019.00,A,5211.720439,N,00008.716466,E,0.0,0.0,110226,,,A,V*2F
$GPRMC,234020.00,A,5211.720439,N,00008.716465,E,0.0,0.0,110226,,,A,V*26
$GPRMC,234021.00,A,5211.720439,N,00008.716465,E,0.0,0.0,110226,,,A,V*27
$GPRMC,234022.00,A,5211.720439,N,00008.716465,E,0.0,0.0,110226,,,A,V*24
$GPRMC,234023.00,A,5211.720439,N,00008.716465,E,0.0,0.0,110226,,,A,V*25
$GPRMC,234024.00,A,5211.720439,N,00008.716465,E,0.0,0.0,110226,,,A,V*22
$GPRMC,234025.00,A,5211.720439,N,00008.716465,E,0.0,0.0,110226,,,A,V*23
$GPRMC,234026.00,A,5211.720439,N,00008.716465,E,0.0,0.0,110226,,,A,V*20
$GPRMC,234027.00,A,5211.720439,N,00008.716465,E,0.0,0.0,110226,,,A,V*21
$GPRMC,234028.00,A,5211.720439,N,00008.716465,E,0.0,0.0,110226,,,A,V*2E
$GPRMC,234029.00,A,5211.720439,N,00008.716465,E,0.0,0.0,110226,,,A,V*2F
$GPRMC,234030.00,A,5211.720438,N,00008.716465,E,0.0,0.0,110226,,,A,V*26
$GPRMC,234031.00,A,5211.720438,N,00008.716465,E,0.0,0.0,110226,,,A,V*27
$GPRMC,234032.00,A,5211.720438,N,00008.716465,E,0.0,0.0,110226,,,A,V*24
$GPRMC,234033.00,A,5211.720438,N,00008.716465,E,0.0,0.0,110226,,,A,V*25
$GPRMC,234034.00,A,5211.720438,N,00008.716465,E,0.0,0.0,110226,,,A,V*22
$GPRMC,234035.00,A,5211.720438,N,00008.716465,E,0.0,0.0,110226,,,A,V*23
$GPRMC,234036.00,A,5211.720438,N,00008.716465,E,0.0,0.0,110226,,,A,V*20
$GPRMC,234037.00,A,5211.720438,N,00008.716465,E,0.0,0.0,110226,,,A,V*21
$GPRMC,234038.00,A,5211.720439,N,00008.716466,E,0.0,0.0,110226,,,A,V*2C
$GPRMC,234039.00,A,5211.720438,N,00008.716466,E,0.0,0.0,110226,,,A,V*2C
$GPRMC,234040.00,A,5211.720439,N,00008.716466,E,0.0,0.0,110226,,,A,V*23
$GPRMC,234041.00,A,5211.720439,N,00008.716466,E,0.0,0.0,110226,,,A,V*22
$GPRMC,234042.00,A,5211.720439,N,00008.716466,E,0.0,0.0,110226,,,A,V*21
$GPRMC,234043.00,A,5211.720438,N,00008.716466,E,0.0,0.0,110226,,,A,V*21
$GPRMC,234044.00,A,5211.720438,N,00008.716466,E,0.0,0.0,110226,,,A,V*26
$GPRMC,234045.00,A,5211.720438,N,00008.716466,E,0.0,0.0,110226,,,A,V*27
$GPRMC,234046.00,A,5211.720438,N,00008.716466,E,0.0,0.0,110226,,,A,V*24
$GPRMC,234047.00,A,5211.720438,N,00008.716466,E,0.0,0.0,110226,,,A,V*25
$GPRMC,234048.00,A,5211.720438,N,00008.716466,E,0.0,0.0,110226,,,A,V*2A
$GPRMC,234049.00,A,5211.720438,N,00008.716466,E,0.0,0.0,110226,,,A,V*2B
$GPRMC,234050.00,A,5211.720438,N,00008.716466,E,0.0,0.0,110226,,,A,V*23
$GPRMC,234051.00,A,5211.720438,N,00008.716466,E,0.0,0.0,110226,,,A,V*22
$GPRMC,234052.00,A,5211.720438,N,00008.716466,E,0.0,0.0,110226,,,A,V*21
$GPRMC,234053.00,A,5211.720438,N,00008.716466,E,0.0,0.0,110226,,,A,V*20
$GPRMC,234054.00,A,5211.720438,N,00008.716466,E,0.0,0.0,110226,,,A,V*27
$GPRMC,234055.00,A,5211.720438,N,00008.716466,E,0.0,0.0,110226,,,A,V*26
$GPRMC,234056.00,A,5211.720438,N,00008.716466,E,0.0,0.0,110226,,,A,V*25
$GPRMC,234057.00,A,5211.720438,N,00008.716466,E,0.0,0.0,110226,,,A,V*24
$GPRMC,234058.00,A,5211.720438,N,00008.716466,E,0.0,0.0,110226,,,A,V*2B
$GPRMC,234059.00,A,5211.720438,N,00008.716466,E,0.0,0.0,110226,,,A,V*2A
$GPRMC,234100.00,A,5211.720438,N,00008.716466,E,0.0,0.0,110226,,,A,V*27
$GPRMC,234101.00,A,5211.720438,N,00008.716466,E,0.0,0.0,110226,,,A,V*26
$GPRMC,234102.00,A,5211.720438,N,00008.716466,E,0.0,0.0,110226,,,A,V*25
$GPRMC,234103.00,A,5211.720438,N,00008.716467,E,0.0,0.0,110226,,,A,V*25
$GPRMC,234104.00,A,5211.720438,N,00008.716467,E,0.0,0.0,110226,,,A,V*22
$GPRMC,234105.00,A,5211.720438,N,00008.716467,E,0.0,0.0,110226,,,A,V*23
$GPRMC,234106.00,A,5211.720438,N,00008.716467,E,0.0,0.0,110226,,,A,V*20
$GPRMC,234107.00,A,5211.720438,N,00008.716467,E,0.0,0.0,110226,,,A,V*21
$GPRMC,234108.00,A,5211.720438,N,00008.716467,E,0.0,0.0,110226,,,A,V*2E
$GPRMC,234109.00,A,5211.720438,N,00008.716467,E,0.0,0.0,110226,,,A,V*2F
$GPRMC,234110.00,A,5211.720438,N,00008.716466,E,0.0,0.0,110226,,,A,V*26
$GPRMC,234111.00,A,5211.720438,N,00008.716466,E,0.0,0.0,110226,,,A,V*27
$GPRMC,234112.00,A,5211.720438,N,00008.716466,E,0.0,0.0,110226,,,A,V*24
$GPRMC,234113.00,A,5211.720438,N,00008.716466,E,0.0,0.0,110226,,,A,V*25
$GPRMC,234114.00,A,5211.720438,N,00008.716466,E,0.0,0.0,110226,,,A,V*22
$GPRMC,234115.00,A,5211.720438,N,00008.716466,E,0.0,0.0,110226,,,A,V*23
$GPRMC,234116.00,A,5211.720438,N,00008.716466,E,0.0,0.0,110226,,,A,V*20
$GPRMC,234117.00,A,5211.720438,N,00008.716466,E,0.0,0.0,110226,,,A,V*21
$GPRMC,234118.00,A,5211.720438,N,00008.716466,E,0.0,0.0,110226,,,A,V*2E
$GPRMC,234119.00,A,5211.720438,N,00008.716466,E,0.0,0.0,110226,,,A,V*2F
$GPRMC,234120.00,A,5211.720438,N,00008.716466,E,0.0,0.0,110226,,,A,V*25
$GPRMC,234121.00,A,5211.720438,N,00008.716466,E,0.0,0.0,110226,,,A,V*24
$GPRMC,234122.00,A,5211.720438,N,00008.716466,E,0.0,0.0,110226,,,A,V*27
$GPRMC,234123.00,A,5211.720438,N,00008.716466,E,0.0,0.0,110226,,,A,V*26
$GPRMC,234124.00,A,5211.720438,N,00008.716466,E,0.0,0.0,110226,,,A,V*21
$GPRMC,234125.00,A,5211.720438,N,00008.716466,E,0.0,0.0,110226,,,A,V*20
$GPRMC,234126.00,A,5211.720438,N,00008.716466,E,0.0,0.0,110226,,,A,V*23
$GPRMC,234127.00,A,5211.720438,N,00008.716467,E,0.0,0.0,110226,,,A,V*23
$GPRMC,234128.00,A,5211.720438,N,00008.716467,E,0.0,0.0,110226,,,A,V*2C
$GPRMC,234129.00,A,5211.720438,N,00008.716467,E,0.0,0.0,110226,,,A,V*2D
$GPRMC,234130.00,A,5211.720438,N,00008.716467,E,0.0,0.0,110226,,,A,V*25
$GPRMC,234131.00,A,5211.720438,N,00008.716467,E,0.0,0.0,110226,,,A,V*24
$GPRMC,234132.00,A,5211.720438,N,00008.716467,E,0.0,0.0,110226,,,A,V*27
$GPRMC,234133.00,A,5211.720438,N,00008.716467,E,0.0,0.0,110226,,,A,V*26
$GPRMC,234134.00,A,5211.720438,N,00008.716467,E,0.0,0.0,110226,,,A,V*21
$GPRMC,234135.00,A,5211.720438,N,00008.716467,E,0.0,0.0,110226,,,A,V*20
$GPRMC,234136.00,A,5211.720438,N,00008.716467,E,0.0,0.0,110226,,,A,V*23
$GPRMC,234137.00,A,5211.720438,N,00008.716467,E,0.0,0.0,110226,,,A,V*22
$GPRMC,234138.00,A,5211.720438,N,00008.716467,E,0.0,0.0,110226,,,A,V*2D
$GPRMC,234139.00,A,5211.720438,N,00008.716467,E,0.0,0.0,110226,,,A,V*2C
$GPRMC,234140.00,A,5211.720438,N,00008.716467,E,0.0,0.0,110226,,,A,V*22
$GPRMC,234141.00,A,5211.720438,N,00008.716467,E,0.0,0.0,110226,,,A,V*23
$GPRMC,234142.00,A,5211.720438,N,00008.716467,E,0.0,0.0,110226,,,A,V*20
$GPRMC,234143.00,A,5211.720438,N,00008.716467,E,0.0,0.0,110226,,,A,V*21
$GPRMC,234144.00,A,5211.720439,N,00008.716467,E,0.0,0.0,110226,,,A,V*27
$GPRMC,234145.00,A,5211.720439,N,00008.716467,E,0.0,0.0,110226,,,A,V*26
$GPRMC,234146.00,A,5211.720439,N,00008.716467,E,0.0,0.0,110226,,,A,V*25
$GPRMC,234147.00,A,5211.720439,N,00008.716467,E,0.0,0.0,110226,,,A,V*24
$GPRMC,234148.00,A,5211.720439,N,00008.716467,E,0.0,0.0,110226,,,A,V*2B
$GPRMC,234149.00,A,5211.720439,N,00008.716467,E,0.0,0.0,110226,,,A,V*2A
$GPRMC,234150.00,A,5211.720439,N,00008.716467,E,0.0,0.0,110226,,,A,V*22
$GPRMC,234151.00,A,5211.720439,N,00008.716467,E,0.0,0.0,110226,,,A,V*23
$GPRMC,234152.00,A,5211.720439,N,00008.716467,E,0.0,0.0,110226,,,A,V*20
$GPRMC,234153.00,A,5211.720439,N,00008.716467,E,0.0,0.0,110226,,,A,V*21
$GPRMC,234154.00,A,5211.720439,N,00008.716467,E,0.0,0.0,110226,,,A,V*26
$GPRMC,234155.00,A,5211.720439,N,00008.716467,E,0.0,0.0,110226,,,A,V*27
$GPRMC,234156.00,A,5211.720439,N,00008.716467,E,0.0,0.0,110226,,,A,V*24
$GPRMC,234157.00,A,5211.720439,N,00008.716467,E,0.0,0.0,110226,,,A,V*25
$GPRMC,234158.00,A,5211.720439,N,00008.716467,E,0.0,0.0,110226,,,A,V*2A
$GPRMC,234159.00,A,5211.720439,N,00008.716467,E,0.0,0.0,110226,,,A,V*2B
$GPRMC,234200.00,A,5211.720439,N,00008.716467,E,0.0,0.0,110226,,,A,V*24
$GPRMC,234201.00,A,5211.720439,N,00008.716467,E,0.0,0.0,110226,,,A,V*25
$GPRMC,234202.00,A,5211.720439,N,00008.716467,E,0.0,0.0,110226,,,A,V*26
$GPRMC,234203.00,A,5211.720439,N,00008.716467,E,0.0,0.0,110226,,,A,V*27
$GPRMC,234204.00,A,5211.720440,N,00008.716467,E,0.0,0.0,110226,,,A,V*2E
$GPRMC,234205.00,A,5211.720440,N,00008.716467,E,0.0,0.0,110226,,,A,V*2F
$GPRMC,234206.00,A,5211.720440,N,00008.716467,E,0.0,0.0,110226,,,A,V*2C
